~Version Information
VERS .            2.00                          : CWLS Log ASCII Standard - Version 2.00
WRAP .            NO                            : One line per depth step
#
~Well Information
#MNEM.UNIT        DATA                          : DESCRIPTION
#----.----        ----                          : -----------
STRT .F            495.0                        : Start
STOP .F           5100.0                        : Stop
STEP .F              0.5                        : Step increment
NULL .            -999.250                      : Null value
COMP .            NEWARK E&P OPERATING, LLC     : Company
WELL .            HICKMAN #6                    : Well
FLD  .            KRS (MARBLE FALLS)            : Field
PROV .            PALO PINTO                    : Province
CTRY .            United States                 : State / Country
LOC  .            538' FWL & 1402' FSL OF       : Location
LOC2 .            TE&L CO SURVEY, A-441         : Location 2
SRVC .            Weatherford                   : Service company
API  .		  42363362450000		: API Number
UWI  .            42363362450000                : Unique Well ID
LATI .            32.923347                     : Latitude
LONG .            -98.220847                    : Longitude
DATE .            27-Sep-2014                   : Logging Date
#
~Curve Information
#MNEM.UNIT        API CODES                     : CURVE DESCRIPTION
#----.----        ---------                     : -----------------
DEPT .F           00 001 00 00                  : Logged depth
CGXT .DEGF        30 660 01 00                  : MCG External Temperature
SMTU .LB          30 635 00 00                  : DST Uphole Tension
GRGC .GAPI        30 310 01 00                  : Gamma Ray
SPCG .MV          30 010 00 00                  : Spontaneous Potential
FEFE .OHMM        10 220 06 00                  : Shallow FE
NPRL .V/V         42 890 01 00                  : Limestone Neutron Por.
CLDC .IN          45 280 01 00                  : Density Caliper
DCOR .G/C3        42 356 01 00                  : Density Correction
PDPE .B/E         45 358 01 00                  : PE
DPRL .V/V         45 890 10 00                  : Limestone Density Por.
MLTC .IN          15 280 01 00                  : MML Caliper
MNRL .OHMM        15 252 00 00                  : Micro-normal
MINV .OHMM        15 250 00 00                  : Micro-inverse
R40O .OHMM        07 120 44 00                  : Array Ind. One Res 40
R60O .OHMM        07 120 44 00                  : Array Ind. One Res 60
RTAO .OHMM        07 120 44 00                  : Array Ind. One Res Rt
DEN  .G/C3        42 350 01 00                  : Compensated Density
DFCL .IN          00 000 00 00                  : Differential Caliper
CTAO .----        07 120 44 00                  : Array Ind. One Cond Ct
#
~Parameter Information
#MNEM.UNIT        VALUE                         : DESCRIPTION
#----.----        -----                         : -----------
RNID .            MAIN PASS                     : Run ID
SON  .            7055-98956400                 : Job Number
DREF .            KB                            : Depth reference
EREF .F               932.000                   : Elevation of depth reference
GL   .F               921.000                   : Ground elevation
RUN  .            ONE                           : Run number
TDD  .F              5096.000                   : TD (driller)
TDL  .F              5093.000                   : TD (logger)
BS   .IN                7.875                   : Bit size
TIMC .                                          : Time circulation ended
TIML .                                          : Time logger at bottom
UNIT .              13226                       : Equipment ID
BASE .            OKC                           : Equipment base location
ENG  .            JUSTIN HICKS                  : Recording engineer
WIT  .            BEAU BEREND                   : Witnessed by
CSGT .            SURFACE                       : Casing type
CSGS .IN                8.625                   : Casing size
CSGW .LB/FT            24.003                   : Casing weight
CSGD .F               502.000                   : Casing bottom (driller)
CSGL .F               504.000                   : Casing bottom (logger)
CSUP .F           -999999.000                   : Casing Stick Up GL
MUD  .            WBM                           : Mud type
MUDS .            MUD PIT                       : Mud sample source
MUDD .LB/G              9.650                   : Mud density
MUDV .SEC/QT           58.000                   : Mud viscosity
PH   .                  9.500                   : Mud pH
FL   .ML/30MIN          7.400                   : Mud fluid loss rate
RM   .OHMM              1.900                   : Mud resistivity
RMT  .DEGF            100.000                   : Mud sample temperature
RMF  .OHMM              1.520                   : Mud filtrate resistivity
RMFT .DEGF            100.000                   : Mud filtrate sample temperature
RMC  .OHMM              2.280                   : Mud cake resistivity
RMCT .DEGF            100.000                   : Mud cake sample temperature
TMAX .DEGF            150.000                   : Max recorded temperature
#
~Other Information
----------------------------------------------------------------------------------------------------------
TOOLS RAN: CBH, SHA, MCG, MML, MDN, MPD, MFE, MAI RAN IN COMBINATION.
HARDWARE USED:     
TOOLS RAN WITHOUT STANDOFFS OR BOWSPRINGS PER CUSTOMER REQUEST. 
                
                                
2.71 G/CC DENSITY MATRIX USED TO CALCULATE POROSITY.
ALL INTERVALS LOGGED AND SCALED PER CUSTOMER'S REQUEST.
TOTAL HOLE VOLUME FROM TD TO SURFACE CASING = 1722 CU.FT.
ANNULAR HOLE VOLUME WITH 5.5 INCH PRODUCTION CASING FROM TD TO SURFACE CASING = 965 CU.FT. 
FIELD TICKET NUMBER: 7055-98956400
RIG:  E AND H, RIG #4
OPERATOR(S):  N. SCARNECHIA
MUD PROPERTIES:     
CHLORIDES: 900 MG/L
LCM: 6 PPB
*HOLE WASHOUTS AND RUGOSITY WILL AFFECT LOG QUALITY AND REPEATABILITY.*                                   
----------------------------------------------------------------------------------------------------------
#
#          DEPT           CGXT           SMTU           GRGC           SPCG           FEFE           NPRL           CLDC           DCOR           PDPE           DPRL           MLTC           MNRL           MINV           R40O           R60O           RTAO           DEN            DFCL           CTAO
#
~ASCII Log Data
# ...
         3235.5     127.605945     699.179070     149.532709     374.475493       7.610147       0.236874       8.026444       0.051065       3.395639       0.031261       7.927803       4.423586       6.202917       5.486189       5.496363       5.503290       2.656543       0.151444     181.713219
         3236.0     127.684195     688.515426     142.564725     373.572900       7.617173       0.236554       8.026253       0.046745       3.388210       0.037125       7.926975       4.238935       6.357133       5.504555       5.514961       5.522047       2.646517       0.151253     181.092564
         3236.5     127.597165     692.930491     137.071028     373.015423       7.679875       0.237355       8.025587       0.045898       3.390600       0.038508       7.925839       4.370129       6.508618       5.571046       5.582126       5.589678       2.644151       0.150587     178.902268
         3237.0     127.711938     694.958321     133.392655     372.768862       7.831349       0.236582       8.024916       0.050920       3.390538       0.030843       7.925116       4.683366       6.810119       5.704860       5.716955       5.725213       2.657258       0.149916     174.679156
         3237.5     127.623781     723.968439     134.088932     372.519061       7.853656       0.234004       8.025767       0.056718       3.399455       0.020750       7.924915       4.124612       5.586484       5.747979       5.760874       5.769697       2.674518       0.150767     173.326811
         3238.0     127.669102     810.722238     135.781599     372.432852       7.597583       0.230615       8.028660       0.058970       3.409885       0.016894       7.924956       4.126020       5.879818       5.595303       5.608330       5.617264       2.681112       0.153660     178.024909
         3238.5     127.666945     690.178377     135.989334     372.511356       7.812028       0.230669       8.031335       0.059767       3.429913       0.017646       7.925075       4.685714       6.681779       5.782962       5.796600       5.805976       2.679826       0.156335     172.252960
         3239.0     127.663491     529.652388     135.936195     372.182502       8.025394       0.233739       8.032379       0.057670       3.449370       0.024624       7.925156       4.683832       6.757843       5.966796       5.980610       5.990125       2.667893       0.157379     166.944473
         3239.5     127.714658     711.584463     134.892130     371.592529       8.125795       0.238784       8.032641       0.053079       3.458256       0.033924       7.925164       4.793666       6.947858       6.062240       6.075597       6.084806       2.651991       0.157641     164.345270
         3240.0     127.788135     690.491900     135.120648     370.910147       8.128755       0.242818       8.032671       0.048129       3.537736       0.038338       7.925422       4.672241       6.742264       6.083140       6.095454       6.103948       2.644441       0.157671     163.829139
         3240.5     127.682400     686.629328     134.090999     370.207658       8.064064       0.240435       8.032641       0.046322       3.585186       0.035216       7.926367       4.741213       7.033457       6.046568       6.057411       6.064884       2.649781       0.157641     164.883809
         3241.0     127.751510     687.017683     132.510810     369.869707       7.900443       0.233724       8.032654       0.049096       3.583698       0.027586       7.928231       4.631741       6.555884       5.922956       5.932000       5.938223       2.662829       0.157654     168.429790
         3241.5     127.748226     671.819648     131.668883     369.216566       7.671118       0.228306       8.032736       0.051078       3.594105       0.022631       7.930286       4.347225       6.369275       5.750546       5.757704       5.762618       2.671301       0.157736     173.534008
         3242.0     127.785726     729.217558     131.269171     368.672096       7.650470       0.226807       8.032797       0.048728       3.591228       0.023758       7.931601       4.372288       6.335326       5.724289       5.729832       5.733626       2.669374       0.157797     174.409706
         3242.5     127.708621     760.100293     129.725458     368.119923       7.721441       0.229585       8.032716       0.046385       3.630835       0.025120       7.932115       4.327742       6.309429       5.760382       5.764525       5.767351       2.667044       0.157716     173.393406
         3243.0     127.792151     696.787274     129.010498     367.203906       7.615611       0.232469       8.032645       0.044277       3.623979       0.027185       7.932393       4.362608       6.251156       5.665725       5.668619       5.670586       2.663514       0.157645     176.351825
         3243.5     127.751620     708.080979     132.474239     366.308608       7.596207       0.234649       8.032641       0.045175       3.529785       0.029036       7.932366       4.365249       6.302063       5.635100       5.637139       5.638521       2.660348       0.157641     177.352573
         3244.0     127.728069     677.819938     136.158490     365.353808       7.461384       0.238597       8.032641       0.049849       3.468479       0.028109       7.930752       4.358385       6.289162       5.517918       5.519432       5.520454       2.661934       0.157641     181.150428
         3244.5     127.797617     688.288948     139.670715     364.604505       7.280989       0.241118       8.032769       0.055266       3.431262       0.026675       7.927903       4.144388       5.967669       5.370078       5.371471       5.372410       2.664385       0.157769     186.146704
         3245.0     127.866245     734.526519     141.886937     363.985536       7.212320       0.241925       8.033774       0.059849       3.515769       0.023307       7.926338       4.287724       5.998125       5.304606       5.306233       5.307326       2.670145       0.158774     188.418888
         3245.5     127.803575     709.924842     142.823801     363.359673       7.110405       0.241669       8.035192       0.056331       3.626703       0.022052       7.925787       3.884712       5.773861       5.220583       5.222767       5.224232       2.672292       0.160192     191.416093
         3246.0     127.829282     712.453057     142.191136     362.524356       7.257652       0.244665       8.035742       0.047769       3.662328       0.021170       7.925319       3.986021       5.670206       5.323570       5.326623       5.328668       2.673799       0.160742     187.664454
         3246.5     127.841346     705.535077     139.045342     361.337026       7.349088       0.256684       8.035878       0.036231       3.679013       0.022668       7.925235       4.521314       6.431574       5.390084       5.394196       5.396952       2.671237       0.160878     185.289780
         3247.0     127.864031     721.769216     135.404389     359.970256       7.413712       0.267870       8.035967       0.029144       3.646511       0.024001       7.925311       3.986591       6.037772       5.444105       5.449351       5.452868       2.668958       0.160967     183.393556
         3247.5     127.815297     705.147199     134.211707     358.269583       7.164169       0.268344       8.033687       0.033605       3.596276       0.022745       7.925308       4.429337       7.860843       5.269963       5.276048       5.280130       2.671105       0.158687     189.416703
         3248.0     127.813537     655.373231     134.761538     356.810414       7.074621       0.258416       8.029257       0.044277       3.477640       0.021671       7.924986       3.757102       5.595060       5.215462       5.222356       5.226986       2.672943       0.154257     191.314914
         3248.5     127.884765     577.518565     136.869971     355.185907       7.093193       0.245247       8.026916       0.055876       3.364884       0.022579       7.924722       3.800931       6.070259       5.240992       5.248553       5.253639       2.671390       0.151916     190.349558
