~Version Information
VERS .            2.00                          : CWLS Log ASCII Standard - Version 2.00
WRAP .            NO                            : One line per depth step
#
~Well Information
#MNEM.UNIT        DATA                          : DESCRIPTION
#----.----        ----                          : -----------
STRT .F            495.0                        : Start
STOP .F           5100.0                        : Stop
STEP .F              0.5                        : Step increment
NULL .            -999.250                      : Null value
COMP .            NEWARK E&P OPERATING, LLC     : Company
WELL .            HICKMAN #6                    : Well
FLD  .            KRS (MARBLE FALLS)            : Field
PROV .            PALO PINTO                    : Province
CTRY .            United States                 : State / Country
LOC  .            538' FWL & 1402' FSL OF       : Location
LOC2 .            TE&L CO SURVEY, A-441         : Location 2
SRVC .            Weatherford                   : Service company
API  .		  42363362450000		: API Number
UWI  .            42363362450000                : Unique Well ID
LATI .            32.923347                     : Latitude
LONG .            -98.220847                    : Longitude
DATE .            27-Sep-2014                   : Logging Date
#
~Curve Information
#MNEM.UNIT        API CODES                     : CURVE DESCRIPTION
#----.----        ---------                     : -----------------
DEPT .F           00 001 00 00                  : Logged depth
CGXT .DEGF        30 660 01 00                  : MCG External Temperature
SMTU .LB          30 635 00 00                  : DST Uphole Tension
GRGC .GAPI        30 310 01 00                  : Gamma Ray
SPCG .MV          30 010 00 00                  : Spontaneous Potential
FEFE .OHMM        10 220 06 00                  : Shallow FE
NPRL .V/V         42 890 01 00                  : Limestone Neutron Por.
CLDC .IN          45 280 01 00                  : Density Caliper
DCOR .G/C3        42 356 01 00                  : Density Correction
PDPE .B/E         45 358 01 00                  : PE
DPRL .V/V         45 890 10 00                  : Limestone Density Por.
MLTC .IN          15 280 01 00                  : MML Caliper
MNRL .OHMM        15 252 00 00                  : Micro-normal
MINV .OHMM        15 250 00 00                  : Micro-inverse
R40O .OHMM        07 120 44 00                  : Array Ind. One Res 40
R60O .OHMM        07 120 44 00                  : Array Ind. One Res 60
RTAO .OHMM        07 120 44 00                  : Array Ind. One Res Rt
DEN  .G/C3        42 350 01 00                  : Compensated Density
DFCL .IN          00 000 00 00                  : Differential Caliper
CTAO .----        07 120 44 00                  : Array Ind. One Cond Ct
#
~Parameter Information
#MNEM.UNIT        VALUE                         : DESCRIPTION
#----.----        -----                         : -----------
RNID .            MAIN PASS                     : Run ID
SON  .            7055-98956400                 : Job Number
DREF .            KB                            : Depth reference
EREF .F               932.000                   : Elevation of depth reference
GL   .F               921.000                   : Ground elevation
RUN  .            ONE                           : Run number
TDD  .F              5096.000                   : TD (driller)
TDL  .F              5093.000                   : TD (logger)
BS   .IN                7.875                   : Bit size
TIMC .                                          : Time circulation ended
TIML .                                          : Time logger at bottom
UNIT .              13226                       : Equipment ID
BASE .            OKC                           : Equipment base location
ENG  .            JUSTIN HICKS                  : Recording engineer
WIT  .            BEAU BEREND                   : Witnessed by
CSGT .            SURFACE                       : Casing type
CSGS .IN                8.625                   : Casing size
CSGW .LB/FT            24.003                   : Casing weight
CSGD .F               502.000                   : Casing bottom (driller)
CSGL .F               504.000                   : Casing bottom (logger)
CSUP .F           -999999.000                   : Casing Stick Up GL
MUD  .            WBM                           : Mud type
MUDS .            MUD PIT                       : Mud sample source
MUDD .LB/G              9.650                   : Mud density
MUDV .SEC/QT           58.000                   : Mud viscosity
PH   .                  9.500                   : Mud pH
FL   .ML/30MIN          7.400                   : Mud fluid loss rate
RM   .OHMM              1.900                   : Mud resistivity
RMT  .DEGF            100.000                   : Mud sample temperature
RMF  .OHMM              1.520                   : Mud filtrate resistivity
RMFT .DEGF            100.000                   : Mud filtrate sample temperature
RMC  .OHMM              2.280                   : Mud cake resistivity
RMCT .DEGF            100.000                   : Mud cake sample temperature
TMAX .DEGF            150.000                   : Max recorded temperature
#
~Other Information
----------------------------------------------------------------------------------------------------------
TOOLS RAN: CBH, SHA, MCG, MML, MDN, MPD, MFE, MAI RAN IN COMBINATION.
HARDWARE USED:     
TOOLS RAN WITHOUT STANDOFFS OR BOWSPRINGS PER CUSTOMER REQUEST. 
                
                                
2.71 G/CC DENSITY MATRIX USED TO CALCULATE POROSITY.
ALL INTERVALS LOGGED AND SCALED PER CUSTOMER'S REQUEST.
TOTAL HOLE VOLUME FROM TD TO SURFACE CASING = 1722 CU.FT.
ANNULAR HOLE VOLUME WITH 5.5 INCH PRODUCTION CASING FROM TD TO SURFACE CASING = 965 CU.FT. 
FIELD TICKET NUMBER: 7055-98956400
RIG:  E AND H, RIG #4
OPERATOR(S):  N. SCARNECHIA
MUD PROPERTIES:     
CHLORIDES: 900 MG/L
LCM: 6 PPB
*HOLE WASHOUTS AND RUGOSITY WILL AFFECT LOG QUALITY AND REPEATABILITY.*                                   
----------------------------------------------------------------------------------------------------------
#
#          DEPT           CGXT           SMTU           GRGC           SPCG           FEFE           NPRL           CLDC           DCOR           PDPE           DPRL           MLTC           MNRL           MINV           R40O           R60O           RTAO           DEN            DFCL           CTAO
#
~ASCII Log Data
# ...
         1710.0     111.076907     533.842888      98.805159     347.004214       9.497538       0.209736       8.157268       0.060388       3.107313       0.072984       8.031070       7.024308       8.798406       8.174608       8.423614       8.629382       2.585198       0.282268     115.890721
         1710.5     111.088586     466.546242      93.981205     345.916547       9.745471       0.203814       8.156537       0.060220       3.100568       0.074078       8.035646       7.200950       9.388527       8.455497       8.711451       8.923320       2.583326       0.281537     112.076871
         1711.0     111.043906     574.842464      87.819102     344.227808      10.563623       0.187831       8.156464       0.053938       3.111395       0.082658       8.041144       8.854518      11.975123       9.215697       9.493492       9.723856       2.568655       0.281464     103.109318
         1711.5     111.165383     525.121017      82.889497     343.341690      11.507502       0.169472       8.161973       0.046183       3.089794       0.093791       8.049902       9.826931      11.643487       9.979324      10.279086      10.528009       2.549617       0.286973      94.986135
         1712.0     111.171781     467.705142      84.128698     343.483466      10.275407       0.159685       8.174269       0.043146       3.029447       0.100314       8.058804       7.681515       9.728189       9.026790       9.296838       9.521141       2.538463       0.299269     105.078343
         1712.5     111.086488     500.536291      91.920039     344.975644       9.926774       0.159666       8.184400       0.044538       2.955055       0.099809       8.065156       7.729768       9.313098       8.774264       9.035435       9.252315       2.539327       0.309400     108.081077
         1713.0     111.167416     499.736014      99.022829     346.573561       9.763345       0.165502       8.190912       0.049768       2.985417       0.090858       8.070453       7.173869       8.931809       8.654631       8.910671       9.123157       2.554633       0.315912     109.613941
         1713.5     111.230114     501.563127     102.506960     347.781950       9.566643       0.174378       8.195576       0.053184       3.051748       0.082764       8.073299       7.206329       9.415715       8.519243       8.769548       8.977088       2.568473       0.320576     111.395099
         1714.0     111.189503     471.276337     108.252113     348.652885       9.575740       0.185072       8.198862       0.052401       3.097014       0.079442       8.076849       6.870216       8.785516       8.539615       8.788690       8.995062       2.574154       0.323862     111.172221
         1714.5     111.165345     468.559561     113.804676     349.106437       9.674612       0.194601       8.201991       0.052094       3.117677       0.075453       8.080022       7.088816       9.200251       8.605416       8.854535       9.060813       2.580975       0.326991     110.365415
         1715.0     111.161454     477.605461     113.949826     349.350605       9.520095       0.201095       8.203148       0.053261       3.124733       0.070978       8.081257       6.808510       8.583813       8.479484       8.723095       8.924603       2.588628       0.328148     112.060373
         1715.5     111.252002     478.173346     113.449836     349.505093       9.401160       0.204692       8.205191       0.053963       3.152280       0.068847       8.083495       6.850817       8.423860       8.365985       8.604448       8.801576       2.592271       0.330191     113.617259
         1716.0     111.147690     462.003954     110.925909     349.443599       9.573429       0.205563       8.208113       0.052549       3.147500       0.070886       8.087990       6.921761       8.864013       8.517109       8.757815       8.956692       2.588785       0.333113     111.650599
         1716.5     111.102074     463.699079     109.785234     349.311328       9.908216       0.203334       8.211642       0.049165       3.104965       0.075895       8.093778       7.362114       9.686481       8.813423       9.060107       9.263874       2.580219       0.336642     107.954707
         1717.0     111.110282     485.429780     109.144104     349.370689      10.269980       0.198035       8.218453       0.047611       3.053947       0.077233       8.101274       7.810294      10.155348       9.132348       9.385004       9.593654       2.577932       0.343453     104.242519
         1717.5     111.246363     488.281250     108.892994     349.365387       9.994407       0.198556       8.225800       0.050300       3.025244       0.071229       8.109970       7.350017       9.184218       8.898238       9.140969       9.341322       2.588198       0.350800     107.061990
         1718.0     111.214865     447.465252     110.539474     349.534884       9.611859       0.208066       8.230794       0.054395       3.007974       0.061554       8.118678       6.797832       8.520424       8.567468       8.797106       8.986492       2.604742       0.355794     111.291627
         1718.5     111.207480     485.550835     111.555065     349.181721       9.313994       0.217551       8.233957       0.054113       2.962757       0.058614       8.126161       6.420040       8.656346       8.314303       8.532393       8.712089       2.609769       0.358957     114.785517
         1719.0     111.172540     534.640535     111.635901     348.897366       9.630923       0.219372       8.236402       0.046883       2.933712       0.068261       8.130584       7.207721       9.441813       8.596430       8.816092       8.996867       2.593273       0.361402     111.170354
         1719.5     111.193920     458.080348     109.569179     348.478837       9.670221       0.213231       8.238645       0.041923       2.968877       0.078593       8.132390       6.465949       8.585920       8.636574       8.850525       9.026273       2.575606       0.363645     110.790266
         1720.0     111.239291     461.067078     105.764478     348.340971      10.023742       0.205900       8.240692       0.042843       3.021698       0.082908       8.134038       7.765282       9.912835       8.952244       9.166107       9.341358       2.568227       0.365692     107.069687
         1720.5     111.167121     462.966668     101.730526     348.168471      10.364890       0.201746       8.242061       0.048058       3.032410       0.078911       8.137715       7.507887       9.946722       9.226094       9.437533       9.610049       2.575062       0.367061     104.062577
         1721.0     111.223096     481.035825     101.144865     348.305089      10.571826       0.199103       8.242362       0.053462       3.016532       0.070914       8.141471       7.868259       9.869284       9.376151       9.581294       9.747768       2.588736       0.367362     102.587937
         1721.5     111.274442     537.109375     104.461617     348.826501      10.650395       0.196200       8.242962       0.058216       3.048850       0.062076       8.143915       7.918434      10.555088       9.370821       9.565696       9.722599       2.603850       0.367962     102.853761
         1722.0     111.321872     488.824099     113.188634     349.480908      10.721987       0.194501       8.244607       0.061659       3.101402       0.055020       8.146613       8.396607      11.292113       9.347984       9.532170       9.679133       2.615915       0.369607     103.315054
         1722.5     111.286712     517.724705     122.746824     350.271536       9.576321       0.196527       8.246712       0.062116       3.136775       0.053015       8.148400       6.121716       7.876449       8.276296       8.430688       8.552567       2.619344       0.371712     117.052796
         1723.0     111.248464     511.956765     132.035474     351.097406       9.036574       0.202003       8.249464       0.058579       3.125123       0.056670       8.149101       5.994083       7.850878       7.724702       7.861044       7.967461       2.613094       0.374464     125.517185
