~Version Information
VERS .            2.00                          : CWLS Log ASCII Standard - Version 2.00
WRAP .            NO                            : One line per depth step
#
~Well Information
#MNEM.UNIT        DATA                          : DESCRIPTION
#----.----        ----                          : -----------
STRT .F            495.0                        : Start
STOP .F           5100.0                        : Stop
STEP .F              0.5                        : Step increment
NULL .            -999.250                      : Null value
COMP .            NEWARK E&P OPERATING, LLC     : Company
WELL .            HICKMAN #6                    : Well
FLD  .            KRS (MARBLE FALLS)            : Field
PROV .            PALO PINTO                    : Province
CTRY .            United States                 : State / Country
LOC  .            538' FWL & 1402' FSL OF       : Location
LOC2 .            TE&L CO SURVEY, A-441         : Location 2
SRVC .            Weatherford                   : Service company
API  .		  42363362450000		: API Number
UWI  .            42363362450000                : Unique Well ID
LATI .            32.923347                     : Latitude
LONG .            -98.220847                    : Longitude
DATE .            27-Sep-2014                   : Logging Date
#
~Curve Information
#MNEM.UNIT        API CODES                     : CURVE DESCRIPTION
#----.----        ---------                     : -----------------
DEPT .F           00 001 00 00                  : Logged depth
CGXT .DEGF        30 660 01 00                  : MCG External Temperature
SMTU .LB          30 635 00 00                  : DST Uphole Tension
GRGC .GAPI        30 310 01 00                  : Gamma Ray
SPCG .MV          30 010 00 00                  : Spontaneous Potential
FEFE .OHMM        10 220 06 00                  : Shallow FE
NPRL .V/V         42 890 01 00                  : Limestone Neutron Por.
CLDC .IN          45 280 01 00                  : Density Caliper
DCOR .G/C3        42 356 01 00                  : Density Correction
PDPE .B/E         45 358 01 00                  : PE
DPRL .V/V         45 890 10 00                  : Limestone Density Por.
MLTC .IN          15 280 01 00                  : MML Caliper
MNRL .OHMM        15 252 00 00                  : Micro-normal
MINV .OHMM        15 250 00 00                  : Micro-inverse
R40O .OHMM        07 120 44 00                  : Array Ind. One Res 40
R60O .OHMM        07 120 44 00                  : Array Ind. One Res 60
RTAO .OHMM        07 120 44 00                  : Array Ind. One Res Rt
DEN  .G/C3        42 350 01 00                  : Compensated Density
DFCL .IN          00 000 00 00                  : Differential Caliper
CTAO .----        07 120 44 00                  : Array Ind. One Cond Ct
#
~Parameter Information
#MNEM.UNIT        VALUE                         : DESCRIPTION
#----.----        -----                         : -----------
RNID .            MAIN PASS                     : Run ID
SON  .            7055-98956400                 : Job Number
DREF .            KB                            : Depth reference
EREF .F               932.000                   : Elevation of depth reference
GL   .F               921.000                   : Ground elevation
RUN  .            ONE                           : Run number
TDD  .F              5096.000                   : TD (driller)
TDL  .F              5093.000                   : TD (logger)
BS   .IN                7.875                   : Bit size
TIMC .                                          : Time circulation ended
TIML .                                          : Time logger at bottom
UNIT .              13226                       : Equipment ID
BASE .            OKC                           : Equipment base location
ENG  .            JUSTIN HICKS                  : Recording engineer
WIT  .            BEAU BEREND                   : Witnessed by
CSGT .            SURFACE                       : Casing type
CSGS .IN                8.625                   : Casing size
CSGW .LB/FT            24.003                   : Casing weight
CSGD .F               502.000                   : Casing bottom (driller)
CSGL .F               504.000                   : Casing bottom (logger)
CSUP .F           -999999.000                   : Casing Stick Up GL
MUD  .            WBM                           : Mud type
MUDS .            MUD PIT                       : Mud sample source
MUDD .LB/G              9.650                   : Mud density
MUDV .SEC/QT           58.000                   : Mud viscosity
PH   .                  9.500                   : Mud pH
FL   .ML/30MIN          7.400                   : Mud fluid loss rate
RM   .OHMM              1.900                   : Mud resistivity
RMT  .DEGF            100.000                   : Mud sample temperature
RMF  .OHMM              1.520                   : Mud filtrate resistivity
RMFT .DEGF            100.000                   : Mud filtrate sample temperature
RMC  .OHMM              2.280                   : Mud cake resistivity
RMCT .DEGF            100.000                   : Mud cake sample temperature
TMAX .DEGF            150.000                   : Max recorded temperature
#
~Other Information
----------------------------------------------------------------------------------------------------------
TOOLS RAN: CBH, SHA, MCG, MML, MDN, MPD, MFE, MAI RAN IN COMBINATION.
HARDWARE USED:     
TOOLS RAN WITHOUT STANDOFFS OR BOWSPRINGS PER CUSTOMER REQUEST. 
                
                                
2.71 G/CC DENSITY MATRIX USED TO CALCULATE POROSITY.
ALL INTERVALS LOGGED AND SCALED PER CUSTOMER'S REQUEST.
TOTAL HOLE VOLUME FROM TD TO SURFACE CASING = 1722 CU.FT.
ANNULAR HOLE VOLUME WITH 5.5 INCH PRODUCTION CASING FROM TD TO SURFACE CASING = 965 CU.FT. 
FIELD TICKET NUMBER: 7055-98956400
RIG:  E AND H, RIG #4
OPERATOR(S):  N. SCARNECHIA
MUD PROPERTIES:     
CHLORIDES: 900 MG/L
LCM: 6 PPB
*HOLE WASHOUTS AND RUGOSITY WILL AFFECT LOG QUALITY AND REPEATABILITY.*                                   
----------------------------------------------------------------------------------------------------------
#
#          DEPT           CGXT           SMTU           GRGC           SPCG           FEFE           NPRL           CLDC           DCOR           PDPE           DPRL           MLTC           MNRL           MINV           R40O           R60O           RTAO           DEN            DFCL           CTAO
#
~ASCII Log Data
# ...
         3546.0     132.855146     722.255334     130.922657     375.459841       5.947505       0.278202       8.248374       0.210028       4.283185       0.040864       7.998829       2.976464       2.623978       4.593994       4.572706       4.568463       2.640122       0.373374     218.893725
         3546.5     132.786464     734.537609     135.127547     375.199789       5.991659       0.291566       8.345624       0.250553       4.284020       0.059070       8.079918       2.993698       3.319191       4.596585       4.573915       4.569387       2.608990       0.470624     218.850863
         3547.0     132.766729     710.928730     138.592719     376.011516       5.726767       0.296168       8.416009       0.243855       4.278773       0.072822       8.089043       2.947147       2.041247       4.358975       4.336486       4.331994       2.585475       0.541009     231.062037
         3547.5     132.785547     721.766847     138.625593     377.517157       5.394270       0.289844       8.257027       0.204617       4.228474       0.065724       8.049615       3.453311       3.627123       4.069290       4.047804       4.043520       2.597612       0.382027     247.322793
         3548.0     132.828323     717.773438     135.862232     379.168138       5.245775       0.279059       8.116289       0.158811       4.055522       0.044683       8.041305       2.943551       4.194821       3.925845       3.905210       3.901109       2.633593       0.241289     256.343036
         3548.5     132.917642     713.790152     133.070516     380.187042       5.214672       0.275427       8.112775       0.119795       3.912694       0.024629       8.043556       2.939874       3.969979       3.870082       3.850444       3.846559       2.667884       0.237775     259.999666
         3549.0     132.886690     706.909476     131.510702     380.378370       5.057109       0.285291       8.112775       0.092488       3.892636       0.023797       8.045767       2.854309       4.258044       3.731728       3.714103       3.710643       2.669308       0.237775     269.501856
         3549.5     132.951709     705.419331     130.243135     380.144105       5.029931       0.302462       8.112775       0.082552       3.910205       0.028365       8.045743       2.722685       4.000059       3.698920       3.683301       3.680267       2.661495       0.237775     271.719441
         3550.0     132.842857     724.365435     127.667192     379.608481       5.079555       0.310081       8.112775       0.081515       3.943649       0.033053       8.037211       2.917747       4.890225       3.732303       3.718875       3.716309       2.653479       0.237775     269.332434
         3550.5     132.891199     786.961543     127.053261     378.873148       4.949964       0.301224       8.112453       0.081971       3.931584       0.040164       8.034958       2.765423       4.081015       3.640250       3.629785       3.627835       2.641319       0.237453     275.651513
         3551.0     132.867837     702.561243     129.934347     378.394354       5.114854       0.280532       8.107661       0.090246       3.888114       0.041808       8.052625       3.050415       3.470675       3.766196       3.758240       3.756812       2.638509       0.232661     266.183866
         3551.5     132.974765     722.181203     133.419863     378.366272       4.971517       0.267674       8.100918       0.096587       3.854213       0.044762       8.065624       2.903367       4.170666       3.670163       3.665200       3.664358       2.633456       0.225918     272.905634
         3552.0     132.865159     721.890227     132.607097     378.808572       4.820756       0.276152       8.102822       0.100066       3.815790       0.048319       8.064154       2.636099       3.517910       3.562944       3.560653       3.560290       2.627375       0.227822     280.908139
         3552.5     132.979382     713.955150     129.211823     379.222534       4.824316       0.291636       8.112309       0.102856       3.770870       0.054209       8.051628       2.743949       3.247252       3.571370       3.571354       3.571363       2.617302       0.237309     280.016136
         3553.0     132.896850     771.484375     130.213959     379.578743       5.132698       0.298577       8.133110       0.107914       3.748545       0.058843       8.045416       2.824311       3.164020       3.808513       3.810453       3.811601       2.609378       0.258110     262.436263
         3553.5     132.890590     775.359878     137.620865     380.369653       5.339264       0.291642       8.164506       0.109116       3.721137       0.062154       8.054885       3.149673       3.782137       3.964650       3.968209       3.970324       2.603716       0.289506     251.887604
         3554.0     132.889472     793.626513     148.149307     381.594476       5.659425       0.277350       8.182215       0.098875       3.655431       0.064244       8.060537       3.750310       5.069516       4.199277       4.204050       4.206899       2.600142       0.307215     237.812561
         3554.5     132.866551     751.732945     154.267893     382.670996       6.155249       0.269496       8.182150       0.075463       3.577607       0.070658       8.060804       3.160904       5.031139       4.544832       4.550491       4.553877       2.589175       0.307150     219.611780
         3555.0     133.028430     745.211867     155.040251     383.272279       6.213087       0.267737       8.180688       0.053818       3.499965       0.075501       8.060768       3.069355       4.589616       4.549046       4.554598       4.557926       2.580894       0.305688     219.469409
         3555.5     132.988063     713.623995     153.863917     383.175734       5.755735       0.267896       8.180593       0.046956       3.453519       0.071788       8.060576       2.868082       4.057841       4.197288       4.201871       4.204619       2.587243       0.305593     237.877364
         3556.0     132.942305     744.281740     153.748955     383.215556       5.580606       0.268792       8.180935       0.048288       3.538173       0.065914       8.060546       2.746475       4.091812       4.090471       4.094031       4.096168       2.597287       0.305935     244.132276
         3556.5     132.989593     727.037136     156.175029     383.004009       5.729847       0.268149       8.182035       0.049776       3.685907       0.062449       8.060753       2.824253       4.302626       4.169648       4.172078       4.173538       2.603212       0.307035     239.620132
         3557.0     132.970186     777.203603     156.779794     382.710792       6.129432       0.265856       8.183165       0.049468       3.749552       0.060009       8.061253       3.491319       5.865908       4.398624       4.399683       4.400320       2.607384       0.308165     227.366257
         3557.5     133.020856     772.479526     155.576090     382.531010       6.303373       0.261712       8.183540       0.050628       3.671001       0.055865       8.061671       3.351399       4.848305       4.518360       4.517764       4.517675       2.614471       0.308540     221.567142
         3558.0     132.931307     761.545680     150.791021     382.455915       5.700756       0.256775       8.183998       0.054902       3.530588       0.049895       8.061684       3.160336       4.617085       4.158889       4.156644       4.156296       2.624680       0.308998     240.661850
         3558.5     132.958223     729.958195     143.259768     382.782618       5.460607       0.255512       8.182482       0.056588       3.477603       0.047866       8.061718       3.224259       4.759941       4.026077       4.022169       4.021537       2.628148       0.307482     248.663067
         3559.0     132.938365     708.409764     136.754433     383.004296       5.532162       0.258169       8.176540       0.053567       3.503489       0.048860       8.061718       3.282091       4.946007       4.078902       4.073110       4.072138       2.626450       0.301540     245.583352
