~Version Information
VERS .            2.00                          : CWLS Log ASCII Standard - Version 2.00
WRAP .            NO                            : One line per depth step
#
~Well Information
#MNEM.UNIT        DATA                          : DESCRIPTION
#----.----        ----                          : -----------
STRT .F            495.0                        : Start
STOP .F           5100.0                        : Stop
STEP .F              0.5                        : Step increment
NULL .            -999.250                      : Null value
COMP .            NEWARK E&P OPERATING, LLC     : Company
WELL .            HICKMAN #6                    : Well
FLD  .            KRS (MARBLE FALLS)            : Field
PROV .            PALO PINTO                    : Province
CTRY .            United States                 : State / Country
LOC  .            538' FWL & 1402' FSL OF       : Location
LOC2 .            TE&L CO SURVEY, A-441         : Location 2
SRVC .            Weatherford                   : Service company
API  .		  42363362450000		: API Number
UWI  .            42363362450000                : Unique Well ID
LATI .            32.923347                     : Latitude
LONG .            -98.220847                    : Longitude
DATE .            27-Sep-2014                   : Logging Date
#
~Curve Information
#MNEM.UNIT        API CODES                     : CURVE DESCRIPTION
#----.----        ---------                     : -----------------
DEPT .F           00 001 00 00                  : Logged depth
CGXT .DEGF        30 660 01 00                  : MCG External Temperature
SMTU .LB          30 635 00 00                  : DST Uphole Tension
GRGC .GAPI        30 310 01 00                  : Gamma Ray
SPCG .MV          30 010 00 00                  : Spontaneous Potential
FEFE .OHMM        10 220 06 00                  : Shallow FE
NPRL .V/V         42 890 01 00                  : Limestone Neutron Por.
CLDC .IN          45 280 01 00                  : Density Caliper
DCOR .G/C3        42 356 01 00                  : Density Correction
PDPE .B/E         45 358 01 00                  : PE
DPRL .V/V         45 890 10 00                  : Limestone Density Por.
MLTC .IN          15 280 01 00                  : MML Caliper
MNRL .OHMM        15 252 00 00                  : Micro-normal
MINV .OHMM        15 250 00 00                  : Micro-inverse
R40O .OHMM        07 120 44 00                  : Array Ind. One Res 40
R60O .OHMM        07 120 44 00                  : Array Ind. One Res 60
RTAO .OHMM        07 120 44 00                  : Array Ind. One Res Rt
DEN  .G/C3        42 350 01 00                  : Compensated Density
DFCL .IN          00 000 00 00                  : Differential Caliper
CTAO .----        07 120 44 00                  : Array Ind. One Cond Ct
#
~Parameter Information
#MNEM.UNIT        VALUE                         : DESCRIPTION
#----.----        -----                         : -----------
RNID .            MAIN PASS                     : Run ID
SON  .            7055-98956400                 : Job Number
DREF .            KB                            : Depth reference
EREF .F               932.000                   : Elevation of depth reference
GL   .F               921.000                   : Ground elevation
RUN  .            ONE                           : Run number
TDD  .F              5096.000                   : TD (driller)
TDL  .F              5093.000                   : TD (logger)
BS   .IN                7.875                   : Bit size
TIMC .                                          : Time circulation ended
TIML .                                          : Time logger at bottom
UNIT .              13226                       : Equipment ID
BASE .            OKC                           : Equipment base location
ENG  .            JUSTIN HICKS                  : Recording engineer
WIT  .            BEAU BEREND                   : Witnessed by
CSGT .            SURFACE                       : Casing type
CSGS .IN                8.625                   : Casing size
CSGW .LB/FT            24.003                   : Casing weight
CSGD .F               502.000                   : Casing bottom (driller)
CSGL .F               504.000                   : Casing bottom (logger)
CSUP .F           -999999.000                   : Casing Stick Up GL
MUD  .            WBM                           : Mud type
MUDS .            MUD PIT                       : Mud sample source
MUDD .LB/G              9.650                   : Mud density
MUDV .SEC/QT           58.000                   : Mud viscosity
PH   .                  9.500                   : Mud pH
FL   .ML/30MIN          7.400                   : Mud fluid loss rate
RM   .OHMM              1.900                   : Mud resistivity
RMT  .DEGF            100.000                   : Mud sample temperature
RMF  .OHMM              1.520                   : Mud filtrate resistivity
RMFT .DEGF            100.000                   : Mud filtrate sample temperature
RMC  .OHMM              2.280                   : Mud cake resistivity
RMCT .DEGF            100.000                   : Mud cake sample temperature
TMAX .DEGF            150.000                   : Max recorded temperature
#
~Other Information
----------------------------------------------------------------------------------------------------------
TOOLS RAN: CBH, SHA, MCG, MML, MDN, MPD, MFE, MAI RAN IN COMBINATION.
HARDWARE USED:     
TOOLS RAN WITHOUT STANDOFFS OR BOWSPRINGS PER CUSTOMER REQUEST. 
                
                                
2.71 G/CC DENSITY MATRIX USED TO CALCULATE POROSITY.
ALL INTERVALS LOGGED AND SCALED PER CUSTOMER'S REQUEST.
TOTAL HOLE VOLUME FROM TD TO SURFACE CASING = 1722 CU.FT.
ANNULAR HOLE VOLUME WITH 5.5 INCH PRODUCTION CASING FROM TD TO SURFACE CASING = 965 CU.FT. 
FIELD TICKET NUMBER: 7055-98956400
RIG:  E AND H, RIG #4
OPERATOR(S):  N. SCARNECHIA
MUD PROPERTIES:     
CHLORIDES: 900 MG/L
LCM: 6 PPB
*HOLE WASHOUTS AND RUGOSITY WILL AFFECT LOG QUALITY AND REPEATABILITY.*                                   
----------------------------------------------------------------------------------------------------------
#
#          DEPT           CGXT           SMTU           GRGC           SPCG           FEFE           NPRL           CLDC           DCOR           PDPE           DPRL           MLTC           MNRL           MINV           R40O           R60O           RTAO           DEN            DFCL           CTAO
#
~ASCII Log Data
# ...
         5071.5    -999.250000     928.898818    -999.250000     300.363526      36.129698       0.053232       7.667441       0.070570       3.824014      -0.001260       7.236292       5.570230       3.886233      34.209653      38.192584      41.176560       2.712155      -0.207559      24.291264
         5072.0    -999.250000     907.134453    -999.250000     299.687970      35.294433       0.052500       7.652362       0.076703       3.722531      -0.007004       7.226787       5.569436       3.838364      33.564122      37.529964      40.389041       2.721977      -0.222638      24.777042
         5072.5    -999.250000     941.542965    -999.250000     298.767809      27.102799       0.051449       7.659201       0.087012       3.649066      -0.013553       7.217855       5.514294       3.762519      27.086992      30.318553      32.558193       2.733175      -0.215799      30.796519
         5073.0    -999.250000     899.976415    -999.250000     297.922274      18.707523       0.051252       7.660539       0.108137       3.633611      -0.026784       7.205490       5.452273       3.666512      19.215320      21.519491      23.062277       2.755800      -0.214461      43.482708
         5073.5    -999.250000     830.631159    -999.250000     297.003305      20.084268       0.052018       7.658668       0.138718       3.709704      -0.042916       7.197139       5.268718       3.409640      20.549939      23.017670      24.621126       2.783386      -0.216332      40.630248
         5074.0    -999.250000     942.305276    -999.250000     296.591949      22.966181       0.053180       7.657419       0.166201       3.842173      -0.052291    -999.250000    -999.250000    -999.250000      23.227957      26.008068      27.775156       2.799417      -0.217581      36.003542
         5074.5    -999.250000     989.164151    -999.250000     296.109682      23.200630       0.054089       7.656234       0.182358       3.902252      -0.056023    -999.250000    -999.250000    -999.250000      23.324373      26.091975      27.819540       2.805799      -0.218766      35.949016
         5075.0    -999.250000     893.656255    -999.250000     295.868142      26.731307       0.054287       7.654771       0.187524       3.916013      -0.058473    -999.250000    -999.250000    -999.250000      25.981463      29.017595      30.892259       2.809989      -0.220229      32.434503
         5075.5    -999.250000     919.119285    -999.250000     295.693132      31.760038       0.053843       7.654183       0.189162       3.939926      -0.060544    -999.250000    -999.250000    -999.250000      29.535116      32.913093      34.988489       2.813530      -0.220817      28.598585
         5076.0    -999.250000     897.235815    -999.250000     295.401291      38.852737       0.053304       7.654216       0.189382       3.995345      -0.059516    -999.250000    -999.250000    -999.250000      34.324470      38.136551      40.489021       2.811772      -0.220784      24.756086
         5076.5    -999.250000     899.391584    -999.250000     295.255064      47.585535       0.052980       7.654226       0.189685       4.036975      -0.056524    -999.250000    -999.250000    -999.250000      40.430769      44.772315      47.497969       2.806657      -0.220774      21.069708
         5077.0    -999.250000     974.875195    -999.250000     295.113049      51.649094       0.053065       7.654202       0.190642       3.950410      -0.056916    -999.250000    -999.250000    -999.250000      42.258121      46.607911      49.404112       2.807326      -0.220798      20.252524
         5077.5    -999.250000     910.947707    -999.250000     295.068077      43.092267       0.053974       7.654331       0.184538       3.804336      -0.054121    -999.250000    -999.250000    -999.250000      35.141297      38.579094      40.850955       2.802547      -0.220669      24.528409
         5078.0    -999.250000     944.315011    -999.250000     295.121338      35.532510       0.061147       7.655396       0.179865       3.715540      -0.052879    -999.250000    -999.250000    -999.250000      28.186843      30.793737      32.571111       2.800423      -0.219604      30.932213
         5078.5    -999.250000     915.691900    -999.250000     295.075659      29.529636       0.098110       7.656830       0.189510       3.712513      -0.063641    -999.250000    -999.250000    -999.250000      22.243232      24.178710      25.541018       2.818826      -0.218170      39.216629
         5079.0    -999.250000     957.031250    -999.250000     295.034611      28.475310       0.172506       7.657348       0.203702       3.761110      -0.076148    -999.250000    -999.250000    -999.250000      19.656584      21.268044      22.432327       2.840213      -0.217652      44.623198
         5079.5    -999.250000     921.643195    -999.250000     295.148919      28.441570       0.253733       7.657351       0.211488       3.813377      -0.082649    -999.250000    -999.250000    -999.250000      17.793024      19.170635      20.174503       2.851330      -0.217649      49.595074
         5080.0    -999.250000     944.731593    -999.250000     294.912159      28.438090       0.314714       7.657260       0.204576       3.844848      -0.074681    -999.250000    -999.250000    -999.250000      16.488858      17.701147      18.573529       2.837704      -0.217740      53.866197
         5080.5    -999.250000     952.306761    -999.250000     294.515789      28.430639    -999.250000       7.657206       0.192537       3.877836      -0.060792    -999.250000    -999.250000    -999.250000      15.060317      16.115900      16.840228       2.813954      -0.217794      59.434634
         5081.0    -999.250000     893.554688    -999.250000     293.726595      28.433762    -999.250000       7.657204       0.194118       3.903976      -0.061798    -999.250000    -999.250000    -999.250000      13.917890      14.852207      15.448256       2.815675      -0.217796      64.752761
         5081.5    -999.250000     874.301942    -999.250000     293.082366      28.435167    -999.250000       7.657151       0.202152       3.903225      -0.070587    -999.250000    -999.250000    -999.250000      12.940243      13.776053      14.264192       2.830703      -0.217849      70.155710
         5082.0    -999.250000     911.729911    -999.250000     292.640332      28.447548    -999.250000       7.656873       0.206207       3.891364      -0.076379    -999.250000    -999.250000    -999.250000      12.153074      12.910154      13.312294       2.840609      -0.218127      75.127805
         5082.5    -999.250000     905.575292    -999.250000     292.173779      28.448500    -999.250000       7.656222       0.202958       3.849298      -0.074035    -999.250000    -999.250000    -999.250000      11.536601      12.230905      12.568204       2.836600      -0.218778      79.601381
         5083.0    -999.250000     918.378649    -999.250000     291.618107      28.446494    -999.250000       7.655369       0.196008       3.790851      -0.066627    -999.250000    -999.250000    -999.250000      11.018980      11.658850      11.944181       2.823933      -0.219631      83.725356
         5083.5    -999.250000     967.936752    -999.250000     290.995362      28.432310    -999.250000       7.634007       0.191547       3.771802      -0.061289    -999.250000    -999.250000    -999.250000      10.720687      11.319906      11.568197       2.814804      -0.240993      86.456333
         5084.0    -999.250000     913.128047    -999.250000     290.363830      28.305615    -999.250000       7.514733       0.192665       3.845892      -0.058810    -999.250000    -999.250000    -999.250000      10.278256      10.827754      11.039305       2.810566      -0.360267      90.585997
         5084.5    -999.250000     923.182842    -999.250000     289.803443      28.010248    -999.250000       7.232926       0.200608       4.085584      -0.039285    -999.250000    -999.250000    -999.250000       9.937743      10.441291      10.622691       2.777177      -0.642074      94.148497
