~Version Information
VERS .            2.00                          : CWLS Log ASCII Standard - Version 2.00
WRAP .            NO                            : One line per depth step
#
~Well Information
#MNEM.UNIT        DATA                          : DESCRIPTION
#----.----        ----                          : -----------
STRT .F            495.0                        : Start
STOP .F           5100.0                        : Stop
STEP .F              0.5                        : Step increment
NULL .            -999.250                      : Null value
COMP .            NEWARK E&P OPERATING, LLC     : Company
WELL .            HICKMAN #6                    : Well
FLD  .            KRS (MARBLE FALLS)            : Field
PROV .            PALO PINTO                    : Province
CTRY .            United States                 : State / Country
LOC  .            538' FWL & 1402' FSL OF       : Location
LOC2 .            TE&L CO SURVEY, A-441         : Location 2
SRVC .            Weatherford                   : Service company
API  .		  42363362450000		: API Number
UWI  .            42363362450000                : Unique Well ID
LATI .            32.923347                     : Latitude
LONG .            -98.220847                    : Longitude
DATE .            27-Sep-2014                   : Logging Date
#
~Curve Information
#MNEM.UNIT        API CODES                     : CURVE DESCRIPTION
#----.----        ---------                     : -----------------
DEPT .F           00 001 00 00                  : Logged depth
CGXT .DEGF        30 660 01 00                  : MCG External Temperature
SMTU .LB          30 635 00 00                  : DST Uphole Tension
GRGC .GAPI        30 310 01 00                  : Gamma Ray
SPCG .MV          30 010 00 00                  : Spontaneous Potential
FEFE .OHMM        10 220 06 00                  : Shallow FE
NPRL .V/V         42 890 01 00                  : Limestone Neutron Por.
CLDC .IN          45 280 01 00                  : Density Caliper
DCOR .G/C3        42 356 01 00                  : Density Correction
PDPE .B/E         45 358 01 00                  : PE
DPRL .V/V         45 890 10 00                  : Limestone Density Por.
MLTC .IN          15 280 01 00                  : MML Caliper
MNRL .OHMM        15 252 00 00                  : Micro-normal
MINV .OHMM        15 250 00 00                  : Micro-inverse
R40O .OHMM        07 120 44 00                  : Array Ind. One Res 40
R60O .OHMM        07 120 44 00                  : Array Ind. One Res 60
RTAO .OHMM        07 120 44 00                  : Array Ind. One Res Rt
DEN  .G/C3        42 350 01 00                  : Compensated Density
DFCL .IN          00 000 00 00                  : Differential Caliper
CTAO .----        07 120 44 00                  : Array Ind. One Cond Ct
#
~Parameter Information
#MNEM.UNIT        VALUE                         : DESCRIPTION
#----.----        -----                         : -----------
RNID .            MAIN PASS                     : Run ID
SON  .            7055-98956400                 : Job Number
DREF .            KB                            : Depth reference
EREF .F               932.000                   : Elevation of depth reference
GL   .F               921.000                   : Ground elevation
RUN  .            ONE                           : Run number
TDD  .F              5096.000                   : TD (driller)
TDL  .F              5093.000                   : TD (logger)
BS   .IN                7.875                   : Bit size
TIMC .                                          : Time circulation ended
TIML .                                          : Time logger at bottom
UNIT .              13226                       : Equipment ID
BASE .            OKC                           : Equipment base location
ENG  .            JUSTIN HICKS                  : Recording engineer
WIT  .            BEAU BEREND                   : Witnessed by
CSGT .            SURFACE                       : Casing type
CSGS .IN                8.625                   : Casing size
CSGW .LB/FT            24.003                   : Casing weight
CSGD .F               502.000                   : Casing bottom (driller)
CSGL .F               504.000                   : Casing bottom (logger)
CSUP .F           -999999.000                   : Casing Stick Up GL
MUD  .            WBM                           : Mud type
MUDS .            MUD PIT                       : Mud sample source
MUDD .LB/G              9.650                   : Mud density
MUDV .SEC/QT           58.000                   : Mud viscosity
PH   .                  9.500                   : Mud pH
FL   .ML/30MIN          7.400                   : Mud fluid loss rate
RM   .OHMM              1.900                   : Mud resistivity
RMT  .DEGF            100.000                   : Mud sample temperature
RMF  .OHMM              1.520                   : Mud filtrate resistivity
RMFT .DEGF            100.000                   : Mud filtrate sample temperature
RMC  .OHMM              2.280                   : Mud cake resistivity
RMCT .DEGF            100.000                   : Mud cake sample temperature
TMAX .DEGF            150.000                   : Max recorded temperature
#
~Other Information
----------------------------------------------------------------------------------------------------------
TOOLS RAN: CBH, SHA, MCG, MML, MDN, MPD, MFE, MAI RAN IN COMBINATION.
HARDWARE USED:     
TOOLS RAN WITHOUT STANDOFFS OR BOWSPRINGS PER CUSTOMER REQUEST. 
                
                                
2.71 G/CC DENSITY MATRIX USED TO CALCULATE POROSITY.
ALL INTERVALS LOGGED AND SCALED PER CUSTOMER'S REQUEST.
TOTAL HOLE VOLUME FROM TD TO SURFACE CASING = 1722 CU.FT.
ANNULAR HOLE VOLUME WITH 5.5 INCH PRODUCTION CASING FROM TD TO SURFACE CASING = 965 CU.FT. 
FIELD TICKET NUMBER: 7055-98956400
RIG:  E AND H, RIG #4
OPERATOR(S):  N. SCARNECHIA
MUD PROPERTIES:     
CHLORIDES: 900 MG/L
LCM: 6 PPB
*HOLE WASHOUTS AND RUGOSITY WILL AFFECT LOG QUALITY AND REPEATABILITY.*                                   
----------------------------------------------------------------------------------------------------------
#
#          DEPT           CGXT           SMTU           GRGC           SPCG           FEFE           NPRL           CLDC           DCOR           PDPE           DPRL           MLTC           MNRL           MINV           R40O           R60O           RTAO           DEN            DFCL           CTAO
#
~ASCII Log Data
# ...
         4761.0     145.613104     875.656492      40.076281     390.895386     316.645675       0.055044       7.918604       0.053455       4.787310      -0.010987       7.867242     153.069166     170.106876     201.941711     270.632498     584.250302       2.728788       0.043604       1.721610
         4761.5     145.595364     853.560306      44.452799     390.606238     325.275022       0.061394       7.918604       0.051439       4.621261      -0.007728       7.865825     131.017201     145.620028     204.806509     275.165295     602.109928       2.723214       0.043604       1.667749
         4762.0     145.471904     867.093461      52.974328     390.627632     172.156959       0.071768       7.918604       0.052901       4.260886      -0.003457       7.865742      57.390160      66.090301     156.385460     210.368699     462.619591       2.715912       0.043604       2.176643
         4762.5     145.532170     903.654413      63.004519     391.055290     138.174996       0.084810       7.918604       0.056813       3.972372      -0.000841       7.866451      61.068111      77.126496     145.300842     197.040507     451.873382       2.711438       0.043604       2.214425
         4763.0     145.513043     907.718326      68.665776     390.913097     146.808803       0.096054       7.918604       0.055402       3.924888       0.005183       7.867010      58.206202      71.422015     150.087567     204.531973     478.817446       2.701137       0.043604       2.088592
         4763.5     145.662809     876.054250      67.216600     390.480358     137.727797       0.099376       7.918604       0.049407       3.994560       0.012695       7.867168      51.097617      63.516252     147.542144     202.549367     485.918850       2.688292       0.043604       2.058043
         4764.0     145.546952     948.959342      58.981974     389.504917     138.974620       0.093152       7.918604       0.046863       4.160825       0.011178       7.867118      52.286103      65.652783     152.720676     211.517729     518.060274       2.690886       0.043604       1.931521
         4764.5     145.641394     933.881151      46.506901     388.479283     236.821763       0.079383       7.918604       0.048737       4.439710       0.000633       7.867431     122.876320     152.738591     204.771092     287.622406     712.673895       2.708918       0.043604       1.426321
         4765.0     145.702067     895.489139      34.608386     387.414915     476.376992       0.063058       7.918604       0.049792       4.679565      -0.009730       7.867546     161.585979     165.142024     274.540940     389.188025     968.107464       2.726638       0.043604       1.035856
         4765.5     145.664169     891.252122      28.432940     386.921819     595.934409       0.048501       7.918604       0.044495       4.721791      -0.008437       7.867079     162.232460     166.644811     314.740448     451.149083    1117.818547       2.724427       0.043604       0.894840
         4766.0     145.652512     821.505774      30.859118     386.483651     521.626650       0.040028       7.918634       0.038202       4.568445       0.002053       7.867136     167.166358     166.615783     305.950651     442.452701    1092.238877       2.706489       0.043634       0.915704
         4766.5     145.717040     898.985957      41.173116     386.293581     287.107212       0.043124       7.918824       0.037147       4.309838       0.013285       7.871119      77.797218      88.996693     240.146587     347.712406     868.668322       2.687282       0.043824       1.163172
         4767.0     145.740691     832.037207      53.626796     386.074286     159.918039       0.055917       7.919413       0.039753       4.076034       0.021793       7.877231      59.771552      78.564042     177.985715     257.675517     653.841539       2.672734       0.044413       1.530758
         4767.5     145.686220     945.123078      62.980560     385.702787     147.479507       0.074237       7.920495       0.041462       3.984939       0.029053       7.882354      61.395072      72.623756     169.525754     246.424695     629.334608       2.660320       0.045495       1.589247
         4768.0     145.708032     947.843789      64.603023     384.806236     151.938114       0.089382       7.921203       0.042352       4.020844       0.030764       7.885585      56.545118      72.757439     173.147622     253.016136     648.968164       2.657393       0.046203       1.540967
         4768.5     145.725050     968.578610      57.393566     383.408673     173.694550       0.092850       7.921321       0.046083       4.311570       0.020690       7.885531      55.763209      72.591126     186.532112     273.940029     706.753902       2.674620       0.046321       1.416880
         4769.0     145.713335     875.740538      48.898381     382.121578     245.910703       0.086106       7.921375       0.049656       4.587032       0.007821       7.881319      90.082598     118.445811     224.549961     332.870714     854.886657       2.696626       0.046375       1.172617
         4769.5     145.724910     869.353941      45.676269     381.802761     356.231598       0.074343       7.921395       0.056293       4.525676      -0.003995       7.873247     121.209610     148.415587     265.701795     398.215382    1013.100465       2.716831       0.046395       0.987121
         4770.0     145.684580     846.180045      47.901992     381.705710     203.802141       0.065786       7.921430       0.061116       4.299293      -0.007115       7.868029      57.878347      75.701906     211.598634     319.791292     811.444779       2.722166       0.046430       1.238018
         4770.5     145.761190     893.024807      49.673564     381.812099     136.081875       0.065186       7.921293       0.062537       4.218106      -0.007886       7.866252      47.137308      66.858539     180.768265     277.030953     689.424483       2.723485       0.046293       1.450845
         4771.0     145.798324     890.631792      47.761262     381.553109     243.024071       0.068010       7.920743       0.064527       4.385862      -0.013543       7.864384     122.270976     159.658520     247.000086     386.877428     919.081896       2.733158       0.045743       1.092898
         4771.5     145.832940     896.228506      45.151455     380.872220     294.742433       0.067505       7.920269       0.061251       4.588354      -0.012817       7.862527     130.486160     150.840175     284.208315     456.312003    1021.100705       2.731917       0.045269       0.979997
         4772.0     145.743906     983.074331      42.693660     380.073279     193.514524       0.062859       7.920533       0.056733       4.673265      -0.008600       7.860915      55.666873      66.549969     244.926571     399.656051     865.245389       2.724705       0.045533       1.157090
         4772.5     145.785127     909.637611      41.525388     378.725693     304.286944       0.057193       7.920318       0.049351       4.681302       0.000432       7.859178     132.425008     156.563368     313.559406     527.700182    1052.143091       2.709261       0.045318       0.955842
         4773.0     145.874287     909.978806      43.828322     377.595266     396.056299       0.054438       7.919724       0.040722       4.666699       0.011736       7.858730     184.753278     169.295683     351.443216     598.751615    1160.196765       2.689931       0.044724       0.862270
         4773.5     145.794049     919.844621      47.590387     377.010825     241.419342       0.055194       7.920428       0.038942       4.700417       0.018033       7.861970      80.094840      81.945969     296.631729     509.965365     963.552042       2.679163       0.045428       1.044236
         4774.0     145.787022     900.309542      48.207355     376.730002     172.634843       0.057747       7.921378       0.043876       4.819373       0.016112       7.866362      87.839745      98.392043     270.643500     468.391779     848.309772       2.682448       0.046378       1.182752
