~Version Information
VERS .            2.00                          : CWLS Log ASCII Standard - Version 2.00
WRAP .            NO                            : One line per depth step
#
~Well Information
#MNEM.UNIT        DATA                          : DESCRIPTION
#----.----        ----                          : -----------
STRT .F            495.0                        : Start
STOP .F           5100.0                        : Stop
STEP .F              0.5                        : Step increment
NULL .            -999.250                      : Null value
COMP .            NEWARK E&P OPERATING, LLC     : Company
WELL .            HICKMAN #6                    : Well
FLD  .            KRS (MARBLE FALLS)            : Field
PROV .            PALO PINTO                    : Province
CTRY .            United States                 : State / Country
LOC  .            538' FWL & 1402' FSL OF       : Location
LOC2 .            TE&L CO SURVEY, A-441         : Location 2
SRVC .            Weatherford                   : Service company
API  .		  42363362450000		: API Number
UWI  .            42363362450000                : Unique Well ID
LATI .            32.923347                     : Latitude
LONG .            -98.220847                    : Longitude
DATE .            27-Sep-2014                   : Logging Date
#
~Curve Information
#MNEM.UNIT        API CODES                     : CURVE DESCRIPTION
#----.----        ---------                     : -----------------
DEPT .F           00 001 00 00                  : Logged depth
CGXT .DEGF        30 660 01 00                  : MCG External Temperature
SMTU .LB          30 635 00 00                  : DST Uphole Tension
GRGC .GAPI        30 310 01 00                  : Gamma Ray
SPCG .MV          30 010 00 00                  : Spontaneous Potential
FEFE .OHMM        10 220 06 00                  : Shallow FE
NPRL .V/V         42 890 01 00                  : Limestone Neutron Por.
CLDC .IN          45 280 01 00                  : Density Caliper
DCOR .G/C3        42 356 01 00                  : Density Correction
PDPE .B/E         45 358 01 00                  : PE
DPRL .V/V         45 890 10 00                  : Limestone Density Por.
MLTC .IN          15 280 01 00                  : MML Caliper
MNRL .OHMM        15 252 00 00                  : Micro-normal
MINV .OHMM        15 250 00 00                  : Micro-inverse
R40O .OHMM        07 120 44 00                  : Array Ind. One Res 40
R60O .OHMM        07 120 44 00                  : Array Ind. One Res 60
RTAO .OHMM        07 120 44 00                  : Array Ind. One Res Rt
DEN  .G/C3        42 350 01 00                  : Compensated Density
DFCL .IN          00 000 00 00                  : Differential Caliper
CTAO .----        07 120 44 00                  : Array Ind. One Cond Ct
#
~Parameter Information
#MNEM.UNIT        VALUE                         : DESCRIPTION
#----.----        -----                         : -----------
RNID .            MAIN PASS                     : Run ID
SON  .            7055-98956400                 : Job Number
DREF .            KB                            : Depth reference
EREF .F               932.000                   : Elevation of depth reference
GL   .F               921.000                   : Ground elevation
RUN  .            ONE                           : Run number
TDD  .F              5096.000                   : TD (driller)
TDL  .F              5093.000                   : TD (logger)
BS   .IN                7.875                   : Bit size
TIMC .                                          : Time circulation ended
TIML .                                          : Time logger at bottom
UNIT .              13226                       : Equipment ID
BASE .            OKC                           : Equipment base location
ENG  .            JUSTIN HICKS                  : Recording engineer
WIT  .            BEAU BEREND                   : Witnessed by
CSGT .            SURFACE                       : Casing type
CSGS .IN                8.625                   : Casing size
CSGW .LB/FT            24.003                   : Casing weight
CSGD .F               502.000                   : Casing bottom (driller)
CSGL .F               504.000                   : Casing bottom (logger)
CSUP .F           -999999.000                   : Casing Stick Up GL
MUD  .            WBM                           : Mud type
MUDS .            MUD PIT                       : Mud sample source
MUDD .LB/G              9.650                   : Mud density
MUDV .SEC/QT           58.000                   : Mud viscosity
PH   .                  9.500                   : Mud pH
FL   .ML/30MIN          7.400                   : Mud fluid loss rate
RM   .OHMM              1.900                   : Mud resistivity
RMT  .DEGF            100.000                   : Mud sample temperature
RMF  .OHMM              1.520                   : Mud filtrate resistivity
RMFT .DEGF            100.000                   : Mud filtrate sample temperature
RMC  .OHMM              2.280                   : Mud cake resistivity
RMCT .DEGF            100.000                   : Mud cake sample temperature
TMAX .DEGF            150.000                   : Max recorded temperature
#
~Other Information
----------------------------------------------------------------------------------------------------------
TOOLS RAN: CBH, SHA, MCG, MML, MDN, MPD, MFE, MAI RAN IN COMBINATION.
HARDWARE USED:     
TOOLS RAN WITHOUT STANDOFFS OR BOWSPRINGS PER CUSTOMER REQUEST. 
                
                                
2.71 G/CC DENSITY MATRIX USED TO CALCULATE POROSITY.
ALL INTERVALS LOGGED AND SCALED PER CUSTOMER'S REQUEST.
TOTAL HOLE VOLUME FROM TD TO SURFACE CASING = 1722 CU.FT.
ANNULAR HOLE VOLUME WITH 5.5 INCH PRODUCTION CASING FROM TD TO SURFACE CASING = 965 CU.FT. 
FIELD TICKET NUMBER: 7055-98956400
RIG:  E AND H, RIG #4
OPERATOR(S):  N. SCARNECHIA
MUD PROPERTIES:     
CHLORIDES: 900 MG/L
LCM: 6 PPB
*HOLE WASHOUTS AND RUGOSITY WILL AFFECT LOG QUALITY AND REPEATABILITY.*                                   
----------------------------------------------------------------------------------------------------------
#
#          DEPT           CGXT           SMTU           GRGC           SPCG           FEFE           NPRL           CLDC           DCOR           PDPE           DPRL           MLTC           MNRL           MINV           R40O           R60O           RTAO           DEN            DFCL           CTAO
#
~ASCII Log Data
# ...
         4464.0     142.624812     829.989254      58.565424     413.282581      16.682231       0.087813       8.129839       0.055726       3.935037       0.028238       8.071938       9.247820      13.880656      10.519396      10.545164      10.567661       2.661713       0.254839      94.739862
         4464.5     142.681828     886.279534      55.507460     413.127952      20.473051       0.089439       8.123846       0.057349       3.967934       0.025882       8.071359      42.947760      86.846791      12.693504      12.720399      12.743749       2.665742       0.248846      78.506009
         4465.0     142.626355     911.009649      54.971663     412.822038      17.952224       0.090916       8.142748       0.061686       3.910857       0.021357       8.086717      18.696694      18.338917      11.132380      11.155115      11.174750       2.673479       0.267748      90.926322
         4465.5     142.664670     814.020113      58.167612     412.440945      15.281828       0.092618       8.154930       0.063000       3.845646       0.023533       8.090789       8.714805      12.678353       9.503608       9.524841       9.543097       2.669759       0.279930     104.824038
         4466.0     142.625519     830.288794      61.077833     412.473281      15.930431       0.094860       8.153404       0.059402       3.886612       0.029939       8.087152       8.752810      12.244567       9.820366       9.847072       9.869962       2.658803       0.278404     101.317624
         4466.5     142.701209     811.397225      62.941815     412.617761      16.710938       0.096649       8.152838       0.054753       3.999379       0.033800       8.092503      21.278891      43.460272      10.237094      10.273306      10.304318       2.652202       0.277838      97.427061
         4467.0     142.702247     835.209680      66.170588     413.085005      16.335911       0.097895       8.164739       0.053480       3.999460       0.033813       8.108524      14.887706      17.495343       9.973479      10.019566      10.059039       2.652179       0.289739      99.852059
         4467.5     142.597364     845.527376      67.898474     413.459387      15.360404       0.100757       8.178206       0.056304       3.883467       0.031767       8.112785       8.040853      11.663245       9.410134       9.467752       9.517258       2.655678       0.303206     105.074764
         4468.0     142.708058     835.947492      68.060155     413.392916      15.323191       0.105739       8.175392       0.055791       3.756235       0.033329       8.097913       7.628625      10.724627       9.403745       9.478642       9.543323       2.653008       0.300392     104.787261
         4468.5     142.677609     871.148863      68.323658     413.110264      16.893104       0.109769       8.165081       0.051030       3.712497       0.038526       8.083509      14.077118      27.739004      10.259226      10.363995      10.454935       2.644121       0.290081      95.667374
         4469.0     142.695957     938.032192      68.572032     412.820515      16.234067       0.109852       8.158740       0.047043       3.740230       0.042173       8.078313      10.864835      14.666018       9.876176      10.002803      10.113629       2.637885       0.283740      98.908824
         4469.5     142.716810     890.725758      67.209445     412.316173      15.296412       0.106255       8.149675       0.048436       3.784235       0.037205       8.062294       7.759474      11.485574       9.325182       9.473760       9.605231       2.646380       0.274675     104.114264
         4470.0     142.665528     822.593564      64.416308     411.806604      18.222119       0.101135       8.134149       0.055478       3.803222       0.024868       8.043409      13.219172      24.099416      11.038211      11.253245      11.446276       2.667476       0.259149      87.516014
         4470.5     142.717663     820.006650      62.695477     411.628037      18.844034       0.095822       8.126256       0.059745       3.860868       0.015175       8.029792      10.913017      14.430687      11.388201      11.655521      11.899504       2.684051       0.251256      84.109993
         4471.0     142.782132     903.015723      65.098537     411.590912      19.910303       0.092112       8.121272       0.058511       3.815502       0.016823       8.027695      19.801015      41.309884      12.042758      12.380524      12.695276       2.681232       0.246272      78.775235
         4471.5     142.728890     866.271939      71.472144     411.568821      18.306763       0.092510       8.132721       0.051852       3.732364       0.035344       8.047955      11.730670      12.736298      11.139641      11.505686      11.854835       2.649562       0.257721      86.436262
         4472.0     142.760982     926.898432      76.517886     411.107676      13.109610       0.095657       8.141269       0.049099       3.725521       0.050347       8.048042       6.478203      10.049293       8.200084       8.517422       8.792326       2.623907       0.266269     113.755365
         4472.5     142.776489     930.394498      76.435329     410.350858      15.100598       0.096566       8.103816       0.050840       3.820497       0.050582       8.001692       7.604700      11.216491       9.533234       9.961400      10.285178       2.623504       0.228816      97.845507
         4473.0     142.703095     847.785195      71.797086     409.211575      23.666328       0.092089       8.038464       0.048913       3.909285       0.045560       7.958045      38.436827      72.315831      15.039193      15.813708      16.363313       2.632093       0.163464      62.679784
         4473.5     142.816105     884.455782      67.668343     407.602207      44.097479       0.081619       8.001327       0.046366       3.830351       0.037715       7.956211      64.780575      73.256836      27.519798      29.124622      30.243911       2.645507       0.126327      33.413972
         4474.0     142.790514     882.930286      64.279227     406.401380      49.998635       0.069271       7.992382       0.045815       3.804671       0.028579       7.960246      22.885401      34.091474      32.138641      34.237551      35.717530       2.661129       0.117382      28.194016
         4474.5     142.770719     794.399153      59.448316     405.316275      78.668715       0.058073       7.974585       0.052396       3.928984       0.011065       7.942109      45.758561      81.420191      49.319269      52.904096      55.535369       2.691080       0.099585      18.477110
         4475.0     142.768222     800.913244      54.201982     404.728556     135.859287       0.048380       7.955423       0.056593       4.107791      -0.002655       7.923832     112.388307     142.793042      77.556448      83.716619      88.504657       2.714540       0.080423      11.302092
         4475.5     142.836658     844.521793      50.215299     404.447469     111.795174       0.039737       7.949047       0.054820       4.260806      -0.005003       7.915200      47.366762      55.791906      71.576999      77.741798      82.956970       2.718556       0.074047      12.102489
         4476.0     142.770396     859.093239      50.071424     404.465986     107.153585       0.032045       7.945593       0.055066       4.335064      -0.003787       7.891592      61.554072      99.050923      73.998861      80.868776      87.441007       2.716475       0.070593      11.530404
         4476.5     142.734834     880.747359      51.646368     404.517739     156.512164       0.026628       7.939978       0.063211       4.345697      -0.007086       7.856663      73.748174     116.727957     101.432609     111.429788     122.620477       2.722116       0.064978       8.233366
         4477.0     142.721595     881.039235      54.304248     404.269513     152.848462       0.023762       7.937413       0.070186       4.350859      -0.009691       7.831281      70.413012     104.130537     104.173419     114.908065     129.904434       2.726571       0.062413       7.712569
