~Version Information
VERS .            2.00                          : CWLS Log ASCII Standard - Version 2.00
WRAP .            NO                            : One line per depth step
#
~Well Information
#MNEM.UNIT        DATA                          : DESCRIPTION
#----.----        ----                          : -----------
STRT .F            495.0                        : Start
STOP .F           5100.0                        : Stop
STEP .F              0.5                        : Step increment
NULL .            -999.250                      : Null value
COMP .            NEWARK E&P OPERATING, LLC     : Company
WELL .            HICKMAN #6                    : Well
FLD  .            KRS (MARBLE FALLS)            : Field
PROV .            PALO PINTO                    : Province
CTRY .            United States                 : State / Country
LOC  .            538' FWL & 1402' FSL OF       : Location
LOC2 .            TE&L CO SURVEY, A-441         : Location 2
SRVC .            Weatherford                   : Service company
API  .		  42363362450000		: API Number
UWI  .            42363362450000                : Unique Well ID
LATI .            32.923347                     : Latitude
LONG .            -98.220847                    : Longitude
DATE .            27-Sep-2014                   : Logging Date
#
~Curve Information
#MNEM.UNIT        API CODES                     : CURVE DESCRIPTION
#----.----        ---------                     : -----------------
DEPT .F           00 001 00 00                  : Logged depth
CGXT .DEGF        30 660 01 00                  : MCG External Temperature
SMTU .LB          30 635 00 00                  : DST Uphole Tension
GRGC .GAPI        30 310 01 00                  : Gamma Ray
SPCG .MV          30 010 00 00                  : Spontaneous Potential
FEFE .OHMM        10 220 06 00                  : Shallow FE
NPRL .V/V         42 890 01 00                  : Limestone Neutron Por.
CLDC .IN          45 280 01 00                  : Density Caliper
DCOR .G/C3        42 356 01 00                  : Density Correction
PDPE .B/E         45 358 01 00                  : PE
DPRL .V/V         45 890 10 00                  : Limestone Density Por.
MLTC .IN          15 280 01 00                  : MML Caliper
MNRL .OHMM        15 252 00 00                  : Micro-normal
MINV .OHMM        15 250 00 00                  : Micro-inverse
R40O .OHMM        07 120 44 00                  : Array Ind. One Res 40
R60O .OHMM        07 120 44 00                  : Array Ind. One Res 60
RTAO .OHMM        07 120 44 00                  : Array Ind. One Res Rt
DEN  .G/C3        42 350 01 00                  : Compensated Density
DFCL .IN          00 000 00 00                  : Differential Caliper
CTAO .----        07 120 44 00                  : Array Ind. One Cond Ct
#
~Parameter Information
#MNEM.UNIT        VALUE                         : DESCRIPTION
#----.----        -----                         : -----------
RNID .            MAIN PASS                     : Run ID
SON  .            7055-98956400                 : Job Number
DREF .            KB                            : Depth reference
EREF .F               932.000                   : Elevation of depth reference
GL   .F               921.000                   : Ground elevation
RUN  .            ONE                           : Run number
TDD  .F              5096.000                   : TD (driller)
TDL  .F              5093.000                   : TD (logger)
BS   .IN                7.875                   : Bit size
TIMC .                                          : Time circulation ended
TIML .                                          : Time logger at bottom
UNIT .              13226                       : Equipment ID
BASE .            OKC                           : Equipment base location
ENG  .            JUSTIN HICKS                  : Recording engineer
WIT  .            BEAU BEREND                   : Witnessed by
CSGT .            SURFACE                       : Casing type
CSGS .IN                8.625                   : Casing size
CSGW .LB/FT            24.003                   : Casing weight
CSGD .F               502.000                   : Casing bottom (driller)
CSGL .F               504.000                   : Casing bottom (logger)
CSUP .F           -999999.000                   : Casing Stick Up GL
MUD  .            WBM                           : Mud type
MUDS .            MUD PIT                       : Mud sample source
MUDD .LB/G              9.650                   : Mud density
MUDV .SEC/QT           58.000                   : Mud viscosity
PH   .                  9.500                   : Mud pH
FL   .ML/30MIN          7.400                   : Mud fluid loss rate
RM   .OHMM              1.900                   : Mud resistivity
RMT  .DEGF            100.000                   : Mud sample temperature
RMF  .OHMM              1.520                   : Mud filtrate resistivity
RMFT .DEGF            100.000                   : Mud filtrate sample temperature
RMC  .OHMM              2.280                   : Mud cake resistivity
RMCT .DEGF            100.000                   : Mud cake sample temperature
TMAX .DEGF            150.000                   : Max recorded temperature
#
~Other Information
----------------------------------------------------------------------------------------------------------
TOOLS RAN: CBH, SHA, MCG, MML, MDN, MPD, MFE, MAI RAN IN COMBINATION.
HARDWARE USED:     
TOOLS RAN WITHOUT STANDOFFS OR BOWSPRINGS PER CUSTOMER REQUEST. 
                
                                
2.71 G/CC DENSITY MATRIX USED TO CALCULATE POROSITY.
ALL INTERVALS LOGGED AND SCALED PER CUSTOMER'S REQUEST.
TOTAL HOLE VOLUME FROM TD TO SURFACE CASING = 1722 CU.FT.
ANNULAR HOLE VOLUME WITH 5.5 INCH PRODUCTION CASING FROM TD TO SURFACE CASING = 965 CU.FT. 
FIELD TICKET NUMBER: 7055-98956400
RIG:  E AND H, RIG #4
OPERATOR(S):  N. SCARNECHIA
MUD PROPERTIES:     
CHLORIDES: 900 MG/L
LCM: 6 PPB
*HOLE WASHOUTS AND RUGOSITY WILL AFFECT LOG QUALITY AND REPEATABILITY.*                                   
----------------------------------------------------------------------------------------------------------
#
#          DEPT           CGXT           SMTU           GRGC           SPCG           FEFE           NPRL           CLDC           DCOR           PDPE           DPRL           MLTC           MNRL           MINV           R40O           R60O           RTAO           DEN            DFCL           CTAO
#
~ASCII Log Data
# ...
          805.5     103.281598     361.966429     131.734142     344.786671       6.877838       0.230214       9.204378       0.057709       3.219267       0.093980       9.040084       4.951637       5.903616       6.274119       6.483191       6.636650       2.549295       1.329378     150.680617
          806.0     103.275398     374.971801     136.349893     344.232910       6.619396       0.236962       9.191919       0.055084       3.252331       0.091104       9.029647       4.652020       5.703092       6.043697       6.241320       6.385833       2.554211       1.316919     156.626760
          806.5     103.339570     400.765345     135.226524     343.947072       6.347590       0.243846       9.181715       0.059498       3.291237       0.084012       9.017294       4.447094       5.849451       5.805167       5.990807       6.126012       2.566340       1.306715     163.239894
          807.0     103.306968     387.635501     129.640333     343.256667       6.406121       0.250262       9.179236       0.065806       3.317712       0.077555       9.007726       4.427617       5.477048       5.848714       6.030961       6.162961       2.577381       1.304236     162.262000
          807.5     103.393985     365.150225     124.076135     343.046195       6.729476       0.253535       9.175204       0.066561       3.273583       0.078944       9.000983       4.747794       5.922517       6.115663       6.300755       6.433880       2.575005       1.300204     155.433950
          808.0     103.270740     364.257095     121.637713     344.508639       6.863580       0.250411       9.164962       0.064913       3.191026       0.081445       8.998014       4.894874       5.999529       6.201000       6.382804       6.512475       2.570730       1.289962     153.553580
          808.5     103.209659     312.830220     120.269444     346.398263       7.054295       0.245377       9.158784       0.062358       3.167499       0.083575       8.998287       5.014971       6.078936       6.315245       6.494253       6.620635       2.567087       1.283784     151.094038
          809.0     103.342792     326.612738     121.689337     348.712625       7.178346       0.244680       9.155165       0.057758       3.252004       0.089745       8.999755       5.361307       6.105927       6.350400       6.524438       6.645890       2.556535       1.280165     150.550507
          809.5     103.338427     332.308708     127.676915     349.293051       6.333690       0.248444       9.145431       0.051823       3.354350       0.097316       8.998435       4.550035       5.512246       5.541024       5.687923       5.789117       2.543590       1.270431     172.987079
          810.0     103.306614     406.700112     134.104758     349.932869       5.764390       0.258092       9.136158       0.044549       3.427911       0.104060       8.995841       3.981720       4.984161       4.976216       5.104095       5.191006       2.532058       1.261158     192.735755
          810.5     103.347072     396.182581     136.906538     350.163703       5.377646       0.274160       9.131613       0.042688       3.448497       0.101713       8.995113       3.222859       4.030567       4.583693       4.698281       4.775174       2.536071       1.256613     209.508150
          811.0     103.383883     389.039812     134.566009     351.182306       5.166113       0.293068       9.124982       0.045734       3.467884       0.091932       8.995230       3.027505       3.818663       4.355758       4.462120       4.532690       2.552797       1.249982     220.637527
          811.5     103.318033     366.421986     131.119352     351.579681       5.087779       0.307546       9.123090       0.051402       3.566529       0.080792       8.996522       2.892277       3.702549       4.251672       4.353560       4.420507       2.571845       1.248090     226.219887
          812.0     103.364118     335.498343     128.760553     351.393240       5.142704       0.314543       9.126078       0.056831       3.595054       0.073720       8.998144       3.129530       4.081776       4.273395       4.374311       4.440122       2.583939       1.251078     225.221553
          812.5     103.275104     304.591451     128.937472     350.724791       5.423573       0.313519       9.122478       0.057061       3.523496       0.075138       8.999147       3.193301       4.136304       4.482012       4.586681       4.654496       2.581514       1.247478     214.924939
          813.0     103.374442     334.149260     131.345717     350.268668       5.705862       0.305953       9.116257       0.052463       3.409779       0.083024       9.000878       3.566276       4.566388       4.696210       4.804929       4.874988       2.568029       1.241257     205.139044
          813.5     103.239802     398.961031     135.016534     350.272774       5.713183       0.295290       9.112015       0.044693       3.363527       0.094681       9.005758       3.519992       4.427357       4.684894       4.792563       4.861580       2.548096       1.237015     205.720286
          814.0     103.278096     371.948715     136.387695     349.586511       5.526050       0.288403       9.110934       0.041498       3.403665       0.100523       9.012637       3.310088       4.251863       4.516112       4.619190       4.684919       2.538105       1.235934     213.456534
          814.5     103.324738     347.762225     134.572655     350.161194       5.372463       0.294932       9.121873       0.045224       3.410243       0.097622       9.016646       3.238244       4.180241       4.373099       4.472229       4.535103       2.543067       1.246873     220.547836
          815.0     103.345591     419.622011     135.220547     349.637712       5.337453       0.310400       9.123109       0.051014       3.370516       0.091985       9.016962       3.089851       4.021769       4.325834       4.423195       4.484618       2.552705       1.248109     222.984495
          815.5     103.359773     370.780054     136.695788     350.429231       5.349049       0.325444       9.113874       0.055349       3.370112       0.086504       9.015926       3.198962       4.078757       4.310737       4.407065       4.467484       2.562078       1.238874     223.857591
          816.0     103.368286     358.688333     139.221019     351.393891       5.093597       0.333636       9.116147       0.057019       3.374938       0.082621       9.015296       2.788171       3.520351       4.086339       4.177029       4.233589       2.568717       1.241147     236.208493
          816.5     103.332308     395.507813     139.945322     351.891382       5.020199       0.329386       9.128292       0.054713       3.351057       0.083370       9.013747       2.828837       3.648341       4.007428       4.095851       4.150697       2.567438       1.253292     240.932334
          817.0     103.401913     361.328125     138.298648     351.722309       5.024707       0.321809       9.144743       0.051413       3.335226       0.085093       9.010773       2.855060       3.727113       3.993950       4.081676       4.135826       2.564491       1.269743     241.791108
          817.5     103.315933     382.974735     137.163823     351.719992       5.031713       0.318329       9.160154       0.048775       3.356661       0.088642       9.006922       2.795351       3.549806       3.988102       4.075446       4.129150       2.558422       1.285154     242.191012
          818.0     103.351277     374.124744     134.422324     351.374085       5.003907       0.318594       9.175117       0.049472       3.429948       0.091217       9.004417       2.846391       3.684867       3.958020       4.044572       4.097613       2.554020       1.300117     244.044520
          818.5     103.282899     395.985803     135.497809     351.977787       4.975083       0.321781       9.188002       0.055161       3.474793       0.089364       9.003341       2.788958       3.584329       3.932123       4.018069       4.070614       2.557188       1.313002     245.668770
