~Version Information
VERS .            2.00                          : CWLS Log ASCII Standard - Version 2.00
WRAP .            NO                            : One line per depth step
#
~Well Information
#MNEM.UNIT        DATA                          : DESCRIPTION
#----.----        ----                          : -----------
STRT .F            495.0                        : Start
STOP .F           5100.0                        : Stop
STEP .F              0.5                        : Step increment
NULL .            -999.250                      : Null value
COMP .            NEWARK E&P OPERATING, LLC     : Company
WELL .            HICKMAN #6                    : Well
FLD  .            KRS (MARBLE FALLS)            : Field
PROV .            PALO PINTO                    : Province
CTRY .            United States                 : State / Country
LOC  .            538' FWL & 1402' FSL OF       : Location
LOC2 .            TE&L CO SURVEY, A-441         : Location 2
SRVC .            Weatherford                   : Service company
API  .		  42363362450000		: API Number
UWI  .            42363362450000                : Unique Well ID
LATI .            32.923347                     : Latitude
LONG .            -98.220847                    : Longitude
DATE .            27-Sep-2014                   : Logging Date
#
~Curve Information
#MNEM.UNIT        API CODES                     : CURVE DESCRIPTION
#----.----        ---------                     : -----------------
DEPT .F           00 001 00 00                  : Logged depth
CGXT .DEGF        30 660 01 00                  : MCG External Temperature
SMTU .LB          30 635 00 00                  : DST Uphole Tension
GRGC .GAPI        30 310 01 00                  : Gamma Ray
SPCG .MV          30 010 00 00                  : Spontaneous Potential
FEFE .OHMM        10 220 06 00                  : Shallow FE
NPRL .V/V         42 890 01 00                  : Limestone Neutron Por.
CLDC .IN          45 280 01 00                  : Density Caliper
DCOR .G/C3        42 356 01 00                  : Density Correction
PDPE .B/E         45 358 01 00                  : PE
DPRL .V/V         45 890 10 00                  : Limestone Density Por.
MLTC .IN          15 280 01 00                  : MML Caliper
MNRL .OHMM        15 252 00 00                  : Micro-normal
MINV .OHMM        15 250 00 00                  : Micro-inverse
R40O .OHMM        07 120 44 00                  : Array Ind. One Res 40
R60O .OHMM        07 120 44 00                  : Array Ind. One Res 60
RTAO .OHMM        07 120 44 00                  : Array Ind. One Res Rt
DEN  .G/C3        42 350 01 00                  : Compensated Density
DFCL .IN          00 000 00 00                  : Differential Caliper
CTAO .----        07 120 44 00                  : Array Ind. One Cond Ct
#
~Parameter Information
#MNEM.UNIT        VALUE                         : DESCRIPTION
#----.----        -----                         : -----------
RNID .            MAIN PASS                     : Run ID
SON  .            7055-98956400                 : Job Number
DREF .            KB                            : Depth reference
EREF .F               932.000                   : Elevation of depth reference
GL   .F               921.000                   : Ground elevation
RUN  .            ONE                           : Run number
TDD  .F              5096.000                   : TD (driller)
TDL  .F              5093.000                   : TD (logger)
BS   .IN                7.875                   : Bit size
TIMC .                                          : Time circulation ended
TIML .                                          : Time logger at bottom
UNIT .              13226                       : Equipment ID
BASE .            OKC                           : Equipment base location
ENG  .            JUSTIN HICKS                  : Recording engineer
WIT  .            BEAU BEREND                   : Witnessed by
CSGT .            SURFACE                       : Casing type
CSGS .IN                8.625                   : Casing size
CSGW .LB/FT            24.003                   : Casing weight
CSGD .F               502.000                   : Casing bottom (driller)
CSGL .F               504.000                   : Casing bottom (logger)
CSUP .F           -999999.000                   : Casing Stick Up GL
MUD  .            WBM                           : Mud type
MUDS .            MUD PIT                       : Mud sample source
MUDD .LB/G              9.650                   : Mud density
MUDV .SEC/QT           58.000                   : Mud viscosity
PH   .                  9.500                   : Mud pH
FL   .ML/30MIN          7.400                   : Mud fluid loss rate
RM   .OHMM              1.900                   : Mud resistivity
RMT  .DEGF            100.000                   : Mud sample temperature
RMF  .OHMM              1.520                   : Mud filtrate resistivity
RMFT .DEGF            100.000                   : Mud filtrate sample temperature
RMC  .OHMM              2.280                   : Mud cake resistivity
RMCT .DEGF            100.000                   : Mud cake sample temperature
TMAX .DEGF            150.000                   : Max recorded temperature
#
~Other Information
----------------------------------------------------------------------------------------------------------
TOOLS RAN: CBH, SHA, MCG, MML, MDN, MPD, MFE, MAI RAN IN COMBINATION.
HARDWARE USED:     
TOOLS RAN WITHOUT STANDOFFS OR BOWSPRINGS PER CUSTOMER REQUEST. 
                
                                
2.71 G/CC DENSITY MATRIX USED TO CALCULATE POROSITY.
ALL INTERVALS LOGGED AND SCALED PER CUSTOMER'S REQUEST.
TOTAL HOLE VOLUME FROM TD TO SURFACE CASING = 1722 CU.FT.
ANNULAR HOLE VOLUME WITH 5.5 INCH PRODUCTION CASING FROM TD TO SURFACE CASING = 965 CU.FT. 
FIELD TICKET NUMBER: 7055-98956400
RIG:  E AND H, RIG #4
OPERATOR(S):  N. SCARNECHIA
MUD PROPERTIES:     
CHLORIDES: 900 MG/L
LCM: 6 PPB
*HOLE WASHOUTS AND RUGOSITY WILL AFFECT LOG QUALITY AND REPEATABILITY.*                                   
----------------------------------------------------------------------------------------------------------
#
#          DEPT           CGXT           SMTU           GRGC           SPCG           FEFE           NPRL           CLDC           DCOR           PDPE           DPRL           MLTC           MNRL           MINV           R40O           R60O           RTAO           DEN            DFCL           CTAO
#
~ASCII Log Data
# ...
         1413.0     107.893086     453.822678     114.759702     346.474755       8.276507       0.169866       8.393199       0.072688       2.919717       0.070545       8.132739       5.543336       6.449754       6.628425       6.696559       6.750317       2.589368       0.518199     148.175528
         1413.5     107.954421     424.031684     118.585767     348.027713       7.767172       0.194120       8.403787       0.069884       2.936125       0.073799       8.135461       4.646423       5.865100       6.158618       6.222940       6.272669       2.583803       0.528787     159.520468
         1414.0     107.994701     458.984375     122.695758     348.964784       7.531358       0.218298       8.405565       0.062010       2.975893       0.075564       8.145359       4.708865       6.154661       5.932967       5.997866       6.047274       2.580786       0.530565     165.368282
         1414.5     108.043822     450.779536     127.365294     349.760531       7.416359       0.238397       8.407784       0.055941       2.977355       0.074942       8.161741       4.595371       5.848646       5.832229       5.899992       5.951051       2.581848       0.532784     168.039754
         1415.0     107.981386     439.081031     129.621210     350.135974       7.475511       0.248624       8.411610       0.053497       3.092671       0.070351       8.171313       4.625654       5.717397       5.891269       5.964054       6.018582       2.589699       0.536610     166.152579
         1415.5     107.951909     468.216666     127.570336     349.959500       7.602495       0.248045       8.415790       0.050023       3.266254       0.066440       8.175491       4.622803       5.849485       6.005930       6.084248       6.142734       2.596388       0.540790     162.800559
         1416.0     108.030318     404.846215     121.884182     348.939859       7.978725       0.239274       8.419888       0.048238       3.347837       0.066121       8.179574       5.366687       6.645001       6.308421       6.394065       6.457942       2.596933       0.544888     154.872261
         1416.5     108.024805     415.611611     116.766054     347.420704       7.915343       0.229166       8.420738       0.050572       3.323173       0.066881       8.181935       5.787089       7.782215       6.253427       6.340540       6.405463       2.595634       0.545738     156.121831
         1417.0     107.984701     471.679876     114.104709     343.605268       8.092185       0.225239       8.415653       0.056827       3.228954       0.067833       8.182234       6.407950       8.076377       6.374690       6.464339       6.531171       2.594006       0.540653     153.115208
         1417.5     107.898203     439.962921     110.738994     340.769946       7.760549       0.226144       8.399862       0.064997       3.219782       0.069070       8.182530       5.813769       7.024622       6.100360       6.185895       6.249722       2.591890       0.524862     160.009080
         1418.0     107.942541     410.156250     101.967503     335.573116       7.625367       0.222430       8.371052       0.075264       3.134277       0.072434       8.182407       5.890164       7.324868       5.952250       6.034492       6.095888       2.586138       0.496052     164.099315
         1418.5     107.912828     427.506663      87.584842     331.400829       8.755697       0.208360       8.345652       0.082551       2.928528       0.084335       8.184358      10.254285      15.732067       6.740704       6.831974       6.900113       2.565788       0.470652     145.010717
         1419.0     108.091476     443.916767      70.639975     326.729124       9.704402       0.184834       8.332198       0.086806       2.708167       0.099655       8.201407      13.845430      16.819920       7.336432       7.433644       7.506121       2.539590       0.457198     133.322290
         1419.5     107.970608     443.092354      58.591259     324.060049       7.996758       0.160560       8.324262       0.087471       2.644901       0.110623       8.220545      10.267532      12.582348       6.056344       6.135111       6.193629       2.520834       0.449262     161.534915
         1420.0     108.084375     475.495785      52.757943     323.085462       7.125913       0.143212       8.318224       0.081159       2.783727       0.115777       8.198619       6.805672       8.083696       5.515468       5.586536       5.639178       2.512021       0.443224     177.398561
         1420.5     108.049520     502.165868      47.292131     322.068793       9.303449       0.134848       8.312888       0.073832       2.839445       0.116705       8.107021       9.923024      10.151405       6.703628       6.790248       6.854334       2.510434       0.437888     148.576586
         1421.0     108.042386     449.253822      42.532978     320.875896      17.671763       0.133578       8.320921       0.068497       2.743383       0.119026       8.012894      13.375882       8.585040      11.158378      11.305144      11.413593       2.506466       0.445921      89.073655
         1421.5     108.100382     480.826773      41.404319     320.118205      19.205858       0.133997       8.357445       0.069200       2.566599       0.122873       7.995470      11.507289       6.889332      12.243796      12.409835      12.532392       2.499886       0.482445      79.933923
         1422.0     107.974176     443.743333      46.377222     320.956538      14.943461       0.136601       8.417219       0.074933       2.468766       0.125279       8.044227      10.676542       6.640099      10.116876      10.260484      10.366321       2.495772       0.542219      96.886519
         1422.5     108.124191     465.161755      55.544389     323.091729      11.067706       0.143417       8.477483       0.076301       2.482066       0.128148       8.149316      11.098340       7.945436       7.830425       7.948131       8.034812       2.490868       0.602483     125.498545
         1423.0     107.991065     435.296475      65.674213     326.235857       7.392664       0.153810       8.521395       0.073108       2.523274       0.127778       8.263679       7.012763       7.478444       5.448551       5.535999       5.600428       2.491500       0.646395     180.769095
         1423.5     107.996233     447.775609      77.947715     330.114513       6.206423       0.165312       8.547685       0.072681       2.635685       0.117174       8.313527       5.415286       6.815877       4.690155       4.771204       4.831211       2.509632       0.672685     207.267126
         1424.0     107.972703     456.360168      90.243372     333.548419       7.184581       0.174318       8.560106       0.075334       2.886151       0.099605       8.314024       6.466270       7.854077       5.500280       5.602363       5.678609       2.539675       0.685106     176.518916
         1424.5     108.024740     434.570313     103.228687     338.331655       8.223522       0.184999       8.549082       0.077242       3.155321       0.081969       8.300035       6.512564       7.995162       6.432435       6.560160       6.656453       2.569832       0.674082     150.329386
         1425.0     108.074585     447.335721     114.786151     341.765857       8.274851       0.203055       8.522615       0.074808       3.301493       0.072094       8.287628       5.595037       7.270728       6.641649       6.781812       6.888584       2.586720       0.647615     145.167730
         1425.5     108.051784     500.913101     119.459866     345.190123       7.712509       0.224038       8.498161       0.066822       3.320659       0.073658       8.284385       5.028871       6.491345       6.357404       6.498690       6.607513       2.584045       0.623161     151.377305
         1426.0     108.011812     431.655793     116.747584     345.873012       7.224573       0.236594       8.469806       0.062063       3.376934       0.073836       8.284385       4.616217       5.877945       6.110116       6.251698       6.361982       2.583741       0.594806     157.188604
