~Version Information
VERS .            2.00                          : CWLS Log ASCII Standard - Version 2.00
WRAP .            NO                            : One line per depth step
#
~Well Information
#MNEM.UNIT        DATA                          : DESCRIPTION
#----.----        ----                          : -----------
STRT .F            495.0                        : Start
STOP .F           5100.0                        : Stop
STEP .F              0.5                        : Step increment
NULL .            -999.250                      : Null value
COMP .            NEWARK E&P OPERATING, LLC     : Company
WELL .            HICKMAN #6                    : Well
FLD  .            KRS (MARBLE FALLS)            : Field
PROV .            PALO PINTO                    : Province
CTRY .            United States                 : State / Country
LOC  .            538' FWL & 1402' FSL OF       : Location
LOC2 .            TE&L CO SURVEY, A-441         : Location 2
SRVC .            Weatherford                   : Service company
API  .		  42363362450000		: API Number
UWI  .            42363362450000                : Unique Well ID
LATI .            32.923347                     : Latitude
LONG .            -98.220847                    : Longitude
DATE .            27-Sep-2014                   : Logging Date
#
~Curve Information
#MNEM.UNIT        API CODES                     : CURVE DESCRIPTION
#----.----        ---------                     : -----------------
DEPT .F           00 001 00 00                  : Logged depth
CGXT .DEGF        30 660 01 00                  : MCG External Temperature
SMTU .LB          30 635 00 00                  : DST Uphole Tension
GRGC .GAPI        30 310 01 00                  : Gamma Ray
SPCG .MV          30 010 00 00                  : Spontaneous Potential
FEFE .OHMM        10 220 06 00                  : Shallow FE
NPRL .V/V         42 890 01 00                  : Limestone Neutron Por.
CLDC .IN          45 280 01 00                  : Density Caliper
DCOR .G/C3        42 356 01 00                  : Density Correction
PDPE .B/E         45 358 01 00                  : PE
DPRL .V/V         45 890 10 00                  : Limestone Density Por.
MLTC .IN          15 280 01 00                  : MML Caliper
MNRL .OHMM        15 252 00 00                  : Micro-normal
MINV .OHMM        15 250 00 00                  : Micro-inverse
R40O .OHMM        07 120 44 00                  : Array Ind. One Res 40
R60O .OHMM        07 120 44 00                  : Array Ind. One Res 60
RTAO .OHMM        07 120 44 00                  : Array Ind. One Res Rt
DEN  .G/C3        42 350 01 00                  : Compensated Density
DFCL .IN          00 000 00 00                  : Differential Caliper
CTAO .----        07 120 44 00                  : Array Ind. One Cond Ct
#
~Parameter Information
#MNEM.UNIT        VALUE                         : DESCRIPTION
#----.----        -----                         : -----------
RNID .            MAIN PASS                     : Run ID
SON  .            7055-98956400                 : Job Number
DREF .            KB                            : Depth reference
EREF .F               932.000                   : Elevation of depth reference
GL   .F               921.000                   : Ground elevation
RUN  .            ONE                           : Run number
TDD  .F              5096.000                   : TD (driller)
TDL  .F              5093.000                   : TD (logger)
BS   .IN                7.875                   : Bit size
TIMC .                                          : Time circulation ended
TIML .                                          : Time logger at bottom
UNIT .              13226                       : Equipment ID
BASE .            OKC                           : Equipment base location
ENG  .            JUSTIN HICKS                  : Recording engineer
WIT  .            BEAU BEREND                   : Witnessed by
CSGT .            SURFACE                       : Casing type
CSGS .IN                8.625                   : Casing size
CSGW .LB/FT            24.003                   : Casing weight
CSGD .F               502.000                   : Casing bottom (driller)
CSGL .F               504.000                   : Casing bottom (logger)
CSUP .F           -999999.000                   : Casing Stick Up GL
MUD  .            WBM                           : Mud type
MUDS .            MUD PIT                       : Mud sample source
MUDD .LB/G              9.650                   : Mud density
MUDV .SEC/QT           58.000                   : Mud viscosity
PH   .                  9.500                   : Mud pH
FL   .ML/30MIN          7.400                   : Mud fluid loss rate
RM   .OHMM              1.900                   : Mud resistivity
RMT  .DEGF            100.000                   : Mud sample temperature
RMF  .OHMM              1.520                   : Mud filtrate resistivity
RMFT .DEGF            100.000                   : Mud filtrate sample temperature
RMC  .OHMM              2.280                   : Mud cake resistivity
RMCT .DEGF            100.000                   : Mud cake sample temperature
TMAX .DEGF            150.000                   : Max recorded temperature
#
~Other Information
----------------------------------------------------------------------------------------------------------
TOOLS RAN: CBH, SHA, MCG, MML, MDN, MPD, MFE, MAI RAN IN COMBINATION.
HARDWARE USED:     
TOOLS RAN WITHOUT STANDOFFS OR BOWSPRINGS PER CUSTOMER REQUEST. 
                
                                
2.71 G/CC DENSITY MATRIX USED TO CALCULATE POROSITY.
ALL INTERVALS LOGGED AND SCALED PER CUSTOMER'S REQUEST.
TOTAL HOLE VOLUME FROM TD TO SURFACE CASING = 1722 CU.FT.
ANNULAR HOLE VOLUME WITH 5.5 INCH PRODUCTION CASING FROM TD TO SURFACE CASING = 965 CU.FT. 
FIELD TICKET NUMBER: 7055-98956400
RIG:  E AND H, RIG #4
OPERATOR(S):  N. SCARNECHIA
MUD PROPERTIES:     
CHLORIDES: 900 MG/L
LCM: 6 PPB
*HOLE WASHOUTS AND RUGOSITY WILL AFFECT LOG QUALITY AND REPEATABILITY.*                                   
----------------------------------------------------------------------------------------------------------
#
#          DEPT           CGXT           SMTU           GRGC           SPCG           FEFE           NPRL           CLDC           DCOR           PDPE           DPRL           MLTC           MNRL           MINV           R40O           R60O           RTAO           DEN            DFCL           CTAO
#
~ASCII Log Data
# ...
         1102.5     106.041503     426.542358      43.169306     290.641426      10.167322       0.184497       8.011263       0.154872       3.166826       0.161826       7.615799       9.673455       6.467671       2.692809       2.419419       2.350152       2.433278       0.136263     425.508868
         1103.0     106.044270     402.191092      45.743215     295.510398       9.187398       0.178123       8.029731       0.155406       3.188305       0.153452       7.626072       8.669701       6.205546       2.651388       2.389968       2.323599       2.447597       0.154731     430.567563
         1103.5     105.994839     365.701783      51.175981     300.480759       8.473392       0.181750       8.049203       0.152857       3.182591       0.149459       7.637804       9.504123       6.560890       2.601714       2.352603       2.289215       2.454425       0.174203     436.876316
         1104.0     106.104210     352.105854      56.676933     304.172109       8.053134       0.194672       8.063215       0.150942       3.120453       0.147068       7.658601       8.949918       6.137361       2.564065       2.325196       2.264113       2.458513       0.188215     442.118758
         1104.5     106.145558     358.368424      61.459373     305.234584       6.671361       0.207973       8.076989       0.148071       3.056027       0.148257       7.669298       7.481896       5.974178       2.245924       2.042169       1.989668       2.456481       0.201989     502.909749
         1105.0     106.132583     405.471262      63.301719     304.500421       7.610412       0.214073       8.081156       0.141529       2.975281       0.155131       7.666121       8.857046       6.105532       2.554838       2.328505       2.269731       2.444727       0.206156     441.669893
         1105.5     106.158992     365.474771      63.402597     302.569099       7.847988       0.214409       8.077800       0.135650       2.906248       0.163749       7.666341       8.613637       6.017651       2.686532       2.453364       2.392357       2.429989       0.202800     418.043593
         1106.0     106.127128     418.231670      62.061512     301.453158       8.162581       0.212603       8.083226       0.130096       2.850639       0.172972       7.674193       8.951643       6.100068       2.835254       2.593432       2.529660       2.414218       0.208226     395.489030
         1106.5     106.204168     437.965758      59.951267     301.948293       8.409443       0.210459       8.097788       0.135852       2.874052       0.168460       7.687143       8.767014       6.095090       2.954588       2.706027       2.640015       2.421933       0.222788     378.823844
         1107.0     106.177756     405.273438      57.648272     303.677421       8.442634       0.210086       8.108964       0.149811       2.926868       0.153788       7.704374       9.437555       6.396178       3.008270       2.757722       2.690793       2.447023       0.233964     371.638028
         1107.5     106.222716     418.489640      57.342690     305.167548       8.672959       0.210282       8.125165       0.156227       2.888131       0.142923       7.722891       8.999344       6.224487       3.105106       2.848138       2.779228       2.465601       0.250165     360.015075
         1108.0     106.242248     387.343061      57.673533     305.775897       9.887468       0.207021       8.142974       0.154706       2.856583       0.137710       7.736049      10.018813       6.625486       3.483551       3.196123       3.118893       2.474516       0.267974     321.033748
         1108.5     106.304333     416.432973      58.571592     305.272455       9.832656       0.199064       8.160766       0.149765       2.857723       0.137909       7.743238       8.866223       6.204497       3.472772       3.186221       3.109249       2.474175       0.285766     321.673804
         1109.0     106.353907     388.609315      61.911433     304.850272      10.455301       0.189752       8.187368       0.148751       2.973189       0.136197       7.757074      10.274318       6.478937       3.609349       3.310865       3.230840       2.477104       0.312368     309.643488
         1109.5     106.313876     405.273438      64.440711     304.163142       9.715541       0.180879       8.220908       0.154704       3.085400       0.133100       7.779887       9.293003       6.015431       3.410573       3.127519       3.051892       2.482399       0.345908     329.253799
         1110.0     106.276257     432.612116      64.566116     302.607163       7.562203       0.174928       8.259005       0.160166       3.067745       0.135046       7.784656       8.526557       5.994644       2.847259       2.609973       2.546848       2.479071       0.384005     392.896387
         1110.5     106.339463     420.132080      61.305806     301.095729       9.483690       0.172937       8.279980       0.162456       2.979908       0.139647       7.761531       8.864789       5.491743       3.312525       3.035487       2.962083       2.471203       0.404980     338.351076
         1111.0     106.351789     372.362659      57.756013     299.630993      11.412229       0.175574       8.265681       0.166230       2.915768       0.140814       7.728726       9.731350       5.859122       3.769306       3.453447       3.370059       2.469208       0.390681     296.761242
         1111.5     106.370468     400.655962      56.457380     298.455649      11.423730       0.181809       8.228530       0.172245       2.971932       0.135997       7.698405       9.385842       5.719871       3.734569       3.421887       3.339607       2.477446       0.353530     299.998995
         1112.0     106.342108     423.630420      53.210110     296.604519      10.271170       0.182735       8.196155       0.179331       3.038086       0.129166       7.661585       8.808677       5.485070       3.464039       3.175213       3.099445       2.489126       0.321155     322.643861
         1112.5     106.436890     387.892312      44.853944     293.787912      12.127988       0.176045       8.151607       0.179371       3.030549       0.131813       7.620090       9.572738       6.061497       3.789987       3.476898       3.395021       2.484599       0.276607     295.605800
         1113.0     106.381858     429.497640      35.348258     291.049209      16.733910       0.164582       8.112916       0.171286       3.015842       0.140816       7.600991      11.304924       6.492416       4.482746       4.117522       4.022293       2.469205       0.237916     248.636409
         1113.5     106.577195     375.901085      30.442235     290.128632      17.500512       0.152064       8.098235       0.160807       3.014324       0.147966       7.598580      11.908077       6.870121       4.601628       4.234396       4.138967       2.456979       0.223235     241.606952
         1114.0     106.546947     415.700934      33.184447     289.853407      16.433690       0.144800       8.093679       0.157234       3.011363       0.148376       7.600572      12.347901       7.311531       4.509941       4.159747       4.069034       2.456276       0.218679     245.917708
         1114.5     106.582648     439.282718      42.029936     288.959714      12.703121       0.147470       8.123578       0.161485       3.011556       0.145212       7.609481      10.597696       6.255438       4.016880       3.715943       3.638245       2.461688       0.248578     275.182133
         1115.0     106.595976     415.715382      50.033317     288.421857      11.161421       0.159035       8.169732       0.168801       3.025040       0.144898       7.614938      10.411352       6.244545       3.831575       3.557246       3.486600       2.462224       0.294732     286.814996
         1115.5     106.616649     414.189094      52.358876     287.794628      10.188140       0.175778       8.196095       0.172251       3.061636       0.148235       7.608528       9.317136       5.892035       3.757693       3.503038       3.437547       2.456518       0.321095     290.955136
