~Version Information
VERS .            2.00                          : CWLS Log ASCII Standard - Version 2.00
WRAP .            NO                            : One line per depth step
#
~Well Information
#MNEM.UNIT        DATA                          : DESCRIPTION
#----.----        ----                          : -----------
STRT .F            495.0                        : Start
STOP .F           5100.0                        : Stop
STEP .F              0.5                        : Step increment
NULL .            -999.250                      : Null value
COMP .            NEWARK E&P OPERATING, LLC     : Company
WELL .            HICKMAN #6                    : Well
FLD  .            KRS (MARBLE FALLS)            : Field
PROV .            PALO PINTO                    : Province
CTRY .            United States                 : State / Country
LOC  .            538' FWL & 1402' FSL OF       : Location
LOC2 .            TE&L CO SURVEY, A-441         : Location 2
SRVC .            Weatherford                   : Service company
API  .		  42363362450000		: API Number
UWI  .            42363362450000                : Unique Well ID
LATI .            32.923347                     : Latitude
LONG .            -98.220847                    : Longitude
DATE .            27-Sep-2014                   : Logging Date
#
~Curve Information
#MNEM.UNIT        API CODES                     : CURVE DESCRIPTION
#----.----        ---------                     : -----------------
DEPT .F           00 001 00 00                  : Logged depth
CGXT .DEGF        30 660 01 00                  : MCG External Temperature
SMTU .LB          30 635 00 00                  : DST Uphole Tension
GRGC .GAPI        30 310 01 00                  : Gamma Ray
SPCG .MV          30 010 00 00                  : Spontaneous Potential
FEFE .OHMM        10 220 06 00                  : Shallow FE
NPRL .V/V         42 890 01 00                  : Limestone Neutron Por.
CLDC .IN          45 280 01 00                  : Density Caliper
DCOR .G/C3        42 356 01 00                  : Density Correction
PDPE .B/E         45 358 01 00                  : PE
DPRL .V/V         45 890 10 00                  : Limestone Density Por.
MLTC .IN          15 280 01 00                  : MML Caliper
MNRL .OHMM        15 252 00 00                  : Micro-normal
MINV .OHMM        15 250 00 00                  : Micro-inverse
R40O .OHMM        07 120 44 00                  : Array Ind. One Res 40
R60O .OHMM        07 120 44 00                  : Array Ind. One Res 60
RTAO .OHMM        07 120 44 00                  : Array Ind. One Res Rt
DEN  .G/C3        42 350 01 00                  : Compensated Density
DFCL .IN          00 000 00 00                  : Differential Caliper
CTAO .----        07 120 44 00                  : Array Ind. One Cond Ct
#
~Parameter Information
#MNEM.UNIT        VALUE                         : DESCRIPTION
#----.----        -----                         : -----------
RNID .            MAIN PASS                     : Run ID
SON  .            7055-98956400                 : Job Number
DREF .            KB                            : Depth reference
EREF .F               932.000                   : Elevation of depth reference
GL   .F               921.000                   : Ground elevation
RUN  .            ONE                           : Run number
TDD  .F              5096.000                   : TD (driller)
TDL  .F              5093.000                   : TD (logger)
BS   .IN                7.875                   : Bit size
TIMC .                                          : Time circulation ended
TIML .                                          : Time logger at bottom
UNIT .              13226                       : Equipment ID
BASE .            OKC                           : Equipment base location
ENG  .            JUSTIN HICKS                  : Recording engineer
WIT  .            BEAU BEREND                   : Witnessed by
CSGT .            SURFACE                       : Casing type
CSGS .IN                8.625                   : Casing size
CSGW .LB/FT            24.003                   : Casing weight
CSGD .F               502.000                   : Casing bottom (driller)
CSGL .F               504.000                   : Casing bottom (logger)
CSUP .F           -999999.000                   : Casing Stick Up GL
MUD  .            WBM                           : Mud type
MUDS .            MUD PIT                       : Mud sample source
MUDD .LB/G              9.650                   : Mud density
MUDV .SEC/QT           58.000                   : Mud viscosity
PH   .                  9.500                   : Mud pH
FL   .ML/30MIN          7.400                   : Mud fluid loss rate
RM   .OHMM              1.900                   : Mud resistivity
RMT  .DEGF            100.000                   : Mud sample temperature
RMF  .OHMM              1.520                   : Mud filtrate resistivity
RMFT .DEGF            100.000                   : Mud filtrate sample temperature
RMC  .OHMM              2.280                   : Mud cake resistivity
RMCT .DEGF            100.000                   : Mud cake sample temperature
TMAX .DEGF            150.000                   : Max recorded temperature
#
~Other Information
----------------------------------------------------------------------------------------------------------
TOOLS RAN: CBH, SHA, MCG, MML, MDN, MPD, MFE, MAI RAN IN COMBINATION.
HARDWARE USED:     
TOOLS RAN WITHOUT STANDOFFS OR BOWSPRINGS PER CUSTOMER REQUEST. 
                
                                
2.71 G/CC DENSITY MATRIX USED TO CALCULATE POROSITY.
ALL INTERVALS LOGGED AND SCALED PER CUSTOMER'S REQUEST.
TOTAL HOLE VOLUME FROM TD TO SURFACE CASING = 1722 CU.FT.
ANNULAR HOLE VOLUME WITH 5.5 INCH PRODUCTION CASING FROM TD TO SURFACE CASING = 965 CU.FT. 
FIELD TICKET NUMBER: 7055-98956400
RIG:  E AND H, RIG #4
OPERATOR(S):  N. SCARNECHIA
MUD PROPERTIES:     
CHLORIDES: 900 MG/L
LCM: 6 PPB
*HOLE WASHOUTS AND RUGOSITY WILL AFFECT LOG QUALITY AND REPEATABILITY.*                                   
----------------------------------------------------------------------------------------------------------
#
#          DEPT           CGXT           SMTU           GRGC           SPCG           FEFE           NPRL           CLDC           DCOR           PDPE           DPRL           MLTC           MNRL           MINV           R40O           R60O           RTAO           DEN            DFCL           CTAO
#
~ASCII Log Data
# ...
         2628.0     120.954998     633.314130     135.162300     379.921820       8.032875       0.232214       8.251957       0.075875       3.347211       0.034644       8.154479       4.847715       7.053326       6.573160       6.641465       6.691664       2.650758       0.376957     149.456121
         2628.5     121.060017     668.326342     140.148721     379.845210       7.995935       0.234612       8.248667       0.076220       3.368538       0.034657       8.148773       4.877941       7.110015       6.538205       6.607645       6.658703       2.650736       0.373667     150.179583
         2629.0     121.005268     608.744355     143.193107     379.686814       7.881264       0.233920       8.247844       0.073906       3.411480       0.037299       8.146369       5.152983       7.524483       6.447089       6.517250       6.568890       2.646218       0.372844     152.238241
         2629.5     120.924051     583.589466     140.947624     379.641048       7.618618       0.230771       8.247569       0.073882       3.458786       0.037423       8.145144       4.836830       7.032970       6.250791       6.320673       6.372210       2.646007       0.372569     157.030326
         2630.0     121.030963     641.406603     132.349431     379.626743       8.106863       0.230632       8.246273       0.077783       3.457296       0.034524       8.142292       5.239205       7.466375       6.655984       6.732528       6.789104       2.650964       0.371273     147.314647
         2630.5     121.022478     576.848516     123.582580     379.833269       8.430794       0.230757       8.243638       0.083280       3.433267       0.029502       8.138108       5.506037       7.533075       6.932986       7.015120       7.075983       2.659552       0.368638     141.326242
         2631.0     120.984010     650.617091     119.366106     380.042366       8.443610       0.227580       8.240779       0.089509       3.398219       0.023337       8.134541       5.396435       7.833119       6.961660       7.046680       7.109847       2.670094       0.365779     140.650019
         2631.5     121.099074     630.744087     125.110293     380.152007       8.357198       0.218457       8.237069       0.094150       3.394141       0.018908       8.131519       5.273434       7.387183       6.905420       6.992416       7.057214       2.677667       0.362069     141.702237
         2632.0     121.052503     184.948286     135.502461     380.196502       8.160625       0.209345       8.233870       0.095259       3.473720       0.019067       8.129256       4.707470       6.741695       6.759219       6.847099       6.912724       2.677396       0.358870     144.662753
         2632.5     121.034757     643.795883     142.528466     380.172349       8.244300       0.207902       8.233102       0.091463       3.534707       0.024078       8.127888       5.182190       7.541088       6.838667       6.930507       6.999271       2.668827       0.358102     142.895435
         2633.0     120.967349     605.531880     146.915784     380.122514       8.548042       0.210021       8.233021       0.084289       3.555796       0.029636       8.126613       5.566519       7.890437       7.097292       7.195783       7.269735       2.659322       0.358021     137.557139
         2633.5     120.993765     566.406250     145.881347     380.283867       8.420426       0.213632       8.228414       0.076240       3.484771       0.033373       8.121840       5.174025       7.307839       7.008894       7.109537       7.185334       2.652933       0.353414     139.181502
         2634.0     121.090280     587.445962     143.345381     380.485069       8.401365       0.214743       8.217575       0.071596       3.385554       0.033749       8.112558       5.368602       7.675520       6.999377       7.103506       7.182146       2.652289       0.342575     139.235361
         2634.5     121.048046     597.873744     142.334934     380.693724       8.458500       0.210252       8.205564       0.071475       3.328364       0.031041       8.104572       5.316184       7.587998       7.067457       7.176557       7.259263       2.656920       0.330564     137.756016
         2635.0     121.051761     567.279364     138.995386     380.640857       8.259447       0.204438       8.198064       0.071385       3.282771       0.028729       8.100702       5.319763       7.840563       6.916481       7.027386       7.111749       2.660874       0.323064     140.612439
         2635.5     121.052136     635.642925     135.669642     380.532712       8.252938       0.200599       8.196020       0.071479       3.274897       0.026145       8.099493       5.251520       7.813697       6.938060       7.053754       7.142163       2.665292       0.321020     140.016848
         2636.0     121.010956     798.939624     135.129343     380.326264       8.375294       0.200237       8.195205       0.068684       3.284497       0.028165       8.098849       5.214492       7.421675       7.065561       7.188121       7.282226       2.661838       0.320205     137.320848
         2636.5     121.079652     631.433054     135.478753     379.798144       8.499244       0.201231       8.194408       0.063267       3.274554       0.034599       8.098713       5.370804       7.910321       7.200386       7.330349       7.430674       2.650836       0.319408     134.612243
         2637.0     121.080764     629.783363     134.283561     379.305779       8.970271       0.200405       8.195841       0.059086       3.269125       0.040039       8.101310       6.181580       8.201241       7.628363       7.771501       7.882636       2.641534       0.320841     126.867829
         2637.5     121.074697     607.154761     132.062524     378.867081       9.277430       0.198867       8.199115       0.058718       3.254791       0.043325       8.104474       6.441728       8.647433       7.920159       8.074495       8.195030       2.635915       0.324115     122.052455
         2638.0     121.169086     769.891532     128.679082     378.723240       9.286338       0.196830       8.200586       0.066295       3.267241       0.041052       8.102439       6.645982       9.070749       7.969717       8.130663       8.257129       2.639801       0.325586     121.113546
         2638.5     121.091491     642.467517     125.354601     378.747533       9.113655       0.195227       8.193887       0.077438       3.339977       0.033948       8.095981       6.158981       8.484098       7.862732       8.026952       8.156777       2.651950       0.318887     122.597436
         2639.0     121.175539     595.843651     123.609934     378.804047       8.921493       0.192585       8.180176       0.086195       3.402157       0.024511       8.090457       6.086021       8.383839       7.756493       7.923547       8.056533       2.668087       0.305176     124.128949
         2639.5     121.110556     617.743617     120.287674     378.600323       8.676543       0.189518       8.164878       0.086862       3.417312       0.023701       8.083958       5.595902       8.072473       7.599178       7.767423       7.902264       2.669471       0.289878     126.548012
         2640.0     121.188076     657.271098     117.131997     377.697202       9.000973       0.187971       8.141678       0.081549       3.349446       0.034950       8.076821       6.189639       8.586679       7.945324       8.125494       8.270985       2.650235       0.266678     120.948170
         2640.5     121.244217     653.056823     110.934964     376.059312       9.505882       0.184219       8.113697       0.077406       3.229213       0.049135       8.072773       6.593202       9.192823       8.447172       8.642558       8.801455       2.625979       0.238697     113.639293
         2641.0     121.160158     625.082151     101.812655     374.007515       9.930433       0.175531       8.087526       0.077223       3.133899       0.060632       8.065283       7.070356       9.392168       8.891580       9.100429       9.271462       2.606319       0.212526     107.874530
