~Version Information
VERS .            2.00                          : CWLS Log ASCII Standard - Version 2.00
WRAP .            NO                            : One line per depth step
#
~Well Information
#MNEM.UNIT        DATA                          : DESCRIPTION
#----.----        ----                          : -----------
STRT .F            495.0                        : Start
STOP .F           5100.0                        : Stop
STEP .F              0.5                        : Step increment
NULL .            -999.250                      : Null value
COMP .            NEWARK E&P OPERATING, LLC     : Company
WELL .            HICKMAN #6                    : Well
FLD  .            KRS (MARBLE FALLS)            : Field
PROV .            PALO PINTO                    : Province
CTRY .            United States                 : State / Country
LOC  .            538' FWL & 1402' FSL OF       : Location
LOC2 .            TE&L CO SURVEY, A-441         : Location 2
SRVC .            Weatherford                   : Service company
API  .		  42363362450000		: API Number
UWI  .            42363362450000                : Unique Well ID
LATI .            32.923347                     : Latitude
LONG .            -98.220847                    : Longitude
DATE .            27-Sep-2014                   : Logging Date
#
~Curve Information
#MNEM.UNIT        API CODES                     : CURVE DESCRIPTION
#----.----        ---------                     : -----------------
DEPT .F           00 001 00 00                  : Logged depth
CGXT .DEGF        30 660 01 00                  : MCG External Temperature
SMTU .LB          30 635 00 00                  : DST Uphole Tension
GRGC .GAPI        30 310 01 00                  : Gamma Ray
SPCG .MV          30 010 00 00                  : Spontaneous Potential
FEFE .OHMM        10 220 06 00                  : Shallow FE
NPRL .V/V         42 890 01 00                  : Limestone Neutron Por.
CLDC .IN          45 280 01 00                  : Density Caliper
DCOR .G/C3        42 356 01 00                  : Density Correction
PDPE .B/E         45 358 01 00                  : PE
DPRL .V/V         45 890 10 00                  : Limestone Density Por.
MLTC .IN          15 280 01 00                  : MML Caliper
MNRL .OHMM        15 252 00 00                  : Micro-normal
MINV .OHMM        15 250 00 00                  : Micro-inverse
R40O .OHMM        07 120 44 00                  : Array Ind. One Res 40
R60O .OHMM        07 120 44 00                  : Array Ind. One Res 60
RTAO .OHMM        07 120 44 00                  : Array Ind. One Res Rt
DEN  .G/C3        42 350 01 00                  : Compensated Density
DFCL .IN          00 000 00 00                  : Differential Caliper
CTAO .----        07 120 44 00                  : Array Ind. One Cond Ct
#
~Parameter Information
#MNEM.UNIT        VALUE                         : DESCRIPTION
#----.----        -----                         : -----------
RNID .            MAIN PASS                     : Run ID
SON  .            7055-98956400                 : Job Number
DREF .            KB                            : Depth reference
EREF .F               932.000                   : Elevation of depth reference
GL   .F               921.000                   : Ground elevation
RUN  .            ONE                           : Run number
TDD  .F              5096.000                   : TD (driller)
TDL  .F              5093.000                   : TD (logger)
BS   .IN                7.875                   : Bit size
TIMC .                                          : Time circulation ended
TIML .                                          : Time logger at bottom
UNIT .              13226                       : Equipment ID
BASE .            OKC                           : Equipment base location
ENG  .            JUSTIN HICKS                  : Recording engineer
WIT  .            BEAU BEREND                   : Witnessed by
CSGT .            SURFACE                       : Casing type
CSGS .IN                8.625                   : Casing size
CSGW .LB/FT            24.003                   : Casing weight
CSGD .F               502.000                   : Casing bottom (driller)
CSGL .F               504.000                   : Casing bottom (logger)
CSUP .F           -999999.000                   : Casing Stick Up GL
MUD  .            WBM                           : Mud type
MUDS .            MUD PIT                       : Mud sample source
MUDD .LB/G              9.650                   : Mud density
MUDV .SEC/QT           58.000                   : Mud viscosity
PH   .                  9.500                   : Mud pH
FL   .ML/30MIN          7.400                   : Mud fluid loss rate
RM   .OHMM              1.900                   : Mud resistivity
RMT  .DEGF            100.000                   : Mud sample temperature
RMF  .OHMM              1.520                   : Mud filtrate resistivity
RMFT .DEGF            100.000                   : Mud filtrate sample temperature
RMC  .OHMM              2.280                   : Mud cake resistivity
RMCT .DEGF            100.000                   : Mud cake sample temperature
TMAX .DEGF            150.000                   : Max recorded temperature
#
~Other Information
----------------------------------------------------------------------------------------------------------
TOOLS RAN: CBH, SHA, MCG, MML, MDN, MPD, MFE, MAI RAN IN COMBINATION.
HARDWARE USED:     
TOOLS RAN WITHOUT STANDOFFS OR BOWSPRINGS PER CUSTOMER REQUEST. 
                
                                
2.71 G/CC DENSITY MATRIX USED TO CALCULATE POROSITY.
ALL INTERVALS LOGGED AND SCALED PER CUSTOMER'S REQUEST.
TOTAL HOLE VOLUME FROM TD TO SURFACE CASING = 1722 CU.FT.
ANNULAR HOLE VOLUME WITH 5.5 INCH PRODUCTION CASING FROM TD TO SURFACE CASING = 965 CU.FT. 
FIELD TICKET NUMBER: 7055-98956400
RIG:  E AND H, RIG #4
OPERATOR(S):  N. SCARNECHIA
MUD PROPERTIES:     
CHLORIDES: 900 MG/L
LCM: 6 PPB
*HOLE WASHOUTS AND RUGOSITY WILL AFFECT LOG QUALITY AND REPEATABILITY.*                                   
----------------------------------------------------------------------------------------------------------
#
#          DEPT           CGXT           SMTU           GRGC           SPCG           FEFE           NPRL           CLDC           DCOR           PDPE           DPRL           MLTC           MNRL           MINV           R40O           R60O           RTAO           DEN            DFCL           CTAO
#
~ASCII Log Data
          495.0     100.652749     378.916312      62.911228     376.869046       0.044944       0.357229       8.189655      -0.299951      11.521798       0.394463       3.682081       1.245130       1.607019    1230.441858    1230.441858    1230.441858       2.035469       0.314655       0.812725
          495.5     100.734524     357.779609      61.276812     376.634971       0.042093       0.354000       8.187661      -0.300337      11.554614       0.391198       3.682148       1.238220       1.607210    1216.457777    1216.457777    1216.457777       2.041052       0.312661       0.822062
          496.0     100.691196     348.948064      60.667140     376.223883       0.041932       0.348414       8.188470      -0.300950      11.607444       0.387139       3.682192       1.245640       1.606909    1214.459396    1214.459396    1214.459396       2.047992       0.313470       0.823412
          496.5     100.711441     323.116793      61.727156     375.672197       0.044256       0.346747       8.189184      -0.301106      11.738160       0.383553       3.682087       1.249971       1.605221    1224.402326    1224.402326    1224.402326       2.054124       0.314184       0.816730
          497.0     100.774025     318.602461      64.213442     375.511613       0.045511       0.348439       8.188191      -0.303230      11.815108       0.383994       3.682099       1.251257       1.605655    1228.993747    1228.993747    1228.993747       2.053370       0.313191       0.813674
          497.5     100.771060     348.023314      66.667234     375.679677       0.043999       0.362771       8.187525      -0.307236      11.669147       0.386444       3.682067       1.251164       1.608169    1215.911160    1215.911160    1215.911160       2.049180       0.312525       0.822453
          498.0     100.642365     321.149193      67.334864     375.818551       0.041325       0.390369       8.188040      -0.309525      11.465399       0.385506       3.682215       1.255064       1.607817    1192.345397    1192.345397    1192.345397       2.050784       0.313040       0.838688
          498.5     100.827345     333.789405      67.583706     375.647482       0.041072       0.414598       8.188103      -0.311297      11.354436       0.385211       3.682482       1.260262       1.607524    1167.297919    1167.297919    1167.297919       2.051289       0.313103       0.856713
          499.0     100.792061     294.019579      70.616625     375.366742       0.040385       0.426570       8.187830      -0.314414      11.406315       0.389021       3.682539       1.266118       1.608987    1149.981576    1149.981576    1149.981576       2.044774       0.312830       0.869579
          499.5     100.701858     340.952480      75.277963     374.858837       0.039999       0.427594       8.186117      -0.318791      11.354487       0.394908       3.682570       1.261915       1.607911    1146.350875    1146.350875    1146.350875       2.034708       0.311117       0.872333
          500.0     100.757566     329.490836      78.578882     374.320554       0.043622       0.428667       8.184790      -0.322774      11.185967       0.398913       3.682577       1.263064       1.608817    1154.577947    1154.577947    1154.577947       2.027858       0.309790       0.866123
          500.5     100.701796     320.734225      77.415607     373.873874       0.046174       0.446904       8.186166      -0.319440      11.102319       0.392349       3.682292       1.269907       1.608849    1172.714482    1172.714482    1172.714482       2.039083       0.311166       0.852745
          501.0     100.668359     359.583062      74.038850     373.609081       0.051183       0.482634       8.187066      -0.313256      11.224547       0.382003       3.682250       1.270142       1.605902    1183.871710    1183.871710    1183.871710       2.056775       0.312066       0.844687
          501.5     100.758909     337.239817      72.027147     373.716485       0.054221       0.519081       8.186546      -0.309106      11.476835       0.373625       3.682353       1.268094       1.608945    1172.713670    1172.713670    1172.713670       2.071101       0.311546       0.852750
          502.0     100.853111     310.013759      69.623217     373.851415       0.053901       0.526223       8.183276      -0.307339      11.606661       0.367061       3.682535       1.273123       1.608576    1137.415575    1137.415575    1137.415575       2.082325       0.308276       0.879298
          502.5     100.726446     321.607343      68.256946     373.417321       0.051808       0.487973       8.174798      -0.305162      11.919800       0.346120       3.682799       1.276330       1.608386    1081.787127    1081.787127    1081.787127       2.118135       0.299798       0.924655
          503.0     100.762877     274.346571      68.580366     371.204416       0.051256       0.438977       8.170011      -0.329903      12.634004       0.339387       3.682880       1.261992       1.607127    1015.751741    1015.751741    1015.751741       2.129648       0.295011       0.984535
          503.5     100.758549     324.835234      71.515812     364.363369       0.049278       0.413342       8.226829      -0.334736      12.629079       0.340118       3.682876       1.265457       1.607911    1141.687467    1141.687467    1141.687467       2.128397       0.351829       0.879055
          504.0     100.808396     275.169016      80.820625     353.954912       0.075941       0.421848       8.596595      -0.207705      11.259143       0.310144       3.682877       1.359473       1.627410    1630.851947    1630.851947    1630.851947       2.179653       0.721595       0.620241
          504.5     100.815329     300.744353      92.459223     346.385766       0.592619       0.443373       9.463317       0.030399       8.913836       0.274935       3.683294       1.742966       1.643821    2215.518846    2215.518846    2215.518846       2.239861       1.588317       0.453454
          505.0     100.677702     352.427687     101.778473     344.540720       2.562157       0.445698      10.430275       0.280716       6.880265       0.227135       3.683477       1.882906       1.632497    2590.071442    2590.071442    2590.071442       2.321599       2.555275       0.386183
          505.5     100.782481     306.869236     106.651183     348.177735       3.469827       0.435891      10.901974       0.415098       6.061079       0.206028       3.683200       1.887072       1.629230    2543.131344    2543.131344    2543.131344       2.357692       3.026974       0.393335
          506.0     100.820659     347.135266     107.821768     350.941714       3.833715       0.427496      10.989391       0.414286       5.794290       0.209063       3.683224       1.885073       1.632178    2369.395829    2369.395829    2369.395829       2.352502       3.114391       0.422249
          506.5     100.778808     301.984810     110.142420     351.490802       3.984914       0.427662      11.108090       0.387727       5.630983       0.204432       3.683537       1.880991       1.632571    2214.483690    2214.483690    2214.483690       2.360421       3.233090       0.451652
          507.0     100.790739     286.222025     113.437893     351.163016       4.086249       0.434425      11.316109       0.377603       5.538449       0.197943       3.683588       1.879166       1.630590    2080.272896    2080.272896    2080.272896       2.371517       3.441109       0.480885
          507.5     100.809312     319.219631     115.427494     350.806527       4.094373       0.437621      11.425519       0.383922       5.438864       0.178366       3.683622       1.883781       1.633057    1965.139042    1965.139042    1965.139042       2.404994       3.550519       0.508903
          508.0     100.709283     348.990791     113.207653     350.481846       4.056473       0.441218      11.276963       0.377112       5.371671       0.169294       3.683900       1.875389       1.633473       4.893228       5.046627       5.133959       2.420506       3.401963     195.885282
