~Version Information
VERS .            2.00                          : CWLS Log ASCII Standard - Version 2.00
WRAP .            NO                            : One line per depth step
#
~Well Information
#MNEM.UNIT        DATA                          : DESCRIPTION
#----.----        ----                          : -----------
STRT .F            495.0                        : Start
STOP .F           5100.0                        : Stop
STEP .F              0.5                        : Step increment
NULL .            -999.250                      : Null value
COMP .            NEWARK E&P OPERATING, LLC     : Company
WELL .            HICKMAN #6                    : Well
FLD  .            KRS (MARBLE FALLS)            : Field
PROV .            PALO PINTO                    : Province
CTRY .            United States                 : State / Country
LOC  .            538' FWL & 1402' FSL OF       : Location
LOC2 .            TE&L CO SURVEY, A-441         : Location 2
SRVC .            Weatherford                   : Service company
API  .		  42363362450000		: API Number
UWI  .            42363362450000                : Unique Well ID
LATI .            32.923347                     : Latitude
LONG .            -98.220847                    : Longitude
DATE .            27-Sep-2014                   : Logging Date
#
~Curve Information
#MNEM.UNIT        API CODES                     : CURVE DESCRIPTION
#----.----        ---------                     : -----------------
DEPT .F           00 001 00 00                  : Logged depth
CGXT .DEGF        30 660 01 00                  : MCG External Temperature
SMTU .LB          30 635 00 00                  : DST Uphole Tension
GRGC .GAPI        30 310 01 00                  : Gamma Ray
SPCG .MV          30 010 00 00                  : Spontaneous Potential
FEFE .OHMM        10 220 06 00                  : Shallow FE
NPRL .V/V         42 890 01 00                  : Limestone Neutron Por.
CLDC .IN          45 280 01 00                  : Density Caliper
DCOR .G/C3        42 356 01 00                  : Density Correction
PDPE .B/E         45 358 01 00                  : PE
DPRL .V/V         45 890 10 00                  : Limestone Density Por.
MLTC .IN          15 280 01 00                  : MML Caliper
MNRL .OHMM        15 252 00 00                  : Micro-normal
MINV .OHMM        15 250 00 00                  : Micro-inverse
R40O .OHMM        07 120 44 00                  : Array Ind. One Res 40
R60O .OHMM        07 120 44 00                  : Array Ind. One Res 60
RTAO .OHMM        07 120 44 00                  : Array Ind. One Res Rt
DEN  .G/C3        42 350 01 00                  : Compensated Density
DFCL .IN          00 000 00 00                  : Differential Caliper
CTAO .----        07 120 44 00                  : Array Ind. One Cond Ct
#
~Parameter Information
#MNEM.UNIT        VALUE                         : DESCRIPTION
#----.----        -----                         : -----------
RNID .            MAIN PASS                     : Run ID
SON  .            7055-98956400                 : Job Number
DREF .            KB                            : Depth reference
EREF .F               932.000                   : Elevation of depth reference
GL   .F               921.000                   : Ground elevation
RUN  .            ONE                           : Run number
TDD  .F              5096.000                   : TD (driller)
TDL  .F              5093.000                   : TD (logger)
BS   .IN                7.875                   : Bit size
TIMC .                                          : Time circulation ended
TIML .                                          : Time logger at bottom
UNIT .              13226                       : Equipment ID
BASE .            OKC                           : Equipment base location
ENG  .            JUSTIN HICKS                  : Recording engineer
WIT  .            BEAU BEREND                   : Witnessed by
CSGT .            SURFACE                       : Casing type
CSGS .IN                8.625                   : Casing size
CSGW .LB/FT            24.003                   : Casing weight
CSGD .F               502.000                   : Casing bottom (driller)
CSGL .F               504.000                   : Casing bottom (logger)
CSUP .F           -999999.000                   : Casing Stick Up GL
MUD  .            WBM                           : Mud type
MUDS .            MUD PIT                       : Mud sample source
MUDD .LB/G              9.650                   : Mud density
MUDV .SEC/QT           58.000                   : Mud viscosity
PH   .                  9.500                   : Mud pH
FL   .ML/30MIN          7.400                   : Mud fluid loss rate
RM   .OHMM              1.900                   : Mud resistivity
RMT  .DEGF            100.000                   : Mud sample temperature
RMF  .OHMM              1.520                   : Mud filtrate resistivity
RMFT .DEGF            100.000                   : Mud filtrate sample temperature
RMC  .OHMM              2.280                   : Mud cake resistivity
RMCT .DEGF            100.000                   : Mud cake sample temperature
TMAX .DEGF            150.000                   : Max recorded temperature
#
~Other Information
----------------------------------------------------------------------------------------------------------
TOOLS RAN: CBH, SHA, MCG, MML, MDN, MPD, MFE, MAI RAN IN COMBINATION.
HARDWARE USED:     
TOOLS RAN WITHOUT STANDOFFS OR BOWSPRINGS PER CUSTOMER REQUEST. 
                
                                
2.71 G/CC DENSITY MATRIX USED TO CALCULATE POROSITY.
ALL INTERVALS LOGGED AND SCALED PER CUSTOMER'S REQUEST.
TOTAL HOLE VOLUME FROM TD TO SURFACE CASING = 1722 CU.FT.
ANNULAR HOLE VOLUME WITH 5.5 INCH PRODUCTION CASING FROM TD TO SURFACE CASING = 965 CU.FT. 
FIELD TICKET NUMBER: 7055-98956400
RIG:  E AND H, RIG #4
OPERATOR(S):  N. SCARNECHIA
MUD PROPERTIES:     
CHLORIDES: 900 MG/L
LCM: 6 PPB
*HOLE WASHOUTS AND RUGOSITY WILL AFFECT LOG QUALITY AND REPEATABILITY.*                                   
----------------------------------------------------------------------------------------------------------
#
#          DEPT           CGXT           SMTU           GRGC           SPCG           FEFE           NPRL           CLDC           DCOR           PDPE           DPRL           MLTC           MNRL           MINV           R40O           R60O           RTAO           DEN            DFCL           CTAO
#
~ASCII Log Data
# ...
         3856.5     135.783872     797.842524     133.208598     416.750184       7.964001       0.362490       8.066528       0.057724       3.799249       0.018034       7.987194       3.687877       6.725984       5.454574       5.449954       5.449171       2.679162       0.191528     183.522875
         3857.0     135.774510     844.726563     132.109264     416.479049       8.081711       0.353345       8.066544       0.057343       3.732107       0.013866       7.985850       3.699474       6.821514       5.554783       5.548767       5.547733       2.686289       0.191544     180.255123
         3857.5     135.827287     794.229468     132.849873     416.625987       8.151129       0.338260       8.066544       0.056595       3.679044       0.010369       7.982747       3.749171       6.864967       5.608140       5.599942       5.598502       2.692270       0.191544     178.623508
         3858.0     135.843362     844.608305     135.962967     416.692504       8.203338       0.329142       8.066544       0.058877       3.700621       0.005273       7.978077       4.033910       7.204226       5.647337       5.636405       5.634438       2.700983       0.191544     177.479981
         3858.5     135.804696     769.048241     142.783373     416.592017       7.943644       0.333695       8.066544       0.060312       3.728200       0.003271       7.971928       3.546948       6.541127       5.469276       5.455634       5.453120       2.704406       0.191544     183.384276
         3859.0     135.769685     747.971928     148.282289     416.590045       8.125692       0.343466       8.066543       0.060749       3.753148       0.002623       7.965983       3.927063       7.296758       5.582382       5.565087       5.561831       2.705514       0.191543     179.798540
         3859.5     135.786155     794.718691     148.522971     416.322194       7.883421       0.348467       8.066331       0.059080       3.744756       0.006326       7.953954       3.693811       6.744309       5.408316       5.388184       5.384317       2.699182       0.191331     185.755189
         3860.0     135.803032     721.911302     146.187724     416.238261       7.760345       0.349579       8.065329       0.056593       3.728655       0.013336       7.940210       3.342579       6.403961       5.307723       5.284643       5.280133       2.687196       0.190329     189.389281
         3860.5     135.853225     827.137328     141.143099     416.295383       7.694234       0.345718       8.064680       0.056250       3.707383       0.017511       7.935202       3.404173       6.093250       5.242602       5.216685       5.211543       2.680056       0.189680     191.895811
         3861.0     135.778635     736.159400     138.938307     416.303142       7.472037       0.337510       8.065010       0.054236       3.687213       0.021187       7.934658       3.259409       6.089492       5.076816       5.048881       5.043265       2.673770       0.190010     198.285403
         3861.5     135.855763     752.155180     137.768904     416.383861       7.368780       0.328155       8.063472       0.052540       3.664380       0.020904       7.934654       3.501113       6.405836       4.985006       4.955081       4.948994       2.674254       0.188472     202.078404
         3862.0     135.802101     793.092654     135.882823     416.082155       7.215034       0.326364       8.059594       0.051578       3.623121       0.018885       7.934654       3.269271       5.961613       4.867289       4.835903       4.829452       2.677707       0.184594     207.064852
         3862.5     135.893256     804.585816     136.324809     416.086289       7.192772       0.339025       8.057145       0.050121       3.605090       0.019510       7.935660       3.420850       5.824689       4.833965       4.800958       4.794112       2.676637       0.182145     208.589259
         3863.0     135.879144     708.710198     136.554306     416.233770       7.180467       0.352564       8.056776       0.044200       3.646441       0.028486       7.937245       3.225550       5.703736       4.809249       4.774884       4.767697       2.661289       0.181776     209.750742
         3863.5     135.889164     727.539063     138.204862     416.488324       7.006843       0.354664       8.056393       0.038288       3.700769       0.037884       7.938259       2.981553       5.382123       4.679691       4.645054       4.637758       2.645219       0.181393     215.644098
         3864.0     135.892965     744.481832     141.944718     416.726443       6.990746       0.344932       8.056060       0.039854       3.696642       0.037024       7.940941       3.040788       5.386701       4.656699       4.621301       4.613797       2.646690       0.181060     216.741357
         3864.5     135.900219     832.213528     141.828117     416.791958       6.957210       0.339719       8.056582       0.045026       3.612375       0.031291       7.946048       3.676063       5.951237       4.624054       4.588232       4.580597       2.656493       0.181582     218.314029
         3865.0     135.901408     766.700238     139.390791     417.152596       6.945024       0.351141       8.058712       0.046451       3.577440       0.030912       7.952459       3.721637       6.130370       4.607844       4.571710       4.563976       2.657141       0.183712     219.107692
         3865.5     135.951380     742.894218     135.498332     417.522743       6.905113       0.368775       8.062907       0.044628       3.645944       0.034745       7.957706       3.169962       5.679942       4.574701       4.538605       4.530856       2.650586       0.187907     220.709851
         3866.0     135.882029     790.541088     131.893707     417.664004       6.824176       0.377559       8.072203       0.041648       3.697632       0.038350       7.959253       3.030965       5.486885       4.515021       4.479390       4.471729       2.644422       0.197203     223.629625
         3866.5     135.894067     823.356676     130.574116     417.489980       6.724515       0.366346       8.079149       0.042336       3.722755       0.036701       7.959445       3.189188       5.118385       4.443876       4.408992       4.401491       2.647241       0.204149     227.198879
         3867.0     135.917477     761.453249     130.236771     417.349875       6.760598       0.346459       8.077727       0.044705       3.679922       0.034003       7.959388       3.005391       5.501290       4.462129       4.427510       4.420079       2.651854       0.202727     226.245382
         3867.5     135.861119     805.869681     131.587964     417.389438       6.866043       0.334990       8.077566       0.044584       3.627403       0.033621       7.959249       2.935977       5.994217       4.525425       4.490933       4.483550       2.652508       0.202566     223.038371
         3868.0     135.869187     736.592127     133.532700     417.507936       6.851581       0.335374       8.078624       0.043828       3.581169       0.031755       7.959271       3.044458       5.619057       4.510702       4.477193       4.470053       2.655699       0.203624     223.711867
         3868.5     135.887560     751.953125     132.816125     417.465400       6.846317       0.344931       8.078655       0.044147       3.538560       0.027675       7.959207       3.316009       5.808810       4.501154       4.468813       4.461964       2.662676       0.203655     224.117346
         3869.0     135.943324     796.142849     128.785096     417.358307       6.675969       0.356320       8.078314       0.044329       3.513067       0.025653       7.959130       3.447345       5.752012       4.383111       4.352974       4.346640       2.666133       0.203314     230.065867
         3869.5     135.931779     725.189920     123.161998     417.117144       6.607984       0.366470       8.078177       0.043730       3.532061       0.026294       7.959176       3.153467       5.777092       4.332375       4.304172       4.298299       2.665036       0.203177     232.651045
