~Version Information
VERS .            2.00                          : CWLS Log ASCII Standard - Version 2.00
WRAP .            NO                            : One line per depth step
#
~Well Information
#MNEM.UNIT        DATA                          : DESCRIPTION
#----.----        ----                          : -----------
STRT .F            495.0                        : Start
STOP .F           5100.0                        : Stop
STEP .F              0.5                        : Step increment
NULL .            -999.250                      : Null value
COMP .            NEWARK E&P OPERATING, LLC     : Company
WELL .            HICKMAN #6                    : Well
FLD  .            KRS (MARBLE FALLS)            : Field
PROV .            PALO PINTO                    : Province
CTRY .            United States                 : State / Country
LOC  .            538' FWL & 1402' FSL OF       : Location
LOC2 .            TE&L CO SURVEY, A-441         : Location 2
SRVC .            Weatherford                   : Service company
API  .		  42363362450000		: API Number
UWI  .            42363362450000                : Unique Well ID
LATI .            32.923347                     : Latitude
LONG .            -98.220847                    : Longitude
DATE .            27-Sep-2014                   : Logging Date
#
~Curve Information
#MNEM.UNIT        API CODES                     : CURVE DESCRIPTION
#----.----        ---------                     : -----------------
DEPT .F           00 001 00 00                  : Logged depth
CGXT .DEGF        30 660 01 00                  : MCG External Temperature
SMTU .LB          30 635 00 00                  : DST Uphole Tension
GRGC .GAPI        30 310 01 00                  : Gamma Ray
SPCG .MV          30 010 00 00                  : Spontaneous Potential
FEFE .OHMM        10 220 06 00                  : Shallow FE
NPRL .V/V         42 890 01 00                  : Limestone Neutron Por.
CLDC .IN          45 280 01 00                  : Density Caliper
DCOR .G/C3        42 356 01 00                  : Density Correction
PDPE .B/E         45 358 01 00                  : PE
DPRL .V/V         45 890 10 00                  : Limestone Density Por.
MLTC .IN          15 280 01 00                  : MML Caliper
MNRL .OHMM        15 252 00 00                  : Micro-normal
MINV .OHMM        15 250 00 00                  : Micro-inverse
R40O .OHMM        07 120 44 00                  : Array Ind. One Res 40
R60O .OHMM        07 120 44 00                  : Array Ind. One Res 60
RTAO .OHMM        07 120 44 00                  : Array Ind. One Res Rt
DEN  .G/C3        42 350 01 00                  : Compensated Density
DFCL .IN          00 000 00 00                  : Differential Caliper
CTAO .----        07 120 44 00                  : Array Ind. One Cond Ct
#
~Parameter Information
#MNEM.UNIT        VALUE                         : DESCRIPTION
#----.----        -----                         : -----------
RNID .            MAIN PASS                     : Run ID
SON  .            7055-98956400                 : Job Number
DREF .            KB                            : Depth reference
EREF .F               932.000                   : Elevation of depth reference
GL   .F               921.000                   : Ground elevation
RUN  .            ONE                           : Run number
TDD  .F              5096.000                   : TD (driller)
TDL  .F              5093.000                   : TD (logger)
BS   .IN                7.875                   : Bit size
TIMC .                                          : Time circulation ended
TIML .                                          : Time logger at bottom
UNIT .              13226                       : Equipment ID
BASE .            OKC                           : Equipment base location
ENG  .            JUSTIN HICKS                  : Recording engineer
WIT  .            BEAU BEREND                   : Witnessed by
CSGT .            SURFACE                       : Casing type
CSGS .IN                8.625                   : Casing size
CSGW .LB/FT            24.003                   : Casing weight
CSGD .F               502.000                   : Casing bottom (driller)
CSGL .F               504.000                   : Casing bottom (logger)
CSUP .F           -999999.000                   : Casing Stick Up GL
MUD  .            WBM                           : Mud type
MUDS .            MUD PIT                       : Mud sample source
MUDD .LB/G              9.650                   : Mud density
MUDV .SEC/QT           58.000                   : Mud viscosity
PH   .                  9.500                   : Mud pH
FL   .ML/30MIN          7.400                   : Mud fluid loss rate
RM   .OHMM              1.900                   : Mud resistivity
RMT  .DEGF            100.000                   : Mud sample temperature
RMF  .OHMM              1.520                   : Mud filtrate resistivity
RMFT .DEGF            100.000                   : Mud filtrate sample temperature
RMC  .OHMM              2.280                   : Mud cake resistivity
RMCT .DEGF            100.000                   : Mud cake sample temperature
TMAX .DEGF            150.000                   : Max recorded temperature
#
~Other Information
----------------------------------------------------------------------------------------------------------
TOOLS RAN: CBH, SHA, MCG, MML, MDN, MPD, MFE, MAI RAN IN COMBINATION.
HARDWARE USED:     
TOOLS RAN WITHOUT STANDOFFS OR BOWSPRINGS PER CUSTOMER REQUEST. 
                
                                
2.71 G/CC DENSITY MATRIX USED TO CALCULATE POROSITY.
ALL INTERVALS LOGGED AND SCALED PER CUSTOMER'S REQUEST.
TOTAL HOLE VOLUME FROM TD TO SURFACE CASING = 1722 CU.FT.
ANNULAR HOLE VOLUME WITH 5.5 INCH PRODUCTION CASING FROM TD TO SURFACE CASING = 965 CU.FT. 
FIELD TICKET NUMBER: 7055-98956400
RIG:  E AND H, RIG #4
OPERATOR(S):  N. SCARNECHIA
MUD PROPERTIES:     
CHLORIDES: 900 MG/L
LCM: 6 PPB
*HOLE WASHOUTS AND RUGOSITY WILL AFFECT LOG QUALITY AND REPEATABILITY.*                                   
----------------------------------------------------------------------------------------------------------
#
#          DEPT           CGXT           SMTU           GRGC           SPCG           FEFE           NPRL           CLDC           DCOR           PDPE           DPRL           MLTC           MNRL           MINV           R40O           R60O           RTAO           DEN            DFCL           CTAO
#
~ASCII Log Data
# ...
         2331.0     117.684380     525.594890     134.366850     361.717552       6.781489       0.252104       8.080440       0.049041       3.408730       0.045981       7.964706       4.713820       6.224965       5.570306       5.670296       5.739706       2.631372       0.205440     174.403461
         2331.5     117.784652     598.965793     136.056789     362.046629       7.191970       0.259266       8.087353       0.046129       3.387187       0.048583       7.989546       4.789662       6.151774       5.936913       6.045217       6.120805       2.626923       0.212353     163.381475
         2332.0     117.690511     587.714240     137.059933     362.190071       7.321056       0.261854       8.095858       0.048848       3.372460       0.043099       8.012195       5.219368       6.739131       6.086749       6.199659       6.278941       2.636300       0.220858     159.275716
         2332.5     117.797891     592.231012     137.629238     362.048443       7.295470       0.259266       8.098701       0.053497       3.361579       0.035778       8.020467       5.005259       6.516081       6.099465       6.214339       6.295426       2.648819       0.223701     158.856896
         2333.0     117.816444     607.630031     137.421126     361.935080       7.159778       0.254746       8.097766       0.054143       3.346911       0.034776       8.014535       4.789689       6.462875       6.020391       6.135196       6.216645       2.650533       0.222766     160.858496
         2333.5     117.803175     577.558242     139.285937     361.788292       7.122839       0.251876       8.096018       0.049390       3.325886       0.041162       7.999258       4.562112       6.323383       6.012709       6.128341       6.210726       2.639613       0.221018     161.012148
         2334.0     117.856281     568.648591     138.497991     361.842648       7.055742       0.250566       8.094716       0.043155       3.321305       0.048173       7.984598       4.460894       5.952329       5.981957       6.097524       6.180197       2.627624       0.219716     161.807353
         2334.5     117.818475     560.101688     134.243467     361.774981       7.225355       0.250677       8.094283       0.040880       3.330481       0.048130       7.977560       4.755985       6.576201       6.141207       6.259925       6.345128       2.627698       0.219283     157.616960
         2335.0     117.766330     540.753012     132.352509     361.877287       7.422983       0.252138       8.094269       0.040992       3.377684       0.045665       7.975490       5.253471       6.942566       6.311068       6.432793       6.520339       2.631914       0.219269     153.369362
         2335.5     117.788442     594.545010     134.497849     361.994521       7.368222       0.251498       8.094242       0.046051       3.453806       0.040063       7.975279       4.807587       6.273742       6.273739       6.394197       6.480993       2.641493       0.219242     154.303964
         2336.0     117.903205     553.583803     136.816969     362.148023       7.402725       0.249614       8.094241       0.054598       3.536706       0.032582       7.975266       4.923787       6.388808       6.301468       6.421761       6.508533       2.654285       0.219241     153.645209
         2336.5     117.811176     617.888129     137.539072     362.284131       7.421472       0.249091       8.094231       0.059323       3.518257       0.029730       7.975202       5.057432       6.514922       6.317063       6.436893       6.523408       2.659162       0.219231     153.309666
         2337.0     117.876389     598.802613     135.479746     362.145697       7.086503       0.249805       8.094211       0.058321       3.438117       0.031780       7.975038       4.406952       5.902234       6.036188       6.149965       6.232158       2.655656       0.219211     160.458118
         2337.5     117.916155     519.624024     131.629346     362.359275       7.225551       0.251474       8.094186       0.050954       3.348522       0.040231       7.974928       4.916367       6.406314       6.150064       6.265298       6.348587       2.641205       0.219186     157.543217
         2338.0     117.889812     527.054611     128.949543     362.669644       7.281741       0.251439       8.094162       0.044557       3.279837       0.046898       7.975095       4.684232       6.096399       6.196090       6.311546       6.395040       2.629805       0.219162     156.371785
         2338.5     117.839743     573.461980     127.774356     362.949490       7.436912       0.246948       8.094135       0.044064       3.287550       0.044132       7.975428       5.063626       6.549981       6.323733       6.440970       6.525788       2.634534       0.219135     153.255726
         2339.0     117.931836     608.050847     124.992928     363.279206       7.556548       0.240778       8.094152       0.045477       3.350885       0.039378       7.975661       5.186577       6.879010       6.420657       6.539127       6.624867       2.642664       0.219152     150.946578
         2339.5     117.888645     606.520886     121.725642     363.365586       7.416324       0.236248       8.094170       0.049906       3.431971       0.033772       7.976037       4.873374       6.231050       6.296503       6.412156       6.495859       2.652250       0.219170     153.969040
         2340.0     117.888973     555.919620     122.074606     363.612164       7.176980       0.238837       8.094196       0.056235       3.497292       0.027612       7.976477       4.595441       5.772533       6.092866       6.204276       6.284924       2.662784       0.219196     159.110944
         2340.5     117.797610     600.585938     130.678626     363.811521       7.249871       0.247109       8.094255       0.059594       3.525176       0.025539       7.976693       4.785101       6.220695       6.148923       6.260831       6.341865       2.666328       0.219255     157.689218
         2341.0     117.821531     626.816867     139.905660     364.026531       7.395215       0.251471       8.094242       0.060163       3.517462       0.024941       7.976560       4.826209       6.563915       6.271773       6.385316       6.467600       2.667350       0.219242     154.617138
         2341.5     117.839277     544.712353     146.182956     364.310987       7.297632       0.250591       8.094253       0.054152       3.486221       0.031038       7.976187       4.520963       6.062327       6.197443       6.308935       6.389817       2.656925       0.219253     156.504013
         2342.0     117.923939     602.070806     147.622024     364.478871       7.375961       0.246318       8.094270       0.045877       3.425350       0.039804       7.975902       4.960199       6.741072       6.269669       6.381562       6.462824       2.641935       0.219270     154.736724
         2342.5     117.882872     655.675984     146.175179     364.547376       7.354819       0.242075       8.094159       0.041072       3.364112       0.042728       7.975721       4.577221       6.194427       6.262365       6.372996       6.453437       2.636935       0.219159     154.961340
         2343.0     117.863375     559.960021     145.265612     364.633129       7.397631       0.239970       8.094124       0.038622       3.363602       0.042701       7.975763       4.982639       6.495626       6.308390       6.418364       6.498410       2.636981       0.219124     153.899556
         2343.5     117.847524     597.924146     143.867220     364.548019       7.552916       0.238178       8.094206       0.037092       3.355136       0.044689       7.975838       5.002877       6.729177       6.454389       6.565057       6.645697       2.633582       0.219206     150.474950
         2344.0     117.919993     616.660870     138.114550     364.562976       7.605651       0.235778       8.094054       0.034312       3.325605       0.050368       7.974697       5.148418       6.830424       6.515436       6.624864       6.704653       2.623871       0.219054     149.152926
