~Version Information
VERS .            2.00                          : CWLS Log ASCII Standard - Version 2.00
WRAP .            NO                            : One line per depth step
#
~Well Information
#MNEM.UNIT        DATA                          : DESCRIPTION
#----.----        ----                          : -----------
STRT .F            495.0                        : Start
STOP .F           5100.0                        : Stop
STEP .F              0.5                        : Step increment
NULL .            -999.250                      : Null value
COMP .            NEWARK E&P OPERATING, LLC     : Company
WELL .            HICKMAN #6                    : Well
FLD  .            KRS (MARBLE FALLS)            : Field
PROV .            PALO PINTO                    : Province
CTRY .            United States                 : State / Country
LOC  .            538' FWL & 1402' FSL OF       : Location
LOC2 .            TE&L CO SURVEY, A-441         : Location 2
SRVC .            Weatherford                   : Service company
API  .		  42363362450000		: API Number
UWI  .            42363362450000                : Unique Well ID
LATI .            32.923347                     : Latitude
LONG .            -98.220847                    : Longitude
DATE .            27-Sep-2014                   : Logging Date
#
~Curve Information
#MNEM.UNIT        API CODES                     : CURVE DESCRIPTION
#----.----        ---------                     : -----------------
DEPT .F           00 001 00 00                  : Logged depth
CGXT .DEGF        30 660 01 00                  : MCG External Temperature
SMTU .LB          30 635 00 00                  : DST Uphole Tension
GRGC .GAPI        30 310 01 00                  : Gamma Ray
SPCG .MV          30 010 00 00                  : Spontaneous Potential
FEFE .OHMM        10 220 06 00                  : Shallow FE
NPRL .V/V         42 890 01 00                  : Limestone Neutron Por.
CLDC .IN          45 280 01 00                  : Density Caliper
DCOR .G/C3        42 356 01 00                  : Density Correction
PDPE .B/E         45 358 01 00                  : PE
DPRL .V/V         45 890 10 00                  : Limestone Density Por.
MLTC .IN          15 280 01 00                  : MML Caliper
MNRL .OHMM        15 252 00 00                  : Micro-normal
MINV .OHMM        15 250 00 00                  : Micro-inverse
R40O .OHMM        07 120 44 00                  : Array Ind. One Res 40
R60O .OHMM        07 120 44 00                  : Array Ind. One Res 60
RTAO .OHMM        07 120 44 00                  : Array Ind. One Res Rt
DEN  .G/C3        42 350 01 00                  : Compensated Density
DFCL .IN          00 000 00 00                  : Differential Caliper
CTAO .----        07 120 44 00                  : Array Ind. One Cond Ct
#
~Parameter Information
#MNEM.UNIT        VALUE                         : DESCRIPTION
#----.----        -----                         : -----------
RNID .            MAIN PASS                     : Run ID
SON  .            7055-98956400                 : Job Number
DREF .            KB                            : Depth reference
EREF .F               932.000                   : Elevation of depth reference
GL   .F               921.000                   : Ground elevation
RUN  .            ONE                           : Run number
TDD  .F              5096.000                   : TD (driller)
TDL  .F              5093.000                   : TD (logger)
BS   .IN                7.875                   : Bit size
TIMC .                                          : Time circulation ended
TIML .                                          : Time logger at bottom
UNIT .              13226                       : Equipment ID
BASE .            OKC                           : Equipment base location
ENG  .            JUSTIN HICKS                  : Recording engineer
WIT  .            BEAU BEREND                   : Witnessed by
CSGT .            SURFACE                       : Casing type
CSGS .IN                8.625                   : Casing size
CSGW .LB/FT            24.003                   : Casing weight
CSGD .F               502.000                   : Casing bottom (driller)
CSGL .F               504.000                   : Casing bottom (logger)
CSUP .F           -999999.000                   : Casing Stick Up GL
MUD  .            WBM                           : Mud type
MUDS .            MUD PIT                       : Mud sample source
MUDD .LB/G              9.650                   : Mud density
MUDV .SEC/QT           58.000                   : Mud viscosity
PH   .                  9.500                   : Mud pH
FL   .ML/30MIN          7.400                   : Mud fluid loss rate
RM   .OHMM              1.900                   : Mud resistivity
RMT  .DEGF            100.000                   : Mud sample temperature
RMF  .OHMM              1.520                   : Mud filtrate resistivity
RMFT .DEGF            100.000                   : Mud filtrate sample temperature
RMC  .OHMM              2.280                   : Mud cake resistivity
RMCT .DEGF            100.000                   : Mud cake sample temperature
TMAX .DEGF            150.000                   : Max recorded temperature
#
~Other Information
----------------------------------------------------------------------------------------------------------
TOOLS RAN: CBH, SHA, MCG, MML, MDN, MPD, MFE, MAI RAN IN COMBINATION.
HARDWARE USED:     
TOOLS RAN WITHOUT STANDOFFS OR BOWSPRINGS PER CUSTOMER REQUEST. 
                
                                
2.71 G/CC DENSITY MATRIX USED TO CALCULATE POROSITY.
ALL INTERVALS LOGGED AND SCALED PER CUSTOMER'S REQUEST.
TOTAL HOLE VOLUME FROM TD TO SURFACE CASING = 1722 CU.FT.
ANNULAR HOLE VOLUME WITH 5.5 INCH PRODUCTION CASING FROM TD TO SURFACE CASING = 965 CU.FT. 
FIELD TICKET NUMBER: 7055-98956400
RIG:  E AND H, RIG #4
OPERATOR(S):  N. SCARNECHIA
MUD PROPERTIES:     
CHLORIDES: 900 MG/L
LCM: 6 PPB
*HOLE WASHOUTS AND RUGOSITY WILL AFFECT LOG QUALITY AND REPEATABILITY.*                                   
----------------------------------------------------------------------------------------------------------
#
#          DEPT           CGXT           SMTU           GRGC           SPCG           FEFE           NPRL           CLDC           DCOR           PDPE           DPRL           MLTC           MNRL           MINV           R40O           R60O           RTAO           DEN            DFCL           CTAO
#
~ASCII Log Data
# ...
         4153.5     138.560761     841.221921     115.886228     409.451679       4.936945       0.264671       7.978639       0.075280       3.739977       0.062384       7.851745       2.745453       4.052961       3.456331       3.412628       3.401738       2.603323       0.103639     293.993485
         4154.0     138.556512     863.565166     112.369639     408.544577       5.188610       0.266789       7.982195       0.056233       3.767545       0.072703       7.857464       3.433152       4.758792       3.632296       3.585401       3.573657       2.585678       0.107195     279.845922
         4154.5     138.520709     785.703403     109.020452     408.903536       5.849198       0.268582       8.025873       0.064246       3.790507       0.070864       7.851299       3.707765       5.805746       4.086488       4.032506       4.018932       2.588823       0.150873     248.917705
         4155.0     138.521992     800.975376     108.504665     408.221820       4.943376       0.271267       8.039662       0.089004       3.822608       0.063566       7.839574       2.766107       2.348338       3.458231       3.411475       3.399683       2.601302       0.164662     294.145528
         4155.5     138.527227     815.496077     111.683457     408.361552       4.823545       0.274532       7.991520       0.125770       3.869690       0.053520       7.826777       2.735688       2.857745       3.368433       3.321945       3.310194       2.618481       0.116520     302.103156
         4156.0     138.454333     854.228951     114.615085     408.624198       4.841342       0.276037       7.963749       0.158709       3.967022       0.049410       7.816593       2.785181       2.817975       3.376190       3.328828       3.316828       2.625509       0.088749     301.492880
         4156.5     138.579235     875.062927     114.853016     408.870296       4.787761       0.272818       7.970034       0.180514       4.064986       0.044670       7.824797       2.993435       3.477278       3.337787       3.290561       3.278562       2.633614       0.095034     305.042648
         4157.0     138.614431     781.980442     117.601745     409.115314       4.964610       0.266281       7.972875       0.189655       4.088719       0.036868       7.835285       3.066848       3.768981       3.461068       3.412121       3.399640       2.646955       0.097875     294.148945
         4157.5     138.558170     851.604747     122.364173     409.137850       4.875127       0.262723       7.959552       0.177518       3.966660       0.034809       7.848531       2.839020       3.635445       3.398534       3.351106       3.338957       2.650476       0.084552     299.538319
         4158.0     138.496594     814.672332     127.766500     408.434946       4.838424       0.266892       7.990995       0.162390       3.829574       0.034650       7.860711       2.808737       3.346728       3.359864       3.314218       3.302465       2.650748       0.115995     302.868179
         4158.5     138.514422     820.513748     130.387694     407.505098       4.573114       0.276234       8.053359       0.158575       3.792668       0.035355       7.871485       2.921237       3.060605       3.165627       3.124440       3.113751       2.649543       0.178359     321.249934
         4159.0     138.581367     760.853596     128.867996     406.830622       4.361209       0.282625       8.089116       0.165876       3.876884       0.040927       7.881544       2.987916       2.608063       3.017733       2.980738       2.971023       2.640015       0.214116     336.584422
         4159.5     138.647510     815.630042     124.660603     407.117275       4.397347       0.286948       8.083540       0.187528       4.023064       0.043788       7.885669       2.658699       2.660241       3.050395       3.015699       3.006440       2.635122       0.208540     332.633872
         4160.0     138.654147     839.966833     122.730728     407.880489       4.385172       0.293004       8.061211       0.195290       4.045313       0.049845       7.889305       2.559137       2.493669       3.058980       3.027042       3.018354       2.624765       0.186211     331.344416
         4160.5     138.570422     793.429631     126.161372     408.641706       4.293251       0.296035       8.059477       0.177382       3.965703       0.060063       7.890728       2.700352       3.113970       3.030640       3.001728       2.993708       2.607292       0.184477     334.043466
         4161.0     138.700180     832.738297     129.859903     409.132752       4.362872       0.288692       8.052119       0.160774       3.872926       0.060923       7.883622       3.056684       3.035822       3.119044       3.091554       3.083844       2.605821       0.177119     324.270918
         4161.5     138.738465     805.664063     129.270341     409.156168       4.206150       0.273615       8.032161       0.146708       3.703084       0.058114       7.886129       2.730048       2.685441       3.058810       3.033214       3.026071       2.610625       0.157161     330.489327
         4162.0     138.672858     813.000398     117.811715     409.262512       4.935019       0.253939       8.008682       0.129784       3.504590       0.050444       7.904588       3.242781       4.287926       3.664290       3.633665       3.625334       2.623741       0.133682     281.623847
         4162.5     138.699384     744.439840     101.107941     409.445939      10.724301       0.226936       7.988355       0.105550       3.344034       0.037785       7.910930      13.028898      23.722129       8.025352       7.954584       7.935955       2.645388       0.113355     131.877016
         4163.0     138.699244     788.125464      86.367134     409.788854      17.913250       0.189942       7.983974       0.071365       3.241561       0.034213       7.897316      18.321291      32.543734      13.334138      13.202963      13.169546       2.651495       0.108974      76.098546
         4163.5     138.672351     791.015625      79.274180     410.090649      15.972559       0.151265       7.983740       0.050575       3.217179       0.037320       7.876844      13.972208      21.838909      12.066905      11.930452      11.896571       2.646182       0.108740      84.207453
         4164.0     138.768330     838.188058      83.867316     410.093791      11.076514       0.131316       7.983915       0.046319       3.202537       0.044983       7.857188       6.949412      10.049962       8.469530       8.357534       8.330221       2.633079       0.108915     121.128167
         4164.5     138.647602     839.140261      92.886630     410.040117       9.248760       0.135017       7.986801       0.043309       3.170092       0.054363       7.841143       6.019417       9.360228       6.987629       6.879087       6.852970       2.617040       0.111801     145.940425
         4165.0     138.809407     847.485519     103.223684     409.101410       7.834774       0.159790       7.997643       0.047657       3.202102       0.062376       7.831552       4.256848       5.869553       5.815702       5.711728       5.686881       2.603338       0.122643     176.846120
         4165.5     138.774749     767.614926     111.756699     407.439385       6.697820       0.192444       8.022518       0.074642       3.350251       0.068183       7.824242       4.192425       6.753051       4.870421       4.771515       4.747944       2.593408       0.147518     210.644612
         4166.0     138.751061     809.567587     117.444268     404.672909       5.643243       0.225747       8.090246       0.137974       3.637767       0.063966       7.805822       2.956744       3.398196       4.018012       3.928024       3.906553       2.600617       0.215246     260.126662
         4166.5     138.779720     800.057970     120.364814     402.143749       3.924714       0.258121       8.179130       0.203059       3.938961       0.060084       7.789650       2.093164       1.932511       2.740287       2.673514       2.657511       2.607257       0.304130     376.372178
