~Version Information
VERS .            2.00                          : CWLS Log ASCII Standard - Version 2.00
WRAP .            NO                            : One line per depth step
#
~Well Information
#MNEM.UNIT        DATA                          : DESCRIPTION
#----.----        ----                          : -----------
STRT .F            495.0                        : Start
STOP .F           5100.0                        : Stop
STEP .F              0.5                        : Step increment
NULL .            -999.250                      : Null value
COMP .            NEWARK E&P OPERATING, LLC     : Company
WELL .            HICKMAN #6                    : Well
FLD  .            KRS (MARBLE FALLS)            : Field
PROV .            PALO PINTO                    : Province
CTRY .            United States                 : State / Country
LOC  .            538' FWL & 1402' FSL OF       : Location
LOC2 .            TE&L CO SURVEY, A-441         : Location 2
SRVC .            Weatherford                   : Service company
API  .		  42363362450000		: API Number
UWI  .            42363362450000                : Unique Well ID
LATI .            32.923347                     : Latitude
LONG .            -98.220847                    : Longitude
DATE .            27-Sep-2014                   : Logging Date
#
~Curve Information
#MNEM.UNIT        API CODES                     : CURVE DESCRIPTION
#----.----        ---------                     : -----------------
DEPT .F           00 001 00 00                  : Logged depth
CGXT .DEGF        30 660 01 00                  : MCG External Temperature
SMTU .LB          30 635 00 00                  : DST Uphole Tension
GRGC .GAPI        30 310 01 00                  : Gamma Ray
SPCG .MV          30 010 00 00                  : Spontaneous Potential
FEFE .OHMM        10 220 06 00                  : Shallow FE
NPRL .V/V         42 890 01 00                  : Limestone Neutron Por.
CLDC .IN          45 280 01 00                  : Density Caliper
DCOR .G/C3        42 356 01 00                  : Density Correction
PDPE .B/E         45 358 01 00                  : PE
DPRL .V/V         45 890 10 00                  : Limestone Density Por.
MLTC .IN          15 280 01 00                  : MML Caliper
MNRL .OHMM        15 252 00 00                  : Micro-normal
MINV .OHMM        15 250 00 00                  : Micro-inverse
R40O .OHMM        07 120 44 00                  : Array Ind. One Res 40
R60O .OHMM        07 120 44 00                  : Array Ind. One Res 60
RTAO .OHMM        07 120 44 00                  : Array Ind. One Res Rt
DEN  .G/C3        42 350 01 00                  : Compensated Density
DFCL .IN          00 000 00 00                  : Differential Caliper
CTAO .----        07 120 44 00                  : Array Ind. One Cond Ct
#
~Parameter Information
#MNEM.UNIT        VALUE                         : DESCRIPTION
#----.----        -----                         : -----------
RNID .            MAIN PASS                     : Run ID
SON  .            7055-98956400                 : Job Number
DREF .            KB                            : Depth reference
EREF .F               932.000                   : Elevation of depth reference
GL   .F               921.000                   : Ground elevation
RUN  .            ONE                           : Run number
TDD  .F              5096.000                   : TD (driller)
TDL  .F              5093.000                   : TD (logger)
BS   .IN                7.875                   : Bit size
TIMC .                                          : Time circulation ended
TIML .                                          : Time logger at bottom
UNIT .              13226                       : Equipment ID
BASE .            OKC                           : Equipment base location
ENG  .            JUSTIN HICKS                  : Recording engineer
WIT  .            BEAU BEREND                   : Witnessed by
CSGT .            SURFACE                       : Casing type
CSGS .IN                8.625                   : Casing size
CSGW .LB/FT            24.003                   : Casing weight
CSGD .F               502.000                   : Casing bottom (driller)
CSGL .F               504.000                   : Casing bottom (logger)
CSUP .F           -999999.000                   : Casing Stick Up GL
MUD  .            WBM                           : Mud type
MUDS .            MUD PIT                       : Mud sample source
MUDD .LB/G              9.650                   : Mud density
MUDV .SEC/QT           58.000                   : Mud viscosity
PH   .                  9.500                   : Mud pH
FL   .ML/30MIN          7.400                   : Mud fluid loss rate
RM   .OHMM              1.900                   : Mud resistivity
RMT  .DEGF            100.000                   : Mud sample temperature
RMF  .OHMM              1.520                   : Mud filtrate resistivity
RMFT .DEGF            100.000                   : Mud filtrate sample temperature
RMC  .OHMM              2.280                   : Mud cake resistivity
RMCT .DEGF            100.000                   : Mud cake sample temperature
TMAX .DEGF            150.000                   : Max recorded temperature
#
~Other Information
----------------------------------------------------------------------------------------------------------
TOOLS RAN: CBH, SHA, MCG, MML, MDN, MPD, MFE, MAI RAN IN COMBINATION.
HARDWARE USED:     
TOOLS RAN WITHOUT STANDOFFS OR BOWSPRINGS PER CUSTOMER REQUEST. 
                
                                
2.71 G/CC DENSITY MATRIX USED TO CALCULATE POROSITY.
ALL INTERVALS LOGGED AND SCALED PER CUSTOMER'S REQUEST.
TOTAL HOLE VOLUME FROM TD TO SURFACE CASING = 1722 CU.FT.
ANNULAR HOLE VOLUME WITH 5.5 INCH PRODUCTION CASING FROM TD TO SURFACE CASING = 965 CU.FT. 
FIELD TICKET NUMBER: 7055-98956400
RIG:  E AND H, RIG #4
OPERATOR(S):  N. SCARNECHIA
MUD PROPERTIES:     
CHLORIDES: 900 MG/L
LCM: 6 PPB
*HOLE WASHOUTS AND RUGOSITY WILL AFFECT LOG QUALITY AND REPEATABILITY.*                                   
----------------------------------------------------------------------------------------------------------
#
#          DEPT           CGXT           SMTU           GRGC           SPCG           FEFE           NPRL           CLDC           DCOR           PDPE           DPRL           MLTC           MNRL           MINV           R40O           R60O           RTAO           DEN            DFCL           CTAO
#
~ASCII Log Data
# ...
         2020.5     114.538714     522.343124     130.292216     360.857133       7.714296       0.275850       8.305076       0.052062       3.414547       0.044992       8.087438       4.390275       5.954673       6.258886       6.349691       6.417639       2.633064       0.430076     155.820564
         2021.0     114.637483     536.432820     129.323048     360.762263       7.792578       0.271179       8.306750       0.054578       3.399044       0.041461       8.087715       4.437817       6.055645       6.319504       6.414373       6.485335       2.639102       0.431750     154.200995
         2021.5     114.494833     547.798523     127.255056     360.577354       8.285135       0.258453       8.304469       0.060400       3.320213       0.033433       8.087895       5.545779       7.064132       6.726703       6.831751       6.910458       2.652830       0.429469     144.773086
         2022.0     114.612299     523.990419     125.635701     360.337263       8.375552       0.245886       8.285873       0.064489       3.225799       0.028621       8.087459       5.778611       7.061105       6.821670       6.932591       7.015904       2.661058       0.410873     142.533773
         2022.5     114.501732     524.308350     126.008268     360.007695       8.284511       0.235675       8.258489       0.063068       3.190107       0.031742       8.087299       5.232560       6.656210       6.773097       6.887735       6.974108       2.655721       0.383489     143.387522
         2023.0     114.496749     469.684680     123.959208     359.862523       8.592643       0.228545       8.242928       0.056327       3.179371       0.042593       8.087518       5.963480       7.515395       7.056034       7.180050       7.273875       2.637166       0.367928     137.486707
         2023.5     114.531121     522.825994     117.842326     360.218507       8.688603       0.225593       8.237313       0.047644       3.224989       0.054378       8.087386       5.787488       7.352559       7.170034       7.300384       7.399415       2.617014       0.362313     135.146546
         2024.0     114.582438     548.752224     114.870828     360.242266       8.586460       0.228145       8.235138       0.047728       3.280499       0.052380       8.087482       5.742988       7.280992       7.125690       7.259154       7.360976       2.620430       0.360138     135.851862
         2024.5     114.518412     543.668137     117.826303     360.515378       8.466032       0.233472       8.231714       0.050679       3.312602       0.047631       8.087677       5.471048       7.084827       7.053931       7.189482       7.293257       2.628550       0.356714     137.115034
         2025.0     114.566718     531.880252     126.939520     360.771479       8.833662       0.237132       8.225783       0.052014       3.317252       0.046750       8.087755       6.028402       7.506572       7.380837       7.525863       7.637288       2.630057       0.350783     130.943070
         2025.5     114.564894     523.866265     138.072535     361.094592       8.831906       0.240915       8.219658       0.047752       3.294384       0.053506       8.088074       5.804471       7.662164       7.393775       7.541881       7.655977       2.618505       0.344658     130.621547
         2026.0     114.628329     521.261701     145.350769     361.728502       8.616166       0.246397       8.216222       0.046324       3.257604       0.054474       8.088176       5.488717       6.967557       7.236066       7.383552       7.497484       2.616850       0.341222     133.389698
         2026.5     114.609801     528.583955     147.545926     361.928058       8.369768       0.249498       8.213963       0.051398       3.252053       0.046563       8.087848       5.294888       6.688803       7.049504       7.195526       7.308621       2.630376       0.338963     136.828379
         2027.0     114.533967     517.488691     143.386000     362.090341       8.709118       0.246056       8.212260       0.056944       3.262710       0.038564       8.087715       5.460362       6.868659       7.344550       7.499061       7.619062       2.644056       0.337260     131.318389
         2027.5     114.622517     538.509794     135.566187     361.807862       9.060667       0.242385       8.211593       0.057881       3.272632       0.035305       8.087724       6.247636       7.509718       7.650263       7.813599       7.940806       2.649628       0.336593     125.933552
         2028.0     114.462729     528.766483     131.213280     361.535932       8.722321       0.245526       8.211452       0.053093       3.267045       0.038654       8.088114       5.515296       6.892202       7.391665       7.551763       7.676813       2.643901       0.336452     130.275026
         2028.5     114.476528     569.023311     129.775293     360.880806       8.623836       0.252252       8.211418       0.049313       3.239932       0.040243       8.088739       5.546395       7.155355       7.332972       7.494038       7.620242       2.641184       0.336418     131.229790
         2029.0     114.578326     546.081696     129.858163     360.698126       8.786351       0.255838       8.211441       0.046459       3.259538       0.044460       8.089475       5.635341       7.320802       7.494599       7.661406       7.792561       2.633974       0.336441     128.348689
         2029.5     114.623056     485.459346     131.108708     360.266143       9.178378       0.255738       8.211442       0.045863       3.283775       0.047738       8.091639       6.429963       7.853279       7.843777       8.020491       8.159893       2.628367       0.336442     122.555958
         2030.0     114.533018     529.042105     132.159313     360.092768       9.170034       0.259461       8.211488       0.050365       3.287329       0.044003       8.094315       5.894575       7.490667       7.865271       8.044395       8.186181       2.634755       0.336488     122.157321
         2030.5     114.668086     513.023060     129.617083     359.669938       9.118855       0.262376       8.212008       0.055287       3.236408       0.040153       8.097131       6.102796       7.770116       7.853168       8.033715       8.177124       2.641338       0.337008     122.292401
         2031.0     114.542616     546.546004     125.880670     359.542468       9.039509       0.255365       8.213115       0.060316       3.156301       0.035856       8.100762       5.837608       7.607438       7.806827       7.987684       8.131752       2.648685       0.338115     122.976667
         2031.5     114.521635     553.472319     125.216278     359.587285       9.209628       0.243493       8.213762       0.061960       3.134884       0.037186       8.103606       6.751679       8.501115       7.976680       8.162610       8.311171       2.646412       0.338762     120.327746
         2032.0     114.575827     477.253014     127.369559     359.881788       9.525687       0.232227       8.213895       0.057064       3.141707       0.047531       8.104975       6.569384       8.420680       8.266574       8.460096       8.615143       2.628722       0.338895     116.075925
         2032.5     114.481836     558.780973     128.974559     359.798555       9.602495       0.229186       8.213922       0.050398       3.164768       0.059080       8.105088       7.008145       8.579283       8.354211       8.550359       8.707892       2.608973       0.338922     114.853565
         2033.0     114.531857     560.671760     127.715451     359.516055       9.260548       0.232171       8.213954       0.044554       3.175477       0.066009       8.104523       6.316490       8.237239       8.078109       8.268070       8.420904       2.597125       0.338954     118.752124
         2033.5     114.628911     550.573387     125.443757     359.330396       9.547695       0.234509       8.214032       0.040511       3.167797       0.067712       8.103489       6.831332       8.417644       8.332338       8.528406       8.686400       2.594212       0.339032     115.124069
