~Version Information
VERS .            2.00                          : CWLS Log ASCII Standard - Version 2.00
WRAP .            NO                            : One line per depth step
#
~Well Information
#MNEM.UNIT        DATA                          : DESCRIPTION
#----.----        ----                          : -----------
STRT .F            495.0                        : Start
STOP .F           5100.0                        : Stop
STEP .F              0.5                        : Step increment
NULL .            -999.250                      : Null value
COMP .            NEWARK E&P OPERATING, LLC     : Company
WELL .            HICKMAN #6                    : Well
FLD  .            KRS (MARBLE FALLS)            : Field
PROV .            PALO PINTO                    : Province
CTRY .            United States                 : State / Country
LOC  .            538' FWL & 1402' FSL OF       : Location
LOC2 .            TE&L CO SURVEY, A-441         : Location 2
SRVC .            Weatherford                   : Service company
API  .		  42363362450000		: API Number
UWI  .            42363362450000                : Unique Well ID
LATI .            32.923347                     : Latitude
LONG .            -98.220847                    : Longitude
DATE .            27-Sep-2014                   : Logging Date
#
~Curve Information
#MNEM.UNIT        API CODES                     : CURVE DESCRIPTION
#----.----        ---------                     : -----------------
DEPT .F           00 001 00 00                  : Logged depth
CGXT .DEGF        30 660 01 00                  : MCG External Temperature
SMTU .LB          30 635 00 00                  : DST Uphole Tension
GRGC .GAPI        30 310 01 00                  : Gamma Ray
SPCG .MV          30 010 00 00                  : Spontaneous Potential
FEFE .OHMM        10 220 06 00                  : Shallow FE
NPRL .V/V         42 890 01 00                  : Limestone Neutron Por.
CLDC .IN          45 280 01 00                  : Density Caliper
DCOR .G/C3        42 356 01 00                  : Density Correction
PDPE .B/E         45 358 01 00                  : PE
DPRL .V/V         45 890 10 00                  : Limestone Density Por.
MLTC .IN          15 280 01 00                  : MML Caliper
MNRL .OHMM        15 252 00 00                  : Micro-normal
MINV .OHMM        15 250 00 00                  : Micro-inverse
R40O .OHMM        07 120 44 00                  : Array Ind. One Res 40
R60O .OHMM        07 120 44 00                  : Array Ind. One Res 60
RTAO .OHMM        07 120 44 00                  : Array Ind. One Res Rt
DEN  .G/C3        42 350 01 00                  : Compensated Density
DFCL .IN          00 000 00 00                  : Differential Caliper
CTAO .----        07 120 44 00                  : Array Ind. One Cond Ct
#
~Parameter Information
#MNEM.UNIT        VALUE                         : DESCRIPTION
#----.----        -----                         : -----------
RNID .            MAIN PASS                     : Run ID
SON  .            7055-98956400                 : Job Number
DREF .            KB                            : Depth reference
EREF .F               932.000                   : Elevation of depth reference
GL   .F               921.000                   : Ground elevation
RUN  .            ONE                           : Run number
TDD  .F              5096.000                   : TD (driller)
TDL  .F              5093.000                   : TD (logger)
BS   .IN                7.875                   : Bit size
TIMC .                                          : Time circulation ended
TIML .                                          : Time logger at bottom
UNIT .              13226                       : Equipment ID
BASE .            OKC                           : Equipment base location
ENG  .            JUSTIN HICKS                  : Recording engineer
WIT  .            BEAU BEREND                   : Witnessed by
CSGT .            SURFACE                       : Casing type
CSGS .IN                8.625                   : Casing size
CSGW .LB/FT            24.003                   : Casing weight
CSGD .F               502.000                   : Casing bottom (driller)
CSGL .F               504.000                   : Casing bottom (logger)
CSUP .F           -999999.000                   : Casing Stick Up GL
MUD  .            WBM                           : Mud type
MUDS .            MUD PIT                       : Mud sample source
MUDD .LB/G              9.650                   : Mud density
MUDV .SEC/QT           58.000                   : Mud viscosity
PH   .                  9.500                   : Mud pH
FL   .ML/30MIN          7.400                   : Mud fluid loss rate
RM   .OHMM              1.900                   : Mud resistivity
RMT  .DEGF            100.000                   : Mud sample temperature
RMF  .OHMM              1.520                   : Mud filtrate resistivity
RMFT .DEGF            100.000                   : Mud filtrate sample temperature
RMC  .OHMM              2.280                   : Mud cake resistivity
RMCT .DEGF            100.000                   : Mud cake sample temperature
TMAX .DEGF            150.000                   : Max recorded temperature
#
~Other Information
----------------------------------------------------------------------------------------------------------
TOOLS RAN: CBH, SHA, MCG, MML, MDN, MPD, MFE, MAI RAN IN COMBINATION.
HARDWARE USED:     
TOOLS RAN WITHOUT STANDOFFS OR BOWSPRINGS PER CUSTOMER REQUEST. 
                
                                
2.71 G/CC DENSITY MATRIX USED TO CALCULATE POROSITY.
ALL INTERVALS LOGGED AND SCALED PER CUSTOMER'S REQUEST.
TOTAL HOLE VOLUME FROM TD TO SURFACE CASING = 1722 CU.FT.
ANNULAR HOLE VOLUME WITH 5.5 INCH PRODUCTION CASING FROM TD TO SURFACE CASING = 965 CU.FT. 
FIELD TICKET NUMBER: 7055-98956400
RIG:  E AND H, RIG #4
OPERATOR(S):  N. SCARNECHIA
MUD PROPERTIES:     
CHLORIDES: 900 MG/L
LCM: 6 PPB
*HOLE WASHOUTS AND RUGOSITY WILL AFFECT LOG QUALITY AND REPEATABILITY.*                                   
----------------------------------------------------------------------------------------------------------
#
#          DEPT           CGXT           SMTU           GRGC           SPCG           FEFE           NPRL           CLDC           DCOR           PDPE           DPRL           MLTC           MNRL           MINV           R40O           R60O           RTAO           DEN            DFCL           CTAO
#
~ASCII Log Data
# ...
         2938.5     124.062406     649.175530     115.543738     376.376345      10.183182       0.150458       8.235830       0.050124       3.019101       0.055126       8.088145       7.297373       9.463398       9.165022       9.302810       9.417144       2.615735       0.360830     106.189400
         2939.0     124.026491     672.678098     114.083274     375.887187      10.089777       0.152333       8.237827       0.046987       2.998353       0.060179       8.084623       7.374895      10.069922       9.086961       9.224386       9.338516       2.607093       0.362827     107.087586
         2939.5     123.996605     659.264957     108.915280     375.481083      10.174208       0.154469       8.239028       0.044617       2.976739       0.064670       8.078702       7.081153       9.626222       9.186942       9.326708       9.442976       2.599414       0.364028     105.898824
         2940.0     124.075688     671.979332      98.717448     374.871541      10.263185       0.156472       8.239140       0.046389       2.890200       0.063428       8.071603       7.222639       9.923783       9.296897       9.439086       9.557597       2.601538       0.364140     104.635163
         2940.5     124.055794     645.809181      94.399548     374.426978      10.831770       0.157121       8.239148       0.047755       2.797643       0.062708       8.065134       8.322393      12.438636       9.822416       9.973276      10.099232       2.602769       0.364148      99.026093
         2941.0     124.117954     685.868446      99.111763     373.966827      10.928023       0.154929       8.239723       0.047145       2.751372       0.065412       8.062201       7.832073      10.185397       9.949636      10.102801      10.230951       2.598145       0.364723      97.794958
         2941.5     124.035472     652.429936     104.980239     373.534758      10.468382       0.150870       8.241802       0.052331       2.793707       0.065841       8.061397       7.009375       9.095182       9.567295       9.714595       9.838003       2.597412       0.366802     101.650580
         2942.0     124.095182     681.778519     106.719799     373.202793      10.518068       0.146833       8.245363       0.064375       2.896327       0.069261       8.061067       7.457691      10.900573       9.649416       9.797598       9.921958       2.591563       0.370363     100.829030
         2942.5     124.179942     623.116007     102.124499     372.404224      10.701991       0.144511       8.251944       0.089642       3.012742       0.072562       8.060944       7.268818       9.663726       9.850611      10.001093      10.127574       2.585919       0.376944      98.749038
         2943.0     124.180342     649.592360      97.313319     371.544294      11.555856       0.144617       8.261027       0.116404       3.049667       0.080285       8.060845       8.930526      13.561494      10.637990      10.799153      10.934748       2.572713       0.386027      91.577803
         2943.5     124.170840     701.926218      94.233971     370.664576      10.547356       0.144737       8.268035       0.115974       2.977846       0.097931       8.060070       7.192965       9.768152       9.754906       9.901141      10.024204       2.542538       0.393035      99.777017
         2944.0     124.132932     627.124386      89.109388     369.228682      10.418310       0.142889       8.271678       0.090265       2.866890       0.114420       8.056267       7.515305       9.901287       9.659509       9.802470       9.922811       2.514341       0.396678     100.788372
         2944.5     124.018305     620.024706      85.496244     368.320837      10.608456       0.139974       8.271575       0.061001       2.783731       0.116038       8.048603       7.713061      10.708881       9.823247       9.966615      10.087212       2.511575       0.396575      99.135936
         2945.0     124.176028     616.895029      85.373668     367.583360      10.520268       0.138440       8.267573       0.053358       2.781180       0.095858       8.039483       7.946327      10.351544       9.741932       9.882088       9.999900       2.546083       0.392573     100.001646
         2945.5     124.114682     685.494797      88.372277     367.371321      10.664924       0.140648       8.255685       0.063650       2.793526       0.070476       8.031802       8.326003      11.040953       9.855821       9.995691      10.113130       2.589486       0.380685      98.885971
         2946.0     124.056909     593.538741      91.514773     367.676981      10.744766       0.143866       8.237225       0.069756       2.765954       0.059277       8.028116       9.214056      10.813435       9.918264      10.057357      10.174040       2.608636       0.362225      98.289735
         2946.5     124.106804     658.765803      91.697246     367.989213      10.490434       0.143477       8.220254       0.067659       2.756117       0.060090       8.025364       9.006065      10.340523       9.660456       9.794671       9.907093       2.607245       0.345254     100.941245
         2947.0     124.016791     667.542106      92.353468     368.780991      10.520178       0.139327       8.207730       0.064248       2.833709       0.059793       8.021548       8.879369      11.573312       9.666570       9.800015       9.911687       2.607754       0.332730     100.891942
         2947.5     124.115650     701.893425      94.353281     369.717615      10.412498       0.136123       8.198414       0.061549       2.940088       0.054824       8.019918       7.886845       9.403796       9.552025       9.683501       9.793455       2.616251       0.323414     102.136608
         2948.0     124.012169     692.360750      96.064316     370.030458      10.099637       0.138183       8.189063       0.059878       2.989837       0.048566       8.018675       7.413663       9.180748       9.266064       9.393574       9.500207       2.626953       0.314063     105.261701
         2948.5     124.103911     627.512144      95.907554     369.735497       9.959038       0.145992       8.177599       0.057590       2.935103       0.048568       8.014322       7.521004       9.474168       9.134812       9.260770       9.366144       2.626949       0.302599     106.769098
         2949.0     124.080986     648.470090      94.455166     368.848116      10.206376       0.153403       8.166161       0.056081       2.881996       0.052124       8.005584       7.831595       9.599684       9.372390       9.502005       9.610597       2.620868       0.291161     104.052680
         2949.5     124.057622     669.171597      92.237469     367.774724      10.190870       0.153410       8.160341       0.055281       2.921244       0.056837       7.993440       7.590322       9.483512       9.384234       9.514300       9.623478       2.612809       0.285341     103.914001
         2950.0     124.210490     684.238725      88.496073     366.255983      10.377634       0.146492       8.158774       0.051322       2.923453       0.067923       7.983534       7.386874       9.800837       9.572771       9.705478       9.817084       2.593852       0.283774     101.864308
         2950.5     124.144897     686.767922      84.129510     363.717029      10.622330       0.135987       8.158003       0.049424       2.791820       0.078283       7.977728       7.829343      11.052069       9.840713       9.976631      10.091256       2.576136       0.283003      99.103523
         2951.0     124.213859     694.975763      82.545973     361.814677      11.273356       0.126287       8.157214       0.049853       2.679028       0.083985       7.975039       9.011053      14.063325      10.458034      10.601303      10.722391       2.566386       0.282214      93.271826
         2951.5     124.125498     682.965599      82.538997     360.638599      11.334810       0.119764       8.156971       0.054124       2.633228       0.080111       7.977452       9.050544      11.407233      10.533731      10.676032      10.796481       2.573010       0.281971      92.662653
