###########################################
# File generated by DigiDrill LAS Builder #
###########################################
~Version Information
VERS.   2.0   :LAS Version 2.0        
WRAP.    NO   :One line per depth step

#MNEM   .UNIT                 DATA   INFORMATION       
#------------------------------------------------------
~Well Information
 STRT   .FT                9001.21   :Start Depth      
 STOP   .FT               14403.00   :Stop Depth       
 STEP   .FT                   1.00   :Step Value       
 NULL   .                 -9999.00   :NULL Value       
 DATE   .                7/26/2010   :Date             
 SRVC   .                Drake MWD   :Service Company  
 COMP   .              El Paso E&P   :Operating Company
 WELL   .                Hixon #5H   :Well             
  FLD   .       EGFD Shale TXSZ'27   :Field            
  LOC   .                  Cotulla   :Location         
 CNTY   .                  LaSalle   :County           
 STAT   .                       TX   :State            
 CTRY   .                      USA   :Country          
  UWI   .               4228332299   :UWI Number       
  API   .               4228332299   :API Number       

#SURVEYS:
#SVY      DEPTH    INCL      AZM       TVD        VS      N/-S       E/-W
#------------------------------------------------------------------------
~Other Information
   0    8857.00    2.38   147.94   8847.00   -205.32   -150.52     139.80
   1    8937.00    4.40   278.70   8926.93   -204.48   -151.46     137.65
   2    8969.00    9.40   291.50   8958.69   -201.11   -150.32     134.00
   3    9001.00   12.30   297.30   8990.11   -195.47   -147.80     128.54
   4    9097.00   11.90   308.20   9083.99   -175.92   -136.99     111.67
   5    9192.00   10.40   317.30   9177.20   -157.63   -124.63      98.16
   6    9288.00    9.50   313.80   9271.76   -141.05   -112.77      86.56
   7    9380.00    8.60   311.90   9362.61   -126.60   -102.93      75.96
   8    9413.00    8.90   311.90   9395.23   -121.59    -99.57      72.23
   9    9444.00   11.60   314.20   9425.73   -116.07    -95.80      68.21
  10    9476.00   14.80   317.30   9456.88   -108.77    -90.55      63.13
  11    9508.00   18.20   319.60   9487.56    -99.70    -83.74      57.11
  12    9540.00   21.60   319.10   9517.64    -88.84    -75.48      50.02
  13    9571.00   25.00   318.20   9546.11    -76.60    -66.28      41.91
  14    9603.00   27.60   318.40   9574.80    -62.44    -55.69      32.48
  15    9635.00   29.60   319.30   9602.89    -47.15    -44.16      22.41
  16    9667.00   32.00   320.70   9630.38    -30.82    -31.60      11.88
  17    9699.00   34.20   320.90   9657.18    -13.43    -18.06       0.84
  18    9731.00   37.20   320.20   9683.17      5.16     -3.65     -11.03
  19    9763.00   41.10   317.70   9707.98     25.32     11.57     -24.31
  20    9795.00   44.90   316.50   9731.38     47.13     27.55     -39.17
  21    9826.00   48.80   316.30   9752.57     69.74     43.92     -54.76
  22    9858.00   52.80   316.30   9772.79     94.53     61.85     -71.89
  23    9890.00   56.20   316.50   9791.38    120.57     80.71     -89.85
  24    9922.00   58.70   316.50   9808.59    147.54    100.28    -108.42
  25    9954.00   61.30   316.50   9824.59    175.24    120.38    -127.49
  26    9986.00   64.50   315.60   9839.17    203.72    140.88    -147.26
  27   10018.00   67.40   314.90   9852.21    232.94    161.63    -167.83
  28   10050.00   70.50   313.80   9863.70    262.80    182.50    -189.19
  29   10082.00   74.00   313.50   9873.45    293.25    203.54    -211.24
  30   10114.00   76.90   314.20   9881.49    324.21    224.99    -233.57
  31   10146.00   79.60   314.40   9888.01    355.54    246.87    -255.99
  32   10178.00   82.70   314.50   9892.93    387.15    269.01    -278.56
  33   10209.00   86.30   314.20   9895.90    418.00    290.58    -300.62
  34   10241.00   89.00   314.20   9897.21    449.96    312.87    -323.54
  35   10336.00   91.00   314.50   9897.21    544.94    379.27    -391.47
  36   10432.00   94.80   315.10   9892.36    640.80    446.82    -459.49
  37   10527.00   95.50   314.20   9883.83    735.40    513.31    -526.80
  38   10624.00   92.40   314.00   9877.15    832.14    580.64    -596.29
  39   10719.00   93.40   314.20   9872.34    927.00    646.67    -664.42
  40   10813.00   92.90   315.20   9867.18   1020.85    712.69    -731.13
  41   10908.00   92.80   314.20   9862.45   1115.72    779.43    -798.57
  42   11004.00   92.30   312.90   9858.18   1211.58    845.50    -868.08
  43   11101.00   92.30   313.80   9854.29   1308.44    912.03    -938.56
  44   11196.00   92.60   313.50   9850.23   1403.32    977.55   -1007.24
  45   11292.00   91.60   313.50   9846.71   1499.20   1043.58   -1076.82
  46   11386.00   92.70   314.70   9843.18   1593.11   1108.95   -1144.28
  47   11482.00   93.10   313.30   9838.33   1688.96   1175.55   -1213.25
  48   11578.00   93.90   313.10   9832.47   1784.71   1241.15   -1283.10
  49   11674.00   94.00   311.70   9825.85   1880.36   1305.72   -1353.82
  50   11770.00   93.30   312.90   9819.74   1976.03   1370.20   -1424.68
  51   11865.00   93.30   314.70   9814.27   2070.83   1435.84   -1493.13
  52   11960.00   94.40   315.90   9807.89   2165.62   1503.21   -1559.80
  53   12056.00   94.80   316.60   9800.19   2261.29   1572.34   -1625.97
  54   12152.00   94.30   317.00   9792.58   2356.96   1642.10   -1691.48
  55   12248.00   92.50   317.00   9786.89   2452.75   1712.18   -1756.83
  56   12344.00   90.70   314.40   9784.21   2548.69   1780.85   -1823.84
  57   12439.00   92.10   316.50   9781.88   2643.66   1848.52   -1890.46
  58   12535.00   92.70   316.30   9777.86   2739.55   1917.98   -1956.61
  59   12631.00   92.20   314.90   9773.76   2835.46   1986.51   -2023.71
  60   12727.00   92.30   315.80   9769.99   2931.39   2054.75   -2091.13
  61   12822.00   90.70   317.00   9767.50   3026.33   2123.52   -2156.62
  62   12918.00   91.50   319.40   9765.66   3122.19   2195.07   -2220.59
  63   13014.00   90.70   318.70   9763.82   3217.96   2267.56   -2283.49
  64   13105.00   91.90   318.90   9761.75   3308.77   2336.01   -2343.42
  65   13200.00   90.70   316.80   9759.60   3403.65   2406.42   -2407.15
  66   13296.00   89.40   314.50   9759.52   3499.64   2475.06   -2474.25
  67   13392.00   88.50   314.20   9761.27   3595.61   2542.16   -2542.88
  68   13486.00   88.50   314.00   9763.74   3689.55   2607.55   -2610.37
  69   13582.00   89.30   313.80   9765.58   3785.51   2674.10   -2679.52
  70   13678.00   89.40   313.50   9766.67   3881.46   2740.36   -2748.98
  71   13774.00   90.00   313.10   9767.17   3977.40   2806.20   -2818.85
  72   13868.00   90.40   312.40   9766.84   4071.30   2870.01   -2887.87
  73   13960.00   91.30   312.60   9765.48   4163.18   2932.15   -2955.69
  74   14054.00   91.20   315.60   9763.43   4257.12   2997.55   -3023.17
  75   14148.00   92.40   318.20   9760.47   4351.03   3066.14   -3087.36
  76   14241.00   91.80   316.50   9757.06   4443.91   3134.49   -3150.33
  77   14334.00   91.70   315.90   9754.22   4536.85   3201.58   -3214.67

# MNEM   .UNIT    DATA   INFORMATION                                                               
#--------------------------------------------------------------------------------------------------
~Curve Information
 DEPTH   .FT             :Measured Depth                                                           
    MD   .FT             :Measured depth.                                                          
   TVD   .FT             :True vertical depth.                                                     
   ROP   .FT/HR          :Rate of penetration at bit depth.                                        
    GR   .API            :API corrected gamma counts from all gamma configurations at sensor depth.

#   DEPTH         MD       TVD       ROP         GR
#--------------------------------------------------
~ASCII Log
# ...
  9771.21    9771.21   9713.98     18.49      55.30
  9772.21    9772.21   9714.71     28.54      51.41
  9773.21    9773.21   9715.44     28.50      47.26
  9774.21    9774.21   9716.18     24.60      39.11
  9775.21    9775.21   9716.91     22.73      36.77
  9776.21    9776.21   9717.64     17.41      34.77
  9777.21    9777.21   9718.37     19.60      33.78
  9778.21    9778.21   9719.10     17.50      36.64
  9779.21    9779.21   9719.83     15.23      49.90
  9780.21    9780.21   9720.56     12.12      57.11
  9781.21    9781.21   9721.29     24.49      46.80
  9782.21    9782.21   9722.02     21.34      44.77
  9783.21    9783.21   9722.76     23.02      42.92
  9784.21    9784.21   9723.49     26.29      42.00
  9785.21    9785.21   9724.22     26.07      41.85
  9786.21    9786.21   9724.95     22.50      36.73
  9787.21    9787.21   9725.68     17.32      37.10
  9788.21    9788.21   9726.41     17.74      36.92
  9789.21    9789.21   9727.14     17.45      44.80
  9790.21    9790.21   9727.87     15.37      45.50
  9791.21    9791.21   9728.61     17.89      38.33
  9792.21    9792.21   9729.34     10.74      60.76
  9793.21    9793.21   9730.07     17.30      50.78
  9794.21    9794.21   9730.80     25.74      47.77
  9795.21    9795.21   9731.52     25.87      66.76
  9796.21    9796.21   9732.20     28.49      80.99
  9797.21    9797.21   9732.89     28.83      57.55
  9798.21    9798.21   9733.57     20.08      59.96
  9799.21    9799.21   9734.26     15.92      39.57
  9800.21    9800.21   9734.94     18.09      39.36
  9801.21    9801.21   9735.62     18.64      45.79
  9802.21    9802.21   9736.31     19.51      45.25
  9803.21    9803.21   9736.99     25.13      40.37
  9804.21    9804.21   9737.68     26.69      44.50
  9805.21    9805.21   9738.36     23.35      49.87
  9806.21    9806.21   9739.04     23.01      41.97
  9807.21    9807.21   9739.73     27.57      41.18
  9808.21    9808.21   9740.41     17.84      42.72
  9809.21    9809.21   9741.09     19.69      48.22
  9810.21    9810.21   9741.78     20.33      47.71
  9811.21    9811.21   9742.46     24.91      40.01
  9812.21    9812.21   9743.15     23.85      33.70
  9813.21    9813.21   9743.83     14.35      36.63
  9814.21    9814.21   9744.51     14.37      59.59
  9815.21    9815.21   9745.20     20.37      86.72
  9816.21    9816.21   9745.88     19.15     108.91
  9817.21    9817.21   9746.56     37.76      53.61
  9818.21    9818.21   9747.25     24.97      37.17
  9819.21    9819.21   9747.93     14.22      41.93
  9820.21    9820.21   9748.62     14.80      37.89
  9821.21    9821.21   9749.30     22.65      38.76
  9822.21    9822.21   9749.98     20.59      43.34
  9823.21    9823.21   9750.67     17.08      45.11
  9824.21    9824.21   9751.35     18.23      44.45
  9825.21    9825.21   9752.03     20.19      43.08
  9826.21    9826.21   9752.71     32.72      41.28
  9827.21    9827.21   9753.34     41.17      42.11
  9828.21    9828.21   9753.97     42.12      38.47
  9829.21    9829.21   9754.60     40.12      37.83
  9830.21    9830.21   9755.23     40.11      36.79
  9831.21    9831.21   9755.87     36.87      35.92
  9832.21    9832.21   9756.50     33.81      38.63
  9833.21    9833.21   9757.13     33.37      40.10
  9834.21    9834.21   9757.76     25.78      42.80
  9835.21    9835.21   9758.39     27.12      45.47
  9836.21    9836.21   9759.03     24.90      44.01
  9837.21    9837.21   9759.66     23.08      52.31
  9838.21    9838.21   9760.29     24.00      47.92
  9839.21    9839.21   9760.92     35.52      41.61
  9840.21    9840.21   9761.55     28.53      46.44
  9841.21    9841.21   9762.19     22.21      47.03
  9842.21    9842.21   9762.82     28.82      47.81
  9843.21    9843.21   9763.45     30.58      46.50
  9844.21    9844.21   9764.08     28.82      37.29
  9845.21    9845.21   9764.71     22.99      45.24
  9846.21    9846.21   9765.35     21.44      54.71
  9847.21    9847.21   9765.98     21.24      52.96
  9848.21    9848.21   9766.61     35.87      50.42
  9849.21    9849.21   9767.24     38.87      56.00
  9850.21    9850.21   9767.87     29.74      56.42
  9851.21    9851.21   9768.50     36.43      60.00
  9852.21    9852.21   9769.14     26.18      59.54
  9853.21    9853.21   9769.77     24.45      55.25
  9854.21    9854.21   9770.40     25.34      63.52
  9855.21    9855.21   9771.03     32.60      64.79
  9856.21    9856.21   9771.66     57.21      63.00
  9857.21    9857.21   9772.30     59.35      61.72
  9858.21    9858.21   9772.92     22.58      54.84
  9859.21    9859.21   9773.50     36.29      49.06
  9860.21    9860.21   9774.08     55.04      38.66
  9861.21    9861.21   9774.66     41.18      45.64
  9862.21    9862.21   9775.24     39.88      46.27
  9863.21    9863.21   9775.82     34.97      41.36
  9864.21    9864.21   9776.40     22.26      53.43
  9865.21    9865.21   9776.98      8.38      68.47
  9866.21    9866.21   9777.56     20.23      57.93
  9867.21    9867.21   9778.14     27.26      74.92
  9868.21    9868.21   9778.72     16.46     100.32
  9869.21    9869.21   9779.30     42.69      91.30
  9870.21    9870.21   9779.89     34.80      70.92
  9871.21    9871.21   9780.47     22.38      86.27
  9872.21    9872.21   9781.05     21.93      74.26
  9873.21    9873.21   9781.63     51.15      43.84
  9874.21    9874.21   9782.21     34.29      28.10
  9875.21    9875.21   9782.79     18.30      34.12
  9876.21    9876.21   9783.37     15.78      44.05
  9877.21    9877.21   9783.95     14.70      58.80
  9878.21    9878.21   9784.53     16.45      77.35
  9879.21    9879.21   9785.11     23.33      59.69
  9880.21    9880.21   9785.69     41.45      48.30
  9881.21    9881.21   9786.27     19.35      44.12
  9882.21    9882.21   9786.85     20.94      48.97
  9883.21    9883.21   9787.43     16.05      77.53
  9884.21    9884.21   9788.01     19.93     104.39
  9885.21    9885.21   9788.59     41.52      99.01
  9886.21    9886.21   9789.18     75.72      72.66
  9887.21    9887.21   9789.76     61.37      67.42
  9888.21    9888.21   9790.34     24.56      67.77
  9889.21    9889.21   9790.92     18.91      99.82
  9890.21    9890.21   9791.49     38.03      94.32
  9891.21    9891.21   9792.03     74.15      84.61
  9892.21    9892.21   9792.56     58.70      52.30
  9893.21    9893.21   9793.10     45.11      35.01
  9894.21    9894.21   9793.64     38.29      33.90
  9895.21    9895.21   9794.18     36.96      36.08
  9896.21    9896.21   9794.72     43.98      50.08
  9897.21    9897.21   9795.25     47.50      46.34
  9898.21    9898.21   9795.79     57.23      33.93
  9899.21    9899.21   9796.33     44.96      24.58
  9900.21    9900.21   9796.87     42.08      27.98
  9901.21    9901.21   9797.41     40.17      31.00
  9902.21    9902.21   9797.94     33.11      30.87
  9903.21    9903.21   9798.48     39.74      27.10
  9904.21    9904.21   9799.02     11.49      24.31
  9905.21    9905.21   9799.56     17.73      27.79
  9906.21    9906.21   9800.10     10.96      28.88
  9907.21    9907.21   9800.63     19.43      27.25
  9908.21    9908.21   9801.17     24.06      28.85
  9909.21    9909.21   9801.71     27.71      30.84
  9910.21    9910.21   9802.25     20.24      25.89
  9911.21    9911.21   9802.79     26.34      16.00
  9912.21    9912.21   9803.32     33.22      16.13
  9913.21    9913.21   9803.86     29.70      19.60
  9914.21    9914.21   9804.40     29.60      20.09
  9915.21    9915.21   9804.94     28.16      22.63
  9916.21    9916.21   9805.48     24.02      25.56
  9917.21    9917.21   9806.01     22.63      28.79
  9918.21    9918.21   9806.55     18.25      27.26
  9919.21    9919.21   9807.09     19.73      34.28
  9920.21    9920.21   9807.63     21.63      39.50
  9921.21    9921.21   9808.17     33.68      39.85
  9922.21    9922.21   9808.70     43.50      37.94
  9923.21    9923.21   9809.20     39.53      77.38
  9924.21    9924.21   9809.70     44.60      81.16
