###########################################
# File generated by DigiDrill LAS Builder #
###########################################
~Version Information
VERS.   2.0   :LAS Version 2.0        
WRAP.    NO   :One line per depth step

#MNEM   .UNIT                 DATA   INFORMATION       
#------------------------------------------------------
~Well Information
 STRT   .FT                9001.21   :Start Depth      
 STOP   .FT               14403.00   :Stop Depth       
 STEP   .FT                   1.00   :Step Value       
 NULL   .                 -9999.00   :NULL Value       
 DATE   .                7/26/2010   :Date             
 SRVC   .                Drake MWD   :Service Company  
 COMP   .              El Paso E&P   :Operating Company
 WELL   .                Hixon #5H   :Well             
  FLD   .       EGFD Shale TXSZ'27   :Field            
  LOC   .                  Cotulla   :Location         
 CNTY   .                  LaSalle   :County           
 STAT   .                       TX   :State            
 CTRY   .                      USA   :Country          
  UWI   .               4228332299   :UWI Number       
  API   .               4228332299   :API Number       

#SURVEYS:
#SVY      DEPTH    INCL      AZM       TVD        VS      N/-S       E/-W
#------------------------------------------------------------------------
~Other Information
   0    8857.00    2.38   147.94   8847.00   -205.32   -150.52     139.80
   1    8937.00    4.40   278.70   8926.93   -204.48   -151.46     137.65
   2    8969.00    9.40   291.50   8958.69   -201.11   -150.32     134.00
   3    9001.00   12.30   297.30   8990.11   -195.47   -147.80     128.54
   4    9097.00   11.90   308.20   9083.99   -175.92   -136.99     111.67
   5    9192.00   10.40   317.30   9177.20   -157.63   -124.63      98.16
   6    9288.00    9.50   313.80   9271.76   -141.05   -112.77      86.56
   7    9380.00    8.60   311.90   9362.61   -126.60   -102.93      75.96
   8    9413.00    8.90   311.90   9395.23   -121.59    -99.57      72.23
   9    9444.00   11.60   314.20   9425.73   -116.07    -95.80      68.21
  10    9476.00   14.80   317.30   9456.88   -108.77    -90.55      63.13
  11    9508.00   18.20   319.60   9487.56    -99.70    -83.74      57.11
  12    9540.00   21.60   319.10   9517.64    -88.84    -75.48      50.02
  13    9571.00   25.00   318.20   9546.11    -76.60    -66.28      41.91
  14    9603.00   27.60   318.40   9574.80    -62.44    -55.69      32.48
  15    9635.00   29.60   319.30   9602.89    -47.15    -44.16      22.41
  16    9667.00   32.00   320.70   9630.38    -30.82    -31.60      11.88
  17    9699.00   34.20   320.90   9657.18    -13.43    -18.06       0.84
  18    9731.00   37.20   320.20   9683.17      5.16     -3.65     -11.03
  19    9763.00   41.10   317.70   9707.98     25.32     11.57     -24.31
  20    9795.00   44.90   316.50   9731.38     47.13     27.55     -39.17
  21    9826.00   48.80   316.30   9752.57     69.74     43.92     -54.76
  22    9858.00   52.80   316.30   9772.79     94.53     61.85     -71.89
  23    9890.00   56.20   316.50   9791.38    120.57     80.71     -89.85
  24    9922.00   58.70   316.50   9808.59    147.54    100.28    -108.42
  25    9954.00   61.30   316.50   9824.59    175.24    120.38    -127.49
  26    9986.00   64.50   315.60   9839.17    203.72    140.88    -147.26
  27   10018.00   67.40   314.90   9852.21    232.94    161.63    -167.83
  28   10050.00   70.50   313.80   9863.70    262.80    182.50    -189.19
  29   10082.00   74.00   313.50   9873.45    293.25    203.54    -211.24
  30   10114.00   76.90   314.20   9881.49    324.21    224.99    -233.57
  31   10146.00   79.60   314.40   9888.01    355.54    246.87    -255.99
  32   10178.00   82.70   314.50   9892.93    387.15    269.01    -278.56
  33   10209.00   86.30   314.20   9895.90    418.00    290.58    -300.62
  34   10241.00   89.00   314.20   9897.21    449.96    312.87    -323.54
  35   10336.00   91.00   314.50   9897.21    544.94    379.27    -391.47
  36   10432.00   94.80   315.10   9892.36    640.80    446.82    -459.49
  37   10527.00   95.50   314.20   9883.83    735.40    513.31    -526.80
  38   10624.00   92.40   314.00   9877.15    832.14    580.64    -596.29
  39   10719.00   93.40   314.20   9872.34    927.00    646.67    -664.42
  40   10813.00   92.90   315.20   9867.18   1020.85    712.69    -731.13
  41   10908.00   92.80   314.20   9862.45   1115.72    779.43    -798.57
  42   11004.00   92.30   312.90   9858.18   1211.58    845.50    -868.08
  43   11101.00   92.30   313.80   9854.29   1308.44    912.03    -938.56
  44   11196.00   92.60   313.50   9850.23   1403.32    977.55   -1007.24
  45   11292.00   91.60   313.50   9846.71   1499.20   1043.58   -1076.82
  46   11386.00   92.70   314.70   9843.18   1593.11   1108.95   -1144.28
  47   11482.00   93.10   313.30   9838.33   1688.96   1175.55   -1213.25
  48   11578.00   93.90   313.10   9832.47   1784.71   1241.15   -1283.10
  49   11674.00   94.00   311.70   9825.85   1880.36   1305.72   -1353.82
  50   11770.00   93.30   312.90   9819.74   1976.03   1370.20   -1424.68
  51   11865.00   93.30   314.70   9814.27   2070.83   1435.84   -1493.13
  52   11960.00   94.40   315.90   9807.89   2165.62   1503.21   -1559.80
  53   12056.00   94.80   316.60   9800.19   2261.29   1572.34   -1625.97
  54   12152.00   94.30   317.00   9792.58   2356.96   1642.10   -1691.48
  55   12248.00   92.50   317.00   9786.89   2452.75   1712.18   -1756.83
  56   12344.00   90.70   314.40   9784.21   2548.69   1780.85   -1823.84
  57   12439.00   92.10   316.50   9781.88   2643.66   1848.52   -1890.46
  58   12535.00   92.70   316.30   9777.86   2739.55   1917.98   -1956.61
  59   12631.00   92.20   314.90   9773.76   2835.46   1986.51   -2023.71
  60   12727.00   92.30   315.80   9769.99   2931.39   2054.75   -2091.13
  61   12822.00   90.70   317.00   9767.50   3026.33   2123.52   -2156.62
  62   12918.00   91.50   319.40   9765.66   3122.19   2195.07   -2220.59
  63   13014.00   90.70   318.70   9763.82   3217.96   2267.56   -2283.49
  64   13105.00   91.90   318.90   9761.75   3308.77   2336.01   -2343.42
  65   13200.00   90.70   316.80   9759.60   3403.65   2406.42   -2407.15
  66   13296.00   89.40   314.50   9759.52   3499.64   2475.06   -2474.25
  67   13392.00   88.50   314.20   9761.27   3595.61   2542.16   -2542.88
  68   13486.00   88.50   314.00   9763.74   3689.55   2607.55   -2610.37
  69   13582.00   89.30   313.80   9765.58   3785.51   2674.10   -2679.52
  70   13678.00   89.40   313.50   9766.67   3881.46   2740.36   -2748.98
  71   13774.00   90.00   313.10   9767.17   3977.40   2806.20   -2818.85
  72   13868.00   90.40   312.40   9766.84   4071.30   2870.01   -2887.87
  73   13960.00   91.30   312.60   9765.48   4163.18   2932.15   -2955.69
  74   14054.00   91.20   315.60   9763.43   4257.12   2997.55   -3023.17
  75   14148.00   92.40   318.20   9760.47   4351.03   3066.14   -3087.36
  76   14241.00   91.80   316.50   9757.06   4443.91   3134.49   -3150.33
  77   14334.00   91.70   315.90   9754.22   4536.85   3201.58   -3214.67

# MNEM   .UNIT    DATA   INFORMATION                                                               
#--------------------------------------------------------------------------------------------------
~Curve Information
 DEPTH   .FT             :Measured Depth                                                           
    MD   .FT             :Measured depth.                                                          
   TVD   .FT             :True vertical depth.                                                     
   ROP   .FT/HR          :Rate of penetration at bit depth.                                        
    GR   .API            :API corrected gamma counts from all gamma configurations at sensor depth.

#   DEPTH         MD       TVD       ROP         GR
#--------------------------------------------------
~ASCII Log
# ...
 10079.21   10079.21   9872.60     44.28      53.02
 10080.21   10080.21   9872.91     40.02      53.93
 10081.21   10081.21   9873.21     29.01      55.70
 10082.21   10082.21   9873.51     48.88      47.94
 10083.21   10083.21   9873.76     50.37      48.55
 10084.21   10084.21   9874.01     40.29      58.15
 10085.21   10085.21   9874.26     35.20      59.58
 10086.21   10086.21   9874.51     37.82      60.67
 10087.21   10087.21   9874.76     46.93      61.76
 10088.21   10088.21   9875.01     47.71      62.69
 10089.21   10089.21   9875.27     47.91      61.97
 10090.21   10090.21   9875.52     49.33      57.60
 10091.21   10091.21   9875.77     56.01      52.37
 10092.21   10092.21   9876.02     48.64      54.41
 10093.21   10093.21   9876.27     42.09      54.63
 10094.21   10094.21   9876.52     37.90      60.11
 10095.21   10095.21   9876.77     34.94      64.76
 10096.21   10096.21   9877.02     35.24      62.87
 10097.21   10097.21   9877.27     34.57      52.11
 10098.21   10098.21   9877.53     33.50      43.34
 10099.21   10099.21   9877.78     31.77      41.37
 10100.21   10100.21   9878.03     25.64      36.00
 10101.21   10101.21   9878.28     19.05      36.19
 10102.21   10102.21   9878.53     17.80      41.31
 10103.21   10103.21   9878.78     20.16      43.16
 10104.21   10104.21   9879.03     22.23      44.30
 10105.21   10105.21   9879.28     18.46      52.17
 10106.21   10106.21   9879.53     17.23      56.03
 10107.21   10107.21   9879.79     14.29      60.00
 10108.21   10108.21   9880.04     24.73      60.00
 10109.21   10109.21   9880.29     30.74      60.00
 10110.21   10110.21   9880.54     28.85      59.84
 10111.21   10111.21   9880.79     20.80      55.54
 10112.21   10112.21   9881.04     22.12      55.00
 10113.21   10113.21   9881.29     25.32      55.00
 10114.21   10114.21   9881.53     28.53      55.00
 10115.21   10115.21   9881.74     31.73      55.00
 10116.21   10116.21   9881.94     34.94      52.79
 10117.21   10117.21   9882.15     38.30      31.81
 10118.21   10118.21   9882.35     42.50      42.95
 10119.21   10119.21   9882.55     41.01      49.80
 10120.21   10120.21   9882.76     44.45      46.50
 10121.21   10121.21   9882.96     53.32      52.60
 10122.21   10122.21   9883.16     51.15      57.99
 10123.21   10123.21   9883.37     45.19      57.43
 10124.21   10124.21   9883.57     53.70      55.76
 10125.21   10125.21   9883.77     57.48      56.23
 10126.21   10126.21   9883.98     55.39      57.92
 10127.21   10127.21   9884.18     53.34      51.53
 10128.21   10128.21   9884.39     51.34      49.10
 10129.21   10129.21   9884.59     43.02      52.22
 10130.21   10130.21   9884.79     36.69      58.96
 10131.21   10131.21   9885.00     30.35      61.86
 10132.21   10132.21   9885.20     23.91      55.65
 10133.21   10133.21   9885.40     17.58      46.18
 10134.21   10134.21   9885.61     23.80      48.19
 10135.21   10135.21   9885.81     28.50      50.56
 10136.21   10136.21   9886.01     29.81      55.07
 10137.21   10137.21   9886.22     25.46      57.55
 10138.21   10138.21   9886.42     24.05      58.00
 10139.21   10139.21   9886.62     29.08      57.80
 10140.21   10140.21   9886.83     32.10      55.97
 10141.21   10141.21   9887.03     32.08      55.14
 10142.21   10142.21   9887.24     37.04      54.71
 10143.21   10143.21   9887.44     40.12      46.91
 10144.21   10144.21   9887.64     39.45      46.00
 10145.21   10145.21   9887.85     27.19      46.00
 10146.21   10146.21   9888.04     44.42      46.63
 10147.21   10147.21   9888.19     40.23      50.95
 10148.21   10148.21   9888.35     52.77      49.55
 10149.21   10149.21   9888.50     56.51      48.48
 10150.21   10150.21   9888.65     51.30      47.28
 10151.21   10151.21   9888.81     47.33      51.31
 10152.21   10152.21   9888.96     42.78      55.71
 10153.21   10153.21   9889.12     49.85      57.43
 10154.21   10154.21   9889.27     61.10      54.64
 10155.21   10155.21   9889.42     61.74      51.57
 10156.21   10156.21   9889.58     58.93      46.75
 10157.21   10157.21   9889.73     53.54      46.00
 10158.21   10158.21   9889.89     44.11      45.90
 10159.21   10159.21   9890.04     41.05      45.10
 10160.21   10160.21   9890.19     44.47      46.00
 10161.21   10161.21   9890.35     46.93      46.60
 10162.21   10162.21   9890.50     57.37      52.50
 10163.21   10163.21   9890.65     31.14      56.50
 10164.21   10164.21   9890.81     31.36      52.50
 10165.21   10165.21   9890.96     32.47      56.90
 10166.21   10166.21   9891.12     31.76      55.60
 10167.21   10167.21   9891.27     29.58      52.00
 10168.21   10168.21   9891.42     32.81      52.40
 10169.21   10169.21   9891.58     34.96      55.60
 10170.21   10170.21   9891.73     31.74      52.30
 10171.21   10171.21   9891.89     25.36      54.70
 10172.21   10172.21   9892.04     22.45      52.00
 10173.21   10173.21   9892.19     25.03      52.00
 10174.21   10174.21   9892.35     21.00      52.00
 10175.21   10175.21   9892.50     19.87      52.30
 10176.21   10176.21   9892.65     21.80      55.10
 10177.21   10177.21   9892.81     18.88      55.60
 10178.21   10178.21   9892.95     42.03      52.40
 10179.21   10179.21   9893.05     43.57      55.50
 10180.21   10180.21   9893.14     45.33      51.10
 10181.21   10181.21   9893.24     51.26      52.40
 10182.21   10182.21   9893.33     49.31      55.60
 10183.21   10183.21   9893.43     47.89      52.00
 10184.21   10184.21   9893.52     43.23      52.00
 10185.21   10185.21   9893.62     38.63      51.90
 10186.21   10186.21   9893.72     44.94      51.00
 10187.21   10187.21   9893.81     31.51      50.70
 10188.21   10188.21   9893.91     43.77      47.80
 10189.21   10189.21   9894.00     37.75      46.00
 10190.21   10190.21   9894.10     45.89      46.00
 10191.21   10191.21   9894.20     44.08      46.00
 10192.21   10192.21   9894.29     50.08      45.95
 10193.21   10193.21   9894.39     49.40      44.38
 10194.21   10194.21   9894.48     44.56      40.87
 10195.21   10195.21   9894.58     41.24      41.02
 10196.21   10196.21   9894.68     31.50      42.41
 10197.21   10197.21   9894.77     26.92      44.00
 10198.21   10198.21   9894.87     26.10      44.05
 10199.21   10199.21   9894.96     23.02      45.70
 10200.21   10200.21   9895.06     25.46      47.42
 10201.21   10201.21   9895.15     32.47      52.47
 10202.21   10202.21   9895.25     39.52      93.64
 10203.21   10203.21   9895.35     31.91      99.36
 10204.21   10204.21   9895.44     34.46      53.01
 10205.21   10205.21   9895.54     37.96      53.56
 10206.21   10206.21   9895.63     36.62      54.74
 10207.21   10207.21   9895.73     34.98      47.88
 10208.21   10208.21   9895.82     34.27      47.00
 10209.21   10209.21   9895.91     33.20      47.03
 10210.21   10210.21   9895.95     31.30      48.01
 10211.21   10211.21   9895.99     34.00      49.00
 10212.21   10212.21   9896.03     33.93      49.06
 10213.21   10213.21   9896.07     32.20      50.76
 10214.21   10214.21   9896.11     31.95      50.11
 10215.21   10215.21   9896.16     30.58      44.00
 10216.21   10216.21   9896.20     30.15      44.01
 10217.21   10217.21   9896.24     34.28      44.52
 10218.21   10218.21   9896.28     35.97      46.00
 10219.21   10219.21   9896.32     35.07      46.00
 10220.21   10220.21   9896.36     33.47      46.00
 10221.21   10221.21   9896.40     32.30      46.00
 10222.21   10222.21   9896.44     34.96      46.00
 10223.21   10223.21   9896.48     33.39      45.97
 10224.21   10224.21   9896.52     29.00      44.85
 10225.21   10225.21   9896.56     29.04      43.79
 10226.21   10226.21   9896.61     30.38      42.00
 10227.21   10227.21   9896.65     32.00      41.99
 10228.21   10228.21   9896.69     32.00      41.54
 10229.21   10229.21   9896.73     32.20      40.37
 10230.21   10230.21   9896.77     33.93      45.37
 10231.21   10231.21   9896.81     31.77      44.61
 10232.21   10232.21   9896.85     30.00      45.31
