###########################################
# File generated by DigiDrill LAS Builder #
###########################################
~Version Information
VERS.   2.0   :LAS Version 2.0        
WRAP.    NO   :One line per depth step

#MNEM   .UNIT                 DATA   INFORMATION       
#------------------------------------------------------
~Well Information
 STRT   .FT                9001.21   :Start Depth      
 STOP   .FT               14403.00   :Stop Depth       
 STEP   .FT                   1.00   :Step Value       
 NULL   .                 -9999.00   :NULL Value       
 DATE   .                7/26/2010   :Date             
 SRVC   .                Drake MWD   :Service Company  
 COMP   .              El Paso E&P   :Operating Company
 WELL   .                Hixon #5H   :Well             
  FLD   .       EGFD Shale TXSZ'27   :Field            
  LOC   .                  Cotulla   :Location         
 CNTY   .                  LaSalle   :County           
 STAT   .                       TX   :State            
 CTRY   .                      USA   :Country          
  UWI   .               4228332299   :UWI Number       
  API   .               4228332299   :API Number       

#SURVEYS:
#SVY      DEPTH    INCL      AZM       TVD        VS      N/-S       E/-W
#------------------------------------------------------------------------
~Other Information
   0    8857.00    2.38   147.94   8847.00   -205.32   -150.52     139.80
   1    8937.00    4.40   278.70   8926.93   -204.48   -151.46     137.65
   2    8969.00    9.40   291.50   8958.69   -201.11   -150.32     134.00
   3    9001.00   12.30   297.30   8990.11   -195.47   -147.80     128.54
   4    9097.00   11.90   308.20   9083.99   -175.92   -136.99     111.67
   5    9192.00   10.40   317.30   9177.20   -157.63   -124.63      98.16
   6    9288.00    9.50   313.80   9271.76   -141.05   -112.77      86.56
   7    9380.00    8.60   311.90   9362.61   -126.60   -102.93      75.96
   8    9413.00    8.90   311.90   9395.23   -121.59    -99.57      72.23
   9    9444.00   11.60   314.20   9425.73   -116.07    -95.80      68.21
  10    9476.00   14.80   317.30   9456.88   -108.77    -90.55      63.13
  11    9508.00   18.20   319.60   9487.56    -99.70    -83.74      57.11
  12    9540.00   21.60   319.10   9517.64    -88.84    -75.48      50.02
  13    9571.00   25.00   318.20   9546.11    -76.60    -66.28      41.91
  14    9603.00   27.60   318.40   9574.80    -62.44    -55.69      32.48
  15    9635.00   29.60   319.30   9602.89    -47.15    -44.16      22.41
  16    9667.00   32.00   320.70   9630.38    -30.82    -31.60      11.88
  17    9699.00   34.20   320.90   9657.18    -13.43    -18.06       0.84
  18    9731.00   37.20   320.20   9683.17      5.16     -3.65     -11.03
  19    9763.00   41.10   317.70   9707.98     25.32     11.57     -24.31
  20    9795.00   44.90   316.50   9731.38     47.13     27.55     -39.17
  21    9826.00   48.80   316.30   9752.57     69.74     43.92     -54.76
  22    9858.00   52.80   316.30   9772.79     94.53     61.85     -71.89
  23    9890.00   56.20   316.50   9791.38    120.57     80.71     -89.85
  24    9922.00   58.70   316.50   9808.59    147.54    100.28    -108.42
  25    9954.00   61.30   316.50   9824.59    175.24    120.38    -127.49
  26    9986.00   64.50   315.60   9839.17    203.72    140.88    -147.26
  27   10018.00   67.40   314.90   9852.21    232.94    161.63    -167.83
  28   10050.00   70.50   313.80   9863.70    262.80    182.50    -189.19
  29   10082.00   74.00   313.50   9873.45    293.25    203.54    -211.24
  30   10114.00   76.90   314.20   9881.49    324.21    224.99    -233.57
  31   10146.00   79.60   314.40   9888.01    355.54    246.87    -255.99
  32   10178.00   82.70   314.50   9892.93    387.15    269.01    -278.56
  33   10209.00   86.30   314.20   9895.90    418.00    290.58    -300.62
  34   10241.00   89.00   314.20   9897.21    449.96    312.87    -323.54
  35   10336.00   91.00   314.50   9897.21    544.94    379.27    -391.47
  36   10432.00   94.80   315.10   9892.36    640.80    446.82    -459.49
  37   10527.00   95.50   314.20   9883.83    735.40    513.31    -526.80
  38   10624.00   92.40   314.00   9877.15    832.14    580.64    -596.29
  39   10719.00   93.40   314.20   9872.34    927.00    646.67    -664.42
  40   10813.00   92.90   315.20   9867.18   1020.85    712.69    -731.13
  41   10908.00   92.80   314.20   9862.45   1115.72    779.43    -798.57
  42   11004.00   92.30   312.90   9858.18   1211.58    845.50    -868.08
  43   11101.00   92.30   313.80   9854.29   1308.44    912.03    -938.56
  44   11196.00   92.60   313.50   9850.23   1403.32    977.55   -1007.24
  45   11292.00   91.60   313.50   9846.71   1499.20   1043.58   -1076.82
  46   11386.00   92.70   314.70   9843.18   1593.11   1108.95   -1144.28
  47   11482.00   93.10   313.30   9838.33   1688.96   1175.55   -1213.25
  48   11578.00   93.90   313.10   9832.47   1784.71   1241.15   -1283.10
  49   11674.00   94.00   311.70   9825.85   1880.36   1305.72   -1353.82
  50   11770.00   93.30   312.90   9819.74   1976.03   1370.20   -1424.68
  51   11865.00   93.30   314.70   9814.27   2070.83   1435.84   -1493.13
  52   11960.00   94.40   315.90   9807.89   2165.62   1503.21   -1559.80
  53   12056.00   94.80   316.60   9800.19   2261.29   1572.34   -1625.97
  54   12152.00   94.30   317.00   9792.58   2356.96   1642.10   -1691.48
  55   12248.00   92.50   317.00   9786.89   2452.75   1712.18   -1756.83
  56   12344.00   90.70   314.40   9784.21   2548.69   1780.85   -1823.84
  57   12439.00   92.10   316.50   9781.88   2643.66   1848.52   -1890.46
  58   12535.00   92.70   316.30   9777.86   2739.55   1917.98   -1956.61
  59   12631.00   92.20   314.90   9773.76   2835.46   1986.51   -2023.71
  60   12727.00   92.30   315.80   9769.99   2931.39   2054.75   -2091.13
  61   12822.00   90.70   317.00   9767.50   3026.33   2123.52   -2156.62
  62   12918.00   91.50   319.40   9765.66   3122.19   2195.07   -2220.59
  63   13014.00   90.70   318.70   9763.82   3217.96   2267.56   -2283.49
  64   13105.00   91.90   318.90   9761.75   3308.77   2336.01   -2343.42
  65   13200.00   90.70   316.80   9759.60   3403.65   2406.42   -2407.15
  66   13296.00   89.40   314.50   9759.52   3499.64   2475.06   -2474.25
  67   13392.00   88.50   314.20   9761.27   3595.61   2542.16   -2542.88
  68   13486.00   88.50   314.00   9763.74   3689.55   2607.55   -2610.37
  69   13582.00   89.30   313.80   9765.58   3785.51   2674.10   -2679.52
  70   13678.00   89.40   313.50   9766.67   3881.46   2740.36   -2748.98
  71   13774.00   90.00   313.10   9767.17   3977.40   2806.20   -2818.85
  72   13868.00   90.40   312.40   9766.84   4071.30   2870.01   -2887.87
  73   13960.00   91.30   312.60   9765.48   4163.18   2932.15   -2955.69
  74   14054.00   91.20   315.60   9763.43   4257.12   2997.55   -3023.17
  75   14148.00   92.40   318.20   9760.47   4351.03   3066.14   -3087.36
  76   14241.00   91.80   316.50   9757.06   4443.91   3134.49   -3150.33
  77   14334.00   91.70   315.90   9754.22   4536.85   3201.58   -3214.67

# MNEM   .UNIT    DATA   INFORMATION                                                               
#--------------------------------------------------------------------------------------------------
~Curve Information
 DEPTH   .FT             :Measured Depth                                                           
    MD   .FT             :Measured depth.                                                          
   TVD   .FT             :True vertical depth.                                                     
   ROP   .FT/HR          :Rate of penetration at bit depth.                                        
    GR   .API            :API corrected gamma counts from all gamma configurations at sensor depth.

#   DEPTH         MD       TVD       ROP         GR
#--------------------------------------------------
~ASCII Log
# ...
 10695.21   10695.21   9873.55    100.15      45.81
 10696.21   10696.21   9873.49    101.06      45.98
 10697.21   10697.21   9873.44     97.58      45.34
 10698.21   10698.21   9873.39     90.83      44.00
 10699.21   10699.21   9873.34     81.58      44.00
 10700.21   10700.21   9873.29     80.39      44.00
 10701.21   10701.21   9873.24     84.56      44.00
 10702.21   10702.21   9873.19     93.75      43.70
 10703.21   10703.21   9873.14     91.24      42.00
 10704.21   10704.21   9873.09     87.55      42.04
 10705.21   10705.21   9873.04     89.23      43.32
 10706.21   10706.21   9872.99     92.83      46.00
 10707.21   10707.21   9872.94     94.75      45.96
 10708.21   10708.21   9872.89     94.13      44.86
 10709.21   10709.21   9872.84     94.27      44.00
 10710.21   10710.21   9872.79     94.44      44.00
 10711.21   10711.21   9872.74     95.40      44.00
 10712.21   10712.21   9872.69     93.60      44.00
 10713.21   10713.21   9872.63     92.41      44.00
 10714.21   10714.21   9872.58     96.69      44.00
 10715.21   10715.21   9872.53     94.83      44.00
 10716.21   10716.21   9872.48     96.73      44.00
 10717.21   10717.21   9872.43     96.99      44.00
 10718.21   10718.21   9872.38     94.76      43.98
 10719.21   10719.21   9872.33     95.32      43.43
 10720.21   10720.21   9872.27     95.10      42.00
 10721.21   10721.21   9872.22     95.59      42.09
 10722.21   10722.21   9872.16     94.86      43.98
 10723.21   10723.21   9872.11     94.35      46.00
 10724.21   10724.21   9872.06     95.61      45.78
 10725.21   10725.21   9872.00     94.56      42.23
 10726.21   10726.21   9871.94     92.07      42.04
 10727.21   10727.21   9871.89     90.55      42.86
 10728.21   10728.21   9871.84     92.38      44.00
 10729.21   10729.21   9871.78     91.70      43.89
 10730.21   10730.21   9871.73     91.05      42.11
 10731.21   10731.21   9871.67     89.79      42.06
 10732.21   10732.21   9871.62     91.18      43.48
 10733.21   10733.21   9871.56     94.70      46.00
 10734.21   10734.21   9871.51     95.53      46.32
 10735.21   10735.21   9871.45     94.05      48.13
 10736.21   10736.21   9871.40     92.56      49.47
 10737.21   10737.21   9871.34     90.54      46.00
 10738.21   10738.21   9871.29     90.47      46.00
 10739.21   10739.21   9871.23     89.21      46.00
 10740.21   10740.21   9871.18     89.57      46.00
 10741.21   10741.21   9871.12     90.35      46.00
 10742.21   10742.21   9871.07     86.49      46.00
 10743.21   10743.21   9871.01     85.17      46.00
 10744.21   10744.21   9870.96     85.20      46.08
 10745.21   10745.21   9870.90     90.33      47.50
 10746.21   10746.21   9870.85     89.74      47.27
 10747.21   10747.21   9870.79     89.44      46.00
 10748.21   10748.21   9870.74     88.42      45.75
 10749.21   10749.21   9870.68     91.43      45.38
 10750.21   10750.21   9870.63     91.33      43.61
 10751.21   10751.21   9870.57     88.55      40.84
 10752.21   10752.21   9870.52     84.93      41.26
 10753.21   10753.21   9870.46     85.01      40.65
 10754.21   10754.21   9870.41     89.89      42.97
 10755.21   10755.21   9870.35     90.10      42.02
 10756.21   10756.21   9870.30     90.28      42.51
 10757.21   10757.21   9870.24     86.10      42.73
 10758.21   10758.21   9870.19     86.00      42.35
 10759.21   10759.21   9870.13     87.36      44.00
 10760.21   10760.21   9870.08     89.16      44.10
 10761.21   10761.21   9870.02     88.37      46.52
 10762.21   10762.21   9869.97     85.40      48.00
 10763.21   10763.21   9869.91     84.79      47.67
 10764.21   10764.21   9869.86     87.97      46.00
 10765.21   10765.21   9869.80     86.87      45.77
 10766.21   10766.21   9869.75     87.97      44.00
 10767.21   10767.21   9869.69     84.03      44.09
 10768.21   10768.21   9869.64     87.01      45.97
 10769.21   10769.21   9869.58     86.90      48.00
 10770.21   10770.21   9869.53     86.47      48.73
 10771.21   10771.21   9869.47     82.97      52.00
 10772.21   10772.21   9869.42     83.46      52.00
 10773.21   10773.21   9869.36     83.77      52.00
 10774.21   10774.21   9869.31     81.67      51.95
 10775.21   10775.21   9869.25     81.11      50.51
 10776.21   10776.21   9869.20     81.23      48.00
 10777.21   10777.21   9869.14     80.33      48.64
 10778.21   10778.21   9869.09     79.75      52.00
 10779.21   10779.21   9869.03     68.91      51.86
 10780.21   10780.21   9868.98     89.05      48.61
 10781.21   10781.21   9868.92     93.48      48.00
 10782.21   10782.21   9868.87     94.14      48.00
 10783.21   10783.21   9868.81     83.00      48.00
 10784.21   10784.21   9868.76     83.87      48.00
 10785.21   10785.21   9868.70     84.15      48.00
 10786.21   10786.21   9868.65     83.95      48.00
 10787.21   10787.21   9868.59     82.04      48.00
 10788.21   10788.21   9868.54     85.51      48.08
 10789.21   10789.21   9868.48     85.45      49.81
 10790.21   10790.21   9868.43    138.83      50.00
 10791.21   10791.21   9868.37    255.12      49.67
 10792.21   10792.21   9868.32     31.29      48.00
 10793.21   10793.21   9868.26     16.24      48.23
 10794.21   10794.21   9868.21     18.04      50.00
 10795.21   10795.21   9868.15     18.08      49.78
 10796.21   10796.21   9868.10     19.24      46.24
 10797.21   10797.21   9868.04     20.34      46.11
 10798.21   10798.21   9867.99     25.83      47.85
 10799.21   10799.21   9867.93     26.17      48.04
 10800.21   10800.21   9867.88     20.93      49.14
 10801.21   10801.21   9867.82     23.89      49.91
 10802.21   10802.21   9867.77     43.15      48.29
 10803.21   10803.21   9867.71     80.73      46.00
 10804.21   10804.21   9867.66     77.79      46.00
 10805.21   10805.21   9867.60     73.97      46.00
 10806.21   10806.21   9867.55     71.83      46.33
 10807.21   10807.21   9867.49     75.41      48.00
 10808.21   10808.21   9867.44     76.09      48.00
 10809.21   10809.21   9867.38     80.06      48.00
 10810.21   10810.21   9867.33     80.57      48.00
 10811.21   10811.21   9867.27     77.43      48.00
 10812.21   10812.21   9867.22     79.18      47.90
 10813.21   10813.21   9867.17     80.92      46.18
 10814.21   10814.21   9867.12     78.60      45.93
 10815.21   10815.21   9867.07     79.45      44.30
 10816.21   10816.21   9867.02     77.27      44.26
 10817.21   10817.21   9866.97     78.99      49.18
 10818.21   10818.21   9866.92     80.46      52.00
 10819.21   10819.21   9866.87     80.36      51.89
 10820.21   10820.21   9866.82     78.82      50.14
 10821.21   10821.21   9866.77     77.82      49.95
 10822.21   10822.21   9866.72     76.66      48.77
 10823.21   10823.21   9866.67     77.57      48.00
 10824.21   10824.21   9866.62     76.08      48.00
 10825.21   10825.21   9866.57     76.19      48.04
 10826.21   10826.21   9866.52     74.29      49.13
 10827.21   10827.21   9866.47     75.86      49.92
 10828.21   10828.21   9866.42     76.72      48.54
 10829.21   10829.21   9866.37     74.79      48.71
 10830.21   10830.21   9866.32     73.42      49.85
 10831.21   10831.21   9866.27     70.63      50.00
 10832.21   10832.21   9866.22     69.26      50.00
 10833.21   10833.21   9866.17     68.26      49.89
 10834.21   10834.21   9866.12     70.28      48.15
 10835.21   10835.21   9866.07     66.24      48.00
 10836.21   10836.21   9866.02     68.93      48.00
 10837.21   10837.21   9865.97     68.14      48.00
 10838.21   10838.21   9865.92     69.56      48.00
 10839.21   10839.21   9865.87     69.26      48.00
 10840.21   10840.21   9865.82     67.79      47.65
 10841.21   10841.21   9865.77     68.92      46.00
 10842.21   10842.21   9865.72     72.14      46.31
 10843.21   10843.21   9865.67     71.85      48.00
 10844.21   10844.21   9865.62     71.34      48.00
 10845.21   10845.21   9865.57     71.01      48.00
 10846.21   10846.21   9865.52     70.67      48.10
 10847.21   10847.21   9865.48     71.27      49.82
 10848.21   10848.21   9865.43     72.98      50.00
