###########################################
# File generated by DigiDrill LAS Builder #
###########################################
~Version Information
VERS.   2.0   :LAS Version 2.0        
WRAP.    NO   :One line per depth step

#MNEM   .UNIT                 DATA   INFORMATION       
#------------------------------------------------------
~Well Information
 STRT   .FT                9001.21   :Start Depth      
 STOP   .FT               14403.00   :Stop Depth       
 STEP   .FT                   1.00   :Step Value       
 NULL   .                 -9999.00   :NULL Value       
 DATE   .                7/26/2010   :Date             
 SRVC   .                Drake MWD   :Service Company  
 COMP   .              El Paso E&P   :Operating Company
 WELL   .                Hixon #5H   :Well             
  FLD   .       EGFD Shale TXSZ'27   :Field            
  LOC   .                  Cotulla   :Location         
 CNTY   .                  LaSalle   :County           
 STAT   .                       TX   :State            
 CTRY   .                      USA   :Country          
  UWI   .               4228332299   :UWI Number       
  API   .               4228332299   :API Number       

#SURVEYS:
#SVY      DEPTH    INCL      AZM       TVD        VS      N/-S       E/-W
#------------------------------------------------------------------------
~Other Information
   0    8857.00    2.38   147.94   8847.00   -205.32   -150.52     139.80
   1    8937.00    4.40   278.70   8926.93   -204.48   -151.46     137.65
   2    8969.00    9.40   291.50   8958.69   -201.11   -150.32     134.00
   3    9001.00   12.30   297.30   8990.11   -195.47   -147.80     128.54
   4    9097.00   11.90   308.20   9083.99   -175.92   -136.99     111.67
   5    9192.00   10.40   317.30   9177.20   -157.63   -124.63      98.16
   6    9288.00    9.50   313.80   9271.76   -141.05   -112.77      86.56
   7    9380.00    8.60   311.90   9362.61   -126.60   -102.93      75.96
   8    9413.00    8.90   311.90   9395.23   -121.59    -99.57      72.23
   9    9444.00   11.60   314.20   9425.73   -116.07    -95.80      68.21
  10    9476.00   14.80   317.30   9456.88   -108.77    -90.55      63.13
  11    9508.00   18.20   319.60   9487.56    -99.70    -83.74      57.11
  12    9540.00   21.60   319.10   9517.64    -88.84    -75.48      50.02
  13    9571.00   25.00   318.20   9546.11    -76.60    -66.28      41.91
  14    9603.00   27.60   318.40   9574.80    -62.44    -55.69      32.48
  15    9635.00   29.60   319.30   9602.89    -47.15    -44.16      22.41
  16    9667.00   32.00   320.70   9630.38    -30.82    -31.60      11.88
  17    9699.00   34.20   320.90   9657.18    -13.43    -18.06       0.84
  18    9731.00   37.20   320.20   9683.17      5.16     -3.65     -11.03
  19    9763.00   41.10   317.70   9707.98     25.32     11.57     -24.31
  20    9795.00   44.90   316.50   9731.38     47.13     27.55     -39.17
  21    9826.00   48.80   316.30   9752.57     69.74     43.92     -54.76
  22    9858.00   52.80   316.30   9772.79     94.53     61.85     -71.89
  23    9890.00   56.20   316.50   9791.38    120.57     80.71     -89.85
  24    9922.00   58.70   316.50   9808.59    147.54    100.28    -108.42
  25    9954.00   61.30   316.50   9824.59    175.24    120.38    -127.49
  26    9986.00   64.50   315.60   9839.17    203.72    140.88    -147.26
  27   10018.00   67.40   314.90   9852.21    232.94    161.63    -167.83
  28   10050.00   70.50   313.80   9863.70    262.80    182.50    -189.19
  29   10082.00   74.00   313.50   9873.45    293.25    203.54    -211.24
  30   10114.00   76.90   314.20   9881.49    324.21    224.99    -233.57
  31   10146.00   79.60   314.40   9888.01    355.54    246.87    -255.99
  32   10178.00   82.70   314.50   9892.93    387.15    269.01    -278.56
  33   10209.00   86.30   314.20   9895.90    418.00    290.58    -300.62
  34   10241.00   89.00   314.20   9897.21    449.96    312.87    -323.54
  35   10336.00   91.00   314.50   9897.21    544.94    379.27    -391.47
  36   10432.00   94.80   315.10   9892.36    640.80    446.82    -459.49
  37   10527.00   95.50   314.20   9883.83    735.40    513.31    -526.80
  38   10624.00   92.40   314.00   9877.15    832.14    580.64    -596.29
  39   10719.00   93.40   314.20   9872.34    927.00    646.67    -664.42
  40   10813.00   92.90   315.20   9867.18   1020.85    712.69    -731.13
  41   10908.00   92.80   314.20   9862.45   1115.72    779.43    -798.57
  42   11004.00   92.30   312.90   9858.18   1211.58    845.50    -868.08
  43   11101.00   92.30   313.80   9854.29   1308.44    912.03    -938.56
  44   11196.00   92.60   313.50   9850.23   1403.32    977.55   -1007.24
  45   11292.00   91.60   313.50   9846.71   1499.20   1043.58   -1076.82
  46   11386.00   92.70   314.70   9843.18   1593.11   1108.95   -1144.28
  47   11482.00   93.10   313.30   9838.33   1688.96   1175.55   -1213.25
  48   11578.00   93.90   313.10   9832.47   1784.71   1241.15   -1283.10
  49   11674.00   94.00   311.70   9825.85   1880.36   1305.72   -1353.82
  50   11770.00   93.30   312.90   9819.74   1976.03   1370.20   -1424.68
  51   11865.00   93.30   314.70   9814.27   2070.83   1435.84   -1493.13
  52   11960.00   94.40   315.90   9807.89   2165.62   1503.21   -1559.80
  53   12056.00   94.80   316.60   9800.19   2261.29   1572.34   -1625.97
  54   12152.00   94.30   317.00   9792.58   2356.96   1642.10   -1691.48
  55   12248.00   92.50   317.00   9786.89   2452.75   1712.18   -1756.83
  56   12344.00   90.70   314.40   9784.21   2548.69   1780.85   -1823.84
  57   12439.00   92.10   316.50   9781.88   2643.66   1848.52   -1890.46
  58   12535.00   92.70   316.30   9777.86   2739.55   1917.98   -1956.61
  59   12631.00   92.20   314.90   9773.76   2835.46   1986.51   -2023.71
  60   12727.00   92.30   315.80   9769.99   2931.39   2054.75   -2091.13
  61   12822.00   90.70   317.00   9767.50   3026.33   2123.52   -2156.62
  62   12918.00   91.50   319.40   9765.66   3122.19   2195.07   -2220.59
  63   13014.00   90.70   318.70   9763.82   3217.96   2267.56   -2283.49
  64   13105.00   91.90   318.90   9761.75   3308.77   2336.01   -2343.42
  65   13200.00   90.70   316.80   9759.60   3403.65   2406.42   -2407.15
  66   13296.00   89.40   314.50   9759.52   3499.64   2475.06   -2474.25
  67   13392.00   88.50   314.20   9761.27   3595.61   2542.16   -2542.88
  68   13486.00   88.50   314.00   9763.74   3689.55   2607.55   -2610.37
  69   13582.00   89.30   313.80   9765.58   3785.51   2674.10   -2679.52
  70   13678.00   89.40   313.50   9766.67   3881.46   2740.36   -2748.98
  71   13774.00   90.00   313.10   9767.17   3977.40   2806.20   -2818.85
  72   13868.00   90.40   312.40   9766.84   4071.30   2870.01   -2887.87
  73   13960.00   91.30   312.60   9765.48   4163.18   2932.15   -2955.69
  74   14054.00   91.20   315.60   9763.43   4257.12   2997.55   -3023.17
  75   14148.00   92.40   318.20   9760.47   4351.03   3066.14   -3087.36
  76   14241.00   91.80   316.50   9757.06   4443.91   3134.49   -3150.33
  77   14334.00   91.70   315.90   9754.22   4536.85   3201.58   -3214.67

# MNEM   .UNIT    DATA   INFORMATION                                                               
#--------------------------------------------------------------------------------------------------
~Curve Information
 DEPTH   .FT             :Measured Depth                                                           
    MD   .FT             :Measured depth.                                                          
   TVD   .FT             :True vertical depth.                                                     
   ROP   .FT/HR          :Rate of penetration at bit depth.                                        
    GR   .API            :API corrected gamma counts from all gamma configurations at sensor depth.

#   DEPTH         MD       TVD       ROP         GR
#--------------------------------------------------
~ASCII Log
# ...
 13929.21   13929.21   9765.93    127.60      55.00
 13930.21   13930.21   9765.92     79.52      49.00
 13931.21   13931.21   9765.90     76.16      49.73
 13932.21   13932.21   9765.89     67.66      51.00
 13933.21   13933.21   9765.87     68.72      49.44
 13934.21   13934.21   9765.86     68.45      49.00
 13935.21   13935.21   9765.84     68.22      50.69
 13936.21   13936.21   9765.83     69.06      51.00
 13937.21   13937.21   9765.81     68.51      51.00
 13938.21   13938.21   9765.80     66.65      51.00
 13939.21   13939.21   9765.79     68.37      50.20
 13940.21   13940.21   9765.77     68.13      49.00
 13941.21   13941.21   9765.76     67.28      49.00
 13942.21   13942.21   9765.74     63.09      49.00
 13943.21   13943.21   9765.73     60.74      46.44
 13944.21   13944.21   9765.71     64.45      46.00
 13945.21   13945.21   9765.70     66.43      46.83
 13946.21   13946.21   9765.68     62.85      47.00
 13947.21   13947.21   9765.67     58.56      46.51
 13948.21   13948.21   9765.65     58.03      46.00
 13949.21   13949.21   9765.64     57.28      46.38
 13950.21   13950.21   9765.62     57.65      47.00
 13951.21   13951.21   9765.61     59.87      47.00
 13952.21   13952.21   9765.59     61.96      46.00
 13953.21   13953.21   9765.58     61.12      46.00
 13954.21   13954.21   9765.56     62.74      46.62
 13955.21   13955.21   9765.55     63.26      47.00
 13956.21   13956.21   9765.53     62.72      46.50
 13957.21   13957.21   9765.52     62.73      46.00
 13958.21   13958.21   9765.50     63.12      46.47
 13959.21   13959.21   9765.49     62.78      49.00
 13960.21   13960.21   9765.47     67.75      49.00
 13961.21   13961.21   9765.45     69.67      46.00
 13962.21   13962.21   9765.43     68.47      46.00
 13963.21   13963.21   9765.41     69.17      47.87
 13964.21   13964.21   9765.39     67.55      51.00
 13965.21   13965.21   9765.36     61.52      51.00
 13966.21   13966.21   9765.34     65.66      49.05
 13967.21   13967.21   9765.32     66.47      47.00
 13968.21   13968.21   9765.30     64.56      47.60
 13969.21   13969.21   9765.28     63.33      51.00
 13970.21   13970.21   9765.25     61.63      51.00
 13971.21   13971.21   9765.23     63.22      47.57
 13972.21   13972.21   9765.21     60.67      47.00
 13973.21   13973.21   9765.19     59.01      47.00
 13974.21   13974.21   9765.17     57.83      47.00
 13975.21   13975.21   9765.15     59.89      48.56
 13976.21   13976.21   9765.12     61.16      49.00
 13977.21   13977.21   9765.10     61.77      47.00
 13978.21   13978.21   9765.08     60.87      47.00
 13979.21   13979.21   9765.06     59.26      47.00
 13980.21   13980.21   9765.04     57.58      47.00
 13981.21   13981.21   9765.01     61.77      46.16
 13982.21   13982.21   9764.99     59.04      46.00
 13983.21   13983.21   9764.97     61.36      46.00
 13984.21   13984.21   9764.95     64.18      46.00
 13985.21   13985.21   9764.93     62.62      47.92
 13986.21   13986.21   9764.90     62.09      49.00
 13987.21   13987.21   9764.88     70.36      47.00
 13988.21   13988.21   9764.86     70.17      46.79
 13989.21   13989.21   9764.84     71.07      46.00
 13990.21   13990.21   9764.82     70.83      47.00
 13991.21   13991.21   9764.80     73.49      47.00
 13992.21   13992.21   9764.77     75.18      48.28
 13993.21   13993.21   9764.75     76.74      49.00
 13994.21   13994.21   9764.73     78.62      48.07
 13995.21   13995.21   9764.71     77.57      48.57
 13996.21   13996.21   9764.69     78.80      49.52
 13997.21   13997.21   9764.67     73.88      49.00
 13998.21   13998.21   9764.64     74.25      50.40
 13999.21   13999.21   9764.62     77.01      49.28
 14000.21   14000.21   9764.60     77.40      51.00
 14001.21   14001.21   9764.58     75.85      48.55
 14002.21   14002.21   9764.56     77.69      51.64
 14003.21   14003.21   9764.53     76.89      50.67
 14004.21   14004.21   9764.51     78.66      50.89
 14005.21   14005.21   9764.49     78.49      50.01
 14006.21   14006.21   9764.47     74.64      50.95
 14007.21   14007.21   9764.45     76.69      51.45
 14008.21   14008.21   9764.43     74.73      51.33
 14009.21   14009.21   9764.40     74.84      49.17
 14010.21   14010.21   9764.38     75.56      48.01
 14011.21   14011.21   9764.36     75.79      49.46
 14012.21   14012.21   9764.34     73.57      50.25
 14013.21   14013.21   9764.32     75.39      47.77
 14014.21   14014.21   9764.29     73.26      51.82
 14015.21   14015.21   9764.27     71.48      51.00
 14016.21   14016.21   9764.25     74.69      50.32
 14017.21   14017.21   9764.23     71.43      52.58
 14018.21   14018.21   9764.21     69.18      53.00
 14019.21   14019.21   9764.19     67.39      53.00
 14020.21   14020.21   9764.16     31.22      53.00
 14021.21   14021.21   9764.14     65.98      53.00
 14022.21   14022.21   9764.12     70.13      53.00
 14023.21   14023.21   9764.10     71.12      53.00
 14024.21   14024.21   9764.08     71.70      53.00
 14025.21   14025.21   9764.05     80.55      53.00
 14026.21   14026.21   9764.03     64.00      53.64
 14027.21   14027.21   9764.01     60.85      56.00
 14028.21   14028.21   9763.99     60.40      54.32
 14029.21   14029.21   9763.97     57.56      51.00
 14030.21   14030.21   9763.95     57.90      51.81
 14031.21   14031.21   9763.92     57.61      53.00
 14032.21   14032.21   9763.90     59.62      54.22
 14033.21   14033.21   9763.88     43.93      54.72
 14034.21   14034.21   9763.86    369.07      53.00
 14035.21   14035.21   9763.84    218.09      53.00
 14036.21   14036.21   9763.81     24.26      53.00
 14037.21   14037.21   9763.79      9.60      53.00
 14038.21   14038.21   9763.77      7.47      52.33
 14039.21   14039.21   9763.75     10.56      51.00
 14040.21   14040.21   9763.73      9.75      51.00
 14041.21   14041.21   9763.71     11.69      51.00
 14042.21   14042.21   9763.68      8.73      49.00
 14043.21   14043.21   9763.66      8.42      49.00
 14044.21   14044.21   9763.64     10.59      51.00
 14045.21   14045.21   9763.62      9.24      50.66
 14046.21   14046.21   9763.60     11.28      49.00
 14047.21   14047.21   9763.57     10.30      49.00
 14048.21   14048.21   9763.55     10.41      49.00
 14049.21   14049.21   9763.53      8.53      49.00
 14050.21   14050.21   9763.51      4.03      47.28
 14051.21   14051.21   9763.49     21.17      46.84
 14052.21   14052.21   9763.47     11.28      46.00
 14053.21   14053.21   9763.44      9.70      45.32
 14054.21   14054.21   9763.42     12.68      44.00
 14055.21   14055.21   9763.39     10.47      44.00
 14056.21   14056.21   9763.36     18.92      44.48
 14057.21   14057.21   9763.32     15.78      47.00
 14058.21   14058.21   9763.29     16.05      46.00
 14059.21   14059.21   9763.26     13.96      46.00
 14060.21   14060.21   9763.23     14.09      46.00
 14061.21   14061.21   9763.20     49.41      46.00
 14062.21   14062.21   9763.17     65.87      46.84
 14063.21   14063.21   9763.14     63.96      47.00
 14064.21   14064.21   9763.11     68.20      44.00
 14065.21   14065.21   9763.07     76.46      46.01
 14066.21   14066.21   9763.04     77.03      49.00
 14067.21   14067.21   9763.01     79.19      53.00
 14068.21   14068.21   9762.98     76.35      48.06
 14069.21   14069.21   9762.95     70.00      46.79
 14070.21   14070.21   9762.92     67.05      46.00
 14071.21   14071.21   9762.89     71.20      47.00
 14072.21   14072.21   9762.85     69.26      47.00
 14073.21   14073.21   9762.82     59.70      49.00
 14074.21   14074.21   9762.79     57.59      47.44
 14075.21   14075.21   9762.76     56.07      47.34
 14076.21   14076.21   9762.73     53.65      49.00
 14077.21   14077.21   9762.70     54.93      47.78
 14078.21   14078.21   9762.67     53.54      47.00
 14079.21   14079.21   9762.63     53.48      47.98
 14080.21   14080.21   9762.60     51.14      49.00
 14081.21   14081.21   9762.57     51.30      48.68
 14082.21   14082.21   9762.54     53.49      47.00
