###########################################
# File generated by DigiDrill LAS Builder #
###########################################
~Version Information
VERS.   2.0   :LAS Version 2.0        
WRAP.    NO   :One line per depth step

#MNEM   .UNIT                 DATA   INFORMATION       
#------------------------------------------------------
~Well Information
 STRT   .FT                9001.21   :Start Depth      
 STOP   .FT               14403.00   :Stop Depth       
 STEP   .FT                   1.00   :Step Value       
 NULL   .                 -9999.00   :NULL Value       
 DATE   .                7/26/2010   :Date             
 SRVC   .                Drake MWD   :Service Company  
 COMP   .              El Paso E&P   :Operating Company
 WELL   .                Hixon #5H   :Well             
  FLD   .       EGFD Shale TXSZ'27   :Field            
  LOC   .                  Cotulla   :Location         
 CNTY   .                  LaSalle   :County           
 STAT   .                       TX   :State            
 CTRY   .                      USA   :Country          
  UWI   .               4228332299   :UWI Number       
  API   .               4228332299   :API Number       

#SURVEYS:
#SVY      DEPTH    INCL      AZM       TVD        VS      N/-S       E/-W
#------------------------------------------------------------------------
~Other Information
   0    8857.00    2.38   147.94   8847.00   -205.32   -150.52     139.80
   1    8937.00    4.40   278.70   8926.93   -204.48   -151.46     137.65
   2    8969.00    9.40   291.50   8958.69   -201.11   -150.32     134.00
   3    9001.00   12.30   297.30   8990.11   -195.47   -147.80     128.54
   4    9097.00   11.90   308.20   9083.99   -175.92   -136.99     111.67
   5    9192.00   10.40   317.30   9177.20   -157.63   -124.63      98.16
   6    9288.00    9.50   313.80   9271.76   -141.05   -112.77      86.56
   7    9380.00    8.60   311.90   9362.61   -126.60   -102.93      75.96
   8    9413.00    8.90   311.90   9395.23   -121.59    -99.57      72.23
   9    9444.00   11.60   314.20   9425.73   -116.07    -95.80      68.21
  10    9476.00   14.80   317.30   9456.88   -108.77    -90.55      63.13
  11    9508.00   18.20   319.60   9487.56    -99.70    -83.74      57.11
  12    9540.00   21.60   319.10   9517.64    -88.84    -75.48      50.02
  13    9571.00   25.00   318.20   9546.11    -76.60    -66.28      41.91
  14    9603.00   27.60   318.40   9574.80    -62.44    -55.69      32.48
  15    9635.00   29.60   319.30   9602.89    -47.15    -44.16      22.41
  16    9667.00   32.00   320.70   9630.38    -30.82    -31.60      11.88
  17    9699.00   34.20   320.90   9657.18    -13.43    -18.06       0.84
  18    9731.00   37.20   320.20   9683.17      5.16     -3.65     -11.03
  19    9763.00   41.10   317.70   9707.98     25.32     11.57     -24.31
  20    9795.00   44.90   316.50   9731.38     47.13     27.55     -39.17
  21    9826.00   48.80   316.30   9752.57     69.74     43.92     -54.76
  22    9858.00   52.80   316.30   9772.79     94.53     61.85     -71.89
  23    9890.00   56.20   316.50   9791.38    120.57     80.71     -89.85
  24    9922.00   58.70   316.50   9808.59    147.54    100.28    -108.42
  25    9954.00   61.30   316.50   9824.59    175.24    120.38    -127.49
  26    9986.00   64.50   315.60   9839.17    203.72    140.88    -147.26
  27   10018.00   67.40   314.90   9852.21    232.94    161.63    -167.83
  28   10050.00   70.50   313.80   9863.70    262.80    182.50    -189.19
  29   10082.00   74.00   313.50   9873.45    293.25    203.54    -211.24
  30   10114.00   76.90   314.20   9881.49    324.21    224.99    -233.57
  31   10146.00   79.60   314.40   9888.01    355.54    246.87    -255.99
  32   10178.00   82.70   314.50   9892.93    387.15    269.01    -278.56
  33   10209.00   86.30   314.20   9895.90    418.00    290.58    -300.62
  34   10241.00   89.00   314.20   9897.21    449.96    312.87    -323.54
  35   10336.00   91.00   314.50   9897.21    544.94    379.27    -391.47
  36   10432.00   94.80   315.10   9892.36    640.80    446.82    -459.49
  37   10527.00   95.50   314.20   9883.83    735.40    513.31    -526.80
  38   10624.00   92.40   314.00   9877.15    832.14    580.64    -596.29
  39   10719.00   93.40   314.20   9872.34    927.00    646.67    -664.42
  40   10813.00   92.90   315.20   9867.18   1020.85    712.69    -731.13
  41   10908.00   92.80   314.20   9862.45   1115.72    779.43    -798.57
  42   11004.00   92.30   312.90   9858.18   1211.58    845.50    -868.08
  43   11101.00   92.30   313.80   9854.29   1308.44    912.03    -938.56
  44   11196.00   92.60   313.50   9850.23   1403.32    977.55   -1007.24
  45   11292.00   91.60   313.50   9846.71   1499.20   1043.58   -1076.82
  46   11386.00   92.70   314.70   9843.18   1593.11   1108.95   -1144.28
  47   11482.00   93.10   313.30   9838.33   1688.96   1175.55   -1213.25
  48   11578.00   93.90   313.10   9832.47   1784.71   1241.15   -1283.10
  49   11674.00   94.00   311.70   9825.85   1880.36   1305.72   -1353.82
  50   11770.00   93.30   312.90   9819.74   1976.03   1370.20   -1424.68
  51   11865.00   93.30   314.70   9814.27   2070.83   1435.84   -1493.13
  52   11960.00   94.40   315.90   9807.89   2165.62   1503.21   -1559.80
  53   12056.00   94.80   316.60   9800.19   2261.29   1572.34   -1625.97
  54   12152.00   94.30   317.00   9792.58   2356.96   1642.10   -1691.48
  55   12248.00   92.50   317.00   9786.89   2452.75   1712.18   -1756.83
  56   12344.00   90.70   314.40   9784.21   2548.69   1780.85   -1823.84
  57   12439.00   92.10   316.50   9781.88   2643.66   1848.52   -1890.46
  58   12535.00   92.70   316.30   9777.86   2739.55   1917.98   -1956.61
  59   12631.00   92.20   314.90   9773.76   2835.46   1986.51   -2023.71
  60   12727.00   92.30   315.80   9769.99   2931.39   2054.75   -2091.13
  61   12822.00   90.70   317.00   9767.50   3026.33   2123.52   -2156.62
  62   12918.00   91.50   319.40   9765.66   3122.19   2195.07   -2220.59
  63   13014.00   90.70   318.70   9763.82   3217.96   2267.56   -2283.49
  64   13105.00   91.90   318.90   9761.75   3308.77   2336.01   -2343.42
  65   13200.00   90.70   316.80   9759.60   3403.65   2406.42   -2407.15
  66   13296.00   89.40   314.50   9759.52   3499.64   2475.06   -2474.25
  67   13392.00   88.50   314.20   9761.27   3595.61   2542.16   -2542.88
  68   13486.00   88.50   314.00   9763.74   3689.55   2607.55   -2610.37
  69   13582.00   89.30   313.80   9765.58   3785.51   2674.10   -2679.52
  70   13678.00   89.40   313.50   9766.67   3881.46   2740.36   -2748.98
  71   13774.00   90.00   313.10   9767.17   3977.40   2806.20   -2818.85
  72   13868.00   90.40   312.40   9766.84   4071.30   2870.01   -2887.87
  73   13960.00   91.30   312.60   9765.48   4163.18   2932.15   -2955.69
  74   14054.00   91.20   315.60   9763.43   4257.12   2997.55   -3023.17
  75   14148.00   92.40   318.20   9760.47   4351.03   3066.14   -3087.36
  76   14241.00   91.80   316.50   9757.06   4443.91   3134.49   -3150.33
  77   14334.00   91.70   315.90   9754.22   4536.85   3201.58   -3214.67

# MNEM   .UNIT    DATA   INFORMATION                                                               
#--------------------------------------------------------------------------------------------------
~Curve Information
 DEPTH   .FT             :Measured Depth                                                           
    MD   .FT             :Measured depth.                                                          
   TVD   .FT             :True vertical depth.                                                     
   ROP   .FT/HR          :Rate of penetration at bit depth.                                        
    GR   .API            :API corrected gamma counts from all gamma configurations at sensor depth.

#   DEPTH         MD       TVD       ROP         GR
#--------------------------------------------------
~ASCII Log
# ...
 11157.21   11157.21   9851.89     76.44      50.00
 11158.21   11158.21   9851.84     77.64      50.00
 11159.21   11159.21   9851.80     81.47      49.81
 11160.21   11160.21   9851.76     71.95      48.18
 11161.21   11161.21   9851.72     59.27      50.00
 11162.21   11162.21   9851.67    106.49      48.29
 11163.21   11163.21   9851.63     96.59      47.38
 11164.21   11164.21   9851.59     89.09      48.35
 11165.21   11165.21   9851.54     80.48      48.36
 11166.21   11166.21   9851.50     81.72      48.00
 11167.21   11167.21   9851.46     85.19      48.00
 11168.21   11168.21   9851.42     89.50      48.00
 11169.21   11169.21   9851.37     89.78      47.05
 11170.21   11170.21   9851.33     90.43      48.20
 11171.21   11171.21   9851.29     89.02      49.50
 11172.21   11172.21   9851.24     93.02      48.93
 11173.21   11173.21   9851.20     94.05      48.65
 11174.21   11174.21   9851.16     93.96      47.91
 11175.21   11175.21   9851.12     93.66      48.21
 11176.21   11176.21   9851.07     96.09      47.99
 11177.21   11177.21   9851.03     92.22      44.00
 11178.21   11178.21   9850.99     93.71      44.48
 11179.21   11179.21   9850.95     89.83      46.00
 11180.21   11180.21   9850.90     90.99      46.00
 11181.21   11181.21   9850.86     91.98      46.00
 11182.21   11182.21   9850.82     94.01      46.67
 11183.21   11183.21   9850.77     91.28      48.00
 11184.21   11184.21   9850.73     93.88      47.01
 11185.21   11185.21   9850.69     93.31      46.00
 11186.21   11186.21   9850.65     96.27      44.00
 11187.21   11187.21   9850.60     95.63      44.35
 11188.21   11188.21   9850.56     94.88      46.00
 11189.21   11189.21   9850.52     97.71      46.00
 11190.21   11190.21   9850.48     97.08      46.00
 11191.21   11191.21   9850.43     65.58      46.00
 11192.21   11192.21   9850.39     57.67      48.00
 11193.21   11193.21   9850.35     55.94      48.00
 11194.21   11194.21   9850.30     52.59      50.00
 11195.21   11195.21   9850.26     52.66      50.00
 11196.21   11196.21   9850.22     55.00      46.00
 11197.21   11197.21   9850.18     56.67      46.00
 11198.21   11198.21   9850.15     59.94      49.29
 11199.21   11199.21   9850.11     58.48      50.00
 11200.21   11200.21   9850.07     52.67      51.37
 11201.21   11201.21   9850.04     45.31      52.00
 11202.21   11202.21   9850.00     45.66      47.02
 11203.21   11203.21   9849.96     44.86      46.00
 11204.21   11204.21   9849.93     49.76      44.67
 11205.21   11205.21   9849.89     54.08      42.00
 11206.21   11206.21   9849.85     51.04      44.00
 11207.21   11207.21   9849.82     46.30      48.00
 11208.21   11208.21   9849.78     38.66      47.71
 11209.21   11209.21   9849.74     37.58      46.00
 11210.21   11210.21   9849.71     37.34      46.00
 11211.21   11211.21   9849.67     39.15      46.00
 11212.21   11212.21   9849.63     32.09      46.95
 11213.21   11213.21   9849.60     41.71      50.00
 11214.21   11214.21   9849.56     42.63      50.00
 11215.21   11215.21   9849.52     44.68      50.00
 11216.21   11216.21   9849.49     45.76      50.00
 11217.21   11217.21   9849.45     45.27      50.00
 11218.21   11218.21   9849.41     44.06      48.35
 11219.21   11219.21   9849.38     54.28      48.00
 11220.21   11220.21   9849.34     53.76      47.33
 11221.21   11221.21   9849.30     57.86      46.00
 11222.21   11222.21   9849.27     59.82      47.33
 11223.21   11223.21   9849.23     59.99      50.00
 11224.21   11224.21   9849.19     58.70      47.17
 11225.21   11225.21   9849.16     58.50      46.49
 11226.21   11226.21   9849.12     62.29      48.33
 11227.21   11227.21   9849.08     64.19      48.36
 11228.21   11228.21   9849.05     66.06      47.73
 11229.21   11229.21   9849.01     65.63      48.00
 11230.21   11230.21   9848.97     64.46      46.53
 11231.21   11231.21   9848.94     57.35      47.80
 11232.21   11232.21   9848.90     59.23      49.33
 11233.21   11233.21   9848.86     55.47      47.00
 11234.21   11234.21   9848.83     55.13      45.33
 11235.21   11235.21   9848.79     53.92      45.40
 11236.21   11236.21   9848.75     57.12      46.36
 11237.21   11237.21   9848.72     59.60      45.89
 11238.21   11238.21   9848.68     63.09      45.60
 11239.21   11239.21   9848.65     65.30      48.00
 11240.21   11240.21   9848.61     67.14      48.00
 11241.21   11241.21   9848.57     66.49      47.64
 11242.21   11242.21   9848.53     66.75      46.00
 11243.21   11243.21   9848.50     68.30      46.00
 11244.21   11244.21   9848.46     69.41      46.67
 11245.21   11245.21   9848.43     70.44      48.67
 11246.21   11246.21   9848.39     71.50      47.51
 11247.21   11247.21   9848.35     70.16      46.00
 11248.21   11248.21   9848.31     67.68      46.00
 11249.21   11249.21   9848.28     69.39      46.00
 11250.21   11250.21   9848.24     73.32      46.00
 11251.21   11251.21   9848.20     72.96      46.69
 11252.21   11252.21   9848.17     70.35      50.00
 11253.21   11253.21   9848.13     70.55      50.00
 11254.21   11254.21   9848.10     71.88      50.00
 11255.21   11255.21   9848.06     71.51      50.00
 11256.21   11256.21   9848.02     43.63      48.00
 11257.21   11257.21   9847.98     66.21      48.00
 11258.21   11258.21   9847.95     67.33      46.00
 11259.21   11259.21   9847.91     68.39      46.00
 11260.21   11260.21   9847.88     72.86      46.00
 11261.21   11261.21   9847.84     70.37      46.00
 11262.21   11262.21   9847.80     70.73      46.00
 11263.21   11263.21   9847.77     68.30      46.00
 11264.21   11264.21   9847.73     73.31      46.31
 11265.21   11265.21   9847.69     69.39      48.00
 11266.21   11266.21   9847.66     66.86      48.00
 11267.21   11267.21   9847.62     54.81      48.00
 11268.21   11268.21   9847.58     51.29      48.00
 11269.21   11269.21   9847.55     10.83      48.00
 11270.21   11270.21   9847.51     11.59      47.66
 11271.21   11271.21   9847.47     11.65      46.00
 11272.21   11272.21   9847.44     14.98      46.00
 11273.21   11273.21   9847.40     17.55      46.67
 11274.21   11274.21   9847.36      6.03      48.00
 11275.21   11275.21   9847.33      6.73      48.00
 11276.21   11276.21   9847.29      9.83      48.00
 11277.21   11277.21   9847.25     12.40      46.65
 11278.21   11278.21   9847.22     18.12      46.00
 11279.21   11279.21   9847.18     15.56      49.32
 11280.21   11280.21   9847.14     19.67      50.00
 11281.21   11281.21   9847.11     26.61      50.00
 11282.21   11282.21   9847.07     32.62      50.00
 11283.21   11283.21   9847.03     31.21      48.76
 11284.21   11284.21   9847.00     26.34      48.00
 11285.21   11285.21   9846.96     27.15      48.99
 11286.21   11286.21   9846.92     28.19      50.00
 11287.21   11287.21   9846.89     34.60      48.00
 11288.21   11288.21   9846.85     35.14      50.00
 11289.21   11289.21   9846.81     25.96      46.98
 11290.21   11290.21   9846.78     54.70      46.00
 11291.21   11291.21   9846.74     79.11      47.37
 11292.21   11292.21   9846.70     70.04      48.00
 11293.21   11293.21   9846.67     67.93      50.00
 11294.21   11294.21   9846.63     70.51      48.00
 11295.21   11295.21   9846.59     69.25      46.00
 11296.21   11296.21   9846.55     71.32      48.00
 11297.21   11297.21   9846.52     73.76      50.00
 11298.21   11298.21   9846.48     69.47      48.00
 11299.21   11299.21   9846.44     65.72      48.00
 11300.21   11300.21   9846.40     67.21      46.00
 11301.21   11301.21   9846.36     66.93      48.00
 11302.21   11302.21   9846.33     69.98      50.00
 11303.21   11303.21   9846.29     68.12      48.35
 11304.21   11304.21   9846.25     67.97      48.00
 11305.21   11305.21   9846.22     67.87      46.00
 11306.21   11306.21   9846.18     67.74      48.00
 11307.21   11307.21   9846.14     68.24      48.00
 11308.21   11308.21   9846.10     69.36      50.00
 11309.21   11309.21   9846.06     69.43      48.00
 11310.21   11310.21   9846.03     69.49      48.00
