###########################################
# File generated by DigiDrill LAS Builder #
###########################################
~Version Information
VERS.   2.0   :LAS Version 2.0        
WRAP.    NO   :One line per depth step

#MNEM   .UNIT                 DATA   INFORMATION       
#------------------------------------------------------
~Well Information
 STRT   .FT                9001.21   :Start Depth      
 STOP   .FT               14403.00   :Stop Depth       
 STEP   .FT                   1.00   :Step Value       
 NULL   .                 -9999.00   :NULL Value       
 DATE   .                7/26/2010   :Date             
 SRVC   .                Drake MWD   :Service Company  
 COMP   .              El Paso E&P   :Operating Company
 WELL   .                Hixon #5H   :Well             
  FLD   .       EGFD Shale TXSZ'27   :Field            
  LOC   .                  Cotulla   :Location         
 CNTY   .                  LaSalle   :County           
 STAT   .                       TX   :State            
 CTRY   .                      USA   :Country          
  UWI   .               4228332299   :UWI Number       
  API   .               4228332299   :API Number       

#SURVEYS:
#SVY      DEPTH    INCL      AZM       TVD        VS      N/-S       E/-W
#------------------------------------------------------------------------
~Other Information
   0    8857.00    2.38   147.94   8847.00   -205.32   -150.52     139.80
   1    8937.00    4.40   278.70   8926.93   -204.48   -151.46     137.65
   2    8969.00    9.40   291.50   8958.69   -201.11   -150.32     134.00
   3    9001.00   12.30   297.30   8990.11   -195.47   -147.80     128.54
   4    9097.00   11.90   308.20   9083.99   -175.92   -136.99     111.67
   5    9192.00   10.40   317.30   9177.20   -157.63   -124.63      98.16
   6    9288.00    9.50   313.80   9271.76   -141.05   -112.77      86.56
   7    9380.00    8.60   311.90   9362.61   -126.60   -102.93      75.96
   8    9413.00    8.90   311.90   9395.23   -121.59    -99.57      72.23
   9    9444.00   11.60   314.20   9425.73   -116.07    -95.80      68.21
  10    9476.00   14.80   317.30   9456.88   -108.77    -90.55      63.13
  11    9508.00   18.20   319.60   9487.56    -99.70    -83.74      57.11
  12    9540.00   21.60   319.10   9517.64    -88.84    -75.48      50.02
  13    9571.00   25.00   318.20   9546.11    -76.60    -66.28      41.91
  14    9603.00   27.60   318.40   9574.80    -62.44    -55.69      32.48
  15    9635.00   29.60   319.30   9602.89    -47.15    -44.16      22.41
  16    9667.00   32.00   320.70   9630.38    -30.82    -31.60      11.88
  17    9699.00   34.20   320.90   9657.18    -13.43    -18.06       0.84
  18    9731.00   37.20   320.20   9683.17      5.16     -3.65     -11.03
  19    9763.00   41.10   317.70   9707.98     25.32     11.57     -24.31
  20    9795.00   44.90   316.50   9731.38     47.13     27.55     -39.17
  21    9826.00   48.80   316.30   9752.57     69.74     43.92     -54.76
  22    9858.00   52.80   316.30   9772.79     94.53     61.85     -71.89
  23    9890.00   56.20   316.50   9791.38    120.57     80.71     -89.85
  24    9922.00   58.70   316.50   9808.59    147.54    100.28    -108.42
  25    9954.00   61.30   316.50   9824.59    175.24    120.38    -127.49
  26    9986.00   64.50   315.60   9839.17    203.72    140.88    -147.26
  27   10018.00   67.40   314.90   9852.21    232.94    161.63    -167.83
  28   10050.00   70.50   313.80   9863.70    262.80    182.50    -189.19
  29   10082.00   74.00   313.50   9873.45    293.25    203.54    -211.24
  30   10114.00   76.90   314.20   9881.49    324.21    224.99    -233.57
  31   10146.00   79.60   314.40   9888.01    355.54    246.87    -255.99
  32   10178.00   82.70   314.50   9892.93    387.15    269.01    -278.56
  33   10209.00   86.30   314.20   9895.90    418.00    290.58    -300.62
  34   10241.00   89.00   314.20   9897.21    449.96    312.87    -323.54
  35   10336.00   91.00   314.50   9897.21    544.94    379.27    -391.47
  36   10432.00   94.80   315.10   9892.36    640.80    446.82    -459.49
  37   10527.00   95.50   314.20   9883.83    735.40    513.31    -526.80
  38   10624.00   92.40   314.00   9877.15    832.14    580.64    -596.29
  39   10719.00   93.40   314.20   9872.34    927.00    646.67    -664.42
  40   10813.00   92.90   315.20   9867.18   1020.85    712.69    -731.13
  41   10908.00   92.80   314.20   9862.45   1115.72    779.43    -798.57
  42   11004.00   92.30   312.90   9858.18   1211.58    845.50    -868.08
  43   11101.00   92.30   313.80   9854.29   1308.44    912.03    -938.56
  44   11196.00   92.60   313.50   9850.23   1403.32    977.55   -1007.24
  45   11292.00   91.60   313.50   9846.71   1499.20   1043.58   -1076.82
  46   11386.00   92.70   314.70   9843.18   1593.11   1108.95   -1144.28
  47   11482.00   93.10   313.30   9838.33   1688.96   1175.55   -1213.25
  48   11578.00   93.90   313.10   9832.47   1784.71   1241.15   -1283.10
  49   11674.00   94.00   311.70   9825.85   1880.36   1305.72   -1353.82
  50   11770.00   93.30   312.90   9819.74   1976.03   1370.20   -1424.68
  51   11865.00   93.30   314.70   9814.27   2070.83   1435.84   -1493.13
  52   11960.00   94.40   315.90   9807.89   2165.62   1503.21   -1559.80
  53   12056.00   94.80   316.60   9800.19   2261.29   1572.34   -1625.97
  54   12152.00   94.30   317.00   9792.58   2356.96   1642.10   -1691.48
  55   12248.00   92.50   317.00   9786.89   2452.75   1712.18   -1756.83
  56   12344.00   90.70   314.40   9784.21   2548.69   1780.85   -1823.84
  57   12439.00   92.10   316.50   9781.88   2643.66   1848.52   -1890.46
  58   12535.00   92.70   316.30   9777.86   2739.55   1917.98   -1956.61
  59   12631.00   92.20   314.90   9773.76   2835.46   1986.51   -2023.71
  60   12727.00   92.30   315.80   9769.99   2931.39   2054.75   -2091.13
  61   12822.00   90.70   317.00   9767.50   3026.33   2123.52   -2156.62
  62   12918.00   91.50   319.40   9765.66   3122.19   2195.07   -2220.59
  63   13014.00   90.70   318.70   9763.82   3217.96   2267.56   -2283.49
  64   13105.00   91.90   318.90   9761.75   3308.77   2336.01   -2343.42
  65   13200.00   90.70   316.80   9759.60   3403.65   2406.42   -2407.15
  66   13296.00   89.40   314.50   9759.52   3499.64   2475.06   -2474.25
  67   13392.00   88.50   314.20   9761.27   3595.61   2542.16   -2542.88
  68   13486.00   88.50   314.00   9763.74   3689.55   2607.55   -2610.37
  69   13582.00   89.30   313.80   9765.58   3785.51   2674.10   -2679.52
  70   13678.00   89.40   313.50   9766.67   3881.46   2740.36   -2748.98
  71   13774.00   90.00   313.10   9767.17   3977.40   2806.20   -2818.85
  72   13868.00   90.40   312.40   9766.84   4071.30   2870.01   -2887.87
  73   13960.00   91.30   312.60   9765.48   4163.18   2932.15   -2955.69
  74   14054.00   91.20   315.60   9763.43   4257.12   2997.55   -3023.17
  75   14148.00   92.40   318.20   9760.47   4351.03   3066.14   -3087.36
  76   14241.00   91.80   316.50   9757.06   4443.91   3134.49   -3150.33
  77   14334.00   91.70   315.90   9754.22   4536.85   3201.58   -3214.67

# MNEM   .UNIT    DATA   INFORMATION                                                               
#--------------------------------------------------------------------------------------------------
~Curve Information
 DEPTH   .FT             :Measured Depth                                                           
    MD   .FT             :Measured depth.                                                          
   TVD   .FT             :True vertical depth.                                                     
   ROP   .FT/HR          :Rate of penetration at bit depth.                                        
    GR   .API            :API corrected gamma counts from all gamma configurations at sensor depth.

#   DEPTH         MD       TVD       ROP         GR
#--------------------------------------------------
~ASCII Log
# ...
 10387.21   10387.21   9894.62     55.62      39.75
 10388.21   10388.21   9894.57     53.99      39.48
 10389.21   10389.21   9894.52     52.97      40.00
 10390.21   10390.21   9894.47     51.34      40.00
 10391.21   10391.21   9894.42     51.59      39.98
 10392.21   10392.21   9894.37     53.73      39.45
 10393.21   10393.21   9894.32     52.99      38.00
 10394.21   10394.21   9894.27     52.50      38.04
 10395.21   10395.21   9894.22     49.79      39.30
 10396.21   10396.21   9894.17     47.70      42.00
 10397.21   10397.21   9894.12     42.32      41.98
 10398.21   10398.21   9894.06     69.58      41.34
 10399.21   10399.21   9894.02     75.98      40.00
 10400.21   10400.21   9893.96     70.25      40.02
 10401.21   10401.21   9893.91     69.57      40.74
 10402.21   10402.21   9893.86     71.01      42.00
 10403.21   10403.21   9893.81     70.76      41.95
 10404.21   10404.21   9893.76     70.98      41.02
 10405.21   10405.21   9893.71     73.39      40.00
 10406.21   10406.21   9893.66     73.27      39.93
 10407.21   10407.21   9893.61     73.95      38.30
 10408.21   10408.21   9893.56     72.99      38.00
 10409.21   10409.21   9893.51     70.33      38.42
 10410.21   10410.21   9893.46     55.25      41.76
 10411.21   10411.21   9893.41     70.14      42.00
 10412.21   10412.21   9893.36     25.41      42.00
 10413.21   10413.21   9893.31     18.19      42.00
 10414.21   10414.21   9893.26     11.03      41.58
 10415.21   10415.21   9893.21      7.35      39.95
 10416.21   10416.21   9893.15     10.58      38.97
 10417.21   10417.21   9893.10     15.31      38.21
 10418.21   10418.21   9893.05     14.75      41.70
 10419.21   10419.21   9893.00     11.68      42.00
 10420.21   10420.21   9892.95     14.99      42.00
 10421.21   10421.21   9892.90     15.29      41.67
 10422.21   10422.21   9892.85     13.70      40.04
 10423.21   10423.21   9892.80     14.18      40.84
 10424.21   10424.21   9892.75     16.34      42.00
 10425.21   10425.21   9892.70     16.08      41.98
 10426.21   10426.21   9892.65     15.63      41.34
 10427.21   10427.21   9892.60     22.56      40.00
 10428.21   10428.21   9892.55     17.54      39.58
 10429.21   10429.21   9892.50     20.15      38.00
 10430.21   10430.21   9892.45     21.61      38.00
 10431.21   10431.21   9892.40     19.16      38.00
 10432.21   10432.21   9892.34     48.35      38.02
 10433.21   10433.21   9892.25     91.46      38.69
 10434.21   10434.21   9892.16     98.73      40.00
 10435.21   10435.21   9892.07     99.45      40.14
 10436.21   10436.21   9891.98     99.95      43.40
 10437.21   10437.21   9891.89     97.23      44.09
 10438.21   10438.21   9891.80     98.28      45.69
 10439.21   10439.21   9891.71    102.23      48.00
 10440.21   10440.21   9891.62    101.73      47.31
 10441.21   10441.21   9891.53    100.58      44.00
 10442.21   10442.21   9891.44     97.04      44.08
 10443.21   10443.21   9891.35     95.62      45.80
 10444.21   10444.21   9891.26     95.43      46.00
 10445.21   10445.21   9891.17     94.62      46.00
 10446.21   10446.21   9891.08     95.12      46.00
 10447.21   10447.21   9890.99     92.91      46.00
 10448.21   10448.21   9890.90     92.45      46.00
 10449.21   10449.21   9890.81     94.63      46.00
 10450.21   10450.21   9890.72     92.88      45.91
 10451.21   10451.21   9890.63     92.10      44.15
 10452.21   10452.21   9890.54     90.57      44.00
 10453.21   10453.21   9890.45     87.19      43.94
 10454.21   10454.21   9890.36     82.94      42.55
 10455.21   10455.21   9890.27     80.59      40.00
 10456.21   10456.21   9890.18     79.58      40.02
 10457.21   10457.21   9890.09     72.82      40.71
 10458.21   10458.21   9890.00     63.72      42.00
 10459.21   10459.21   9889.91     59.84      41.10
 10460.21   10460.21   9889.82     55.73      36.00
 10461.21   10461.21   9889.73     53.49      36.08
 10462.21   10462.21   9889.64     52.99      38.64
 10463.21   10463.21   9889.55     54.17      43.97
 10464.21   10464.21   9889.46     53.05      43.25
 10465.21   10465.21   9889.37     52.32      41.78
 10466.21   10466.21   9889.29     50.72      38.28
 10467.21   10467.21   9889.20     50.27      38.97
 10468.21   10468.21   9889.11     54.50      39.44
 10469.21   10469.21   9889.02     59.77      38.07
 10470.21   10470.21   9888.93     66.25      39.65
 10471.21   10471.21   9888.84     70.14      38.99
 10472.21   10472.21   9888.75     74.38      38.11
 10473.21   10473.21   9888.66     78.85      39.85
 10474.21   10474.21   9888.57     82.93      40.85
 10475.21   10475.21   9888.48     82.60      44.00
 10476.21   10476.21   9888.39     82.30      44.65
 10477.21   10477.21   9888.30     80.86      47.91
 10478.21   10478.21   9888.21     81.82      46.31
 10479.21   10479.21   9888.12     81.83      44.04
 10480.21   10480.21   9888.03     80.95      45.14
 10481.21   10481.21   9887.94     79.20      46.11
 10482.21   10482.21   9887.85     79.39      47.87
 10483.21   10483.21   9887.76     77.11      48.24
 10484.21   10484.21   9887.67     78.69      50.00
 10485.21   10485.21   9887.58     78.74      50.35
 10486.21   10486.21   9887.49     76.43      52.00
 10487.21   10487.21   9887.40     77.77      51.40
 10488.21   10488.21   9887.31     77.66      48.00
 10489.21   10489.21   9887.22     77.33      48.14
 10490.21   10490.21   9887.13     76.04      51.40
 10491.21   10491.21   9887.04     72.50      51.96
 10492.21   10492.21   9886.95     70.59      51.14
 10493.21   10493.21   9886.86     46.85      50.00
 10494.21   10494.21   9886.77     56.48      50.00
 10495.21   10495.21   9886.68    121.35      50.02
 10496.21   10496.21   9886.59    107.00      50.65
 10497.21   10497.21   9886.50    102.99      51.89
 10498.21   10498.21   9886.41    100.73      49.47
 10499.21   10499.21   9886.32     98.12      47.65
 10500.21   10500.21   9886.23     95.04      46.05
 10501.21   10501.21   9886.14     78.70      46.98
 10502.21   10502.21   9886.05     84.91      47.77
 10503.21   10503.21   9885.96     87.10      46.00
 10504.21   10504.21   9885.87     85.94      46.00
 10505.21   10505.21   9885.78     85.62      46.00
 10506.21   10506.21   9885.69     82.44      45.39
 10507.21   10507.21   9885.60     67.54      41.96
 10508.21   10508.21   9885.52     50.27      40.62
 10509.21   10509.21   9885.43     46.19      38.05
 10510.21   10510.21   9885.34     43.32      38.98
 10511.21   10511.21   9885.25     41.93      39.98
 10512.21   10512.21   9885.16     45.58      39.34
 10513.21   10513.21   9885.07     45.72      38.00
 10514.21   10514.21   9884.98     50.77      38.84
 10515.21   10515.21   9884.89     51.36      42.00
 10516.21   10516.21   9884.80     52.15      42.00
 10517.21   10517.21   9884.71     55.57      42.00
 10518.21   10518.21   9884.62     60.51      41.79
 10519.21   10519.21   9884.53     53.66      40.12
 10520.21   10520.21   9884.44     51.29      40.22
 10521.21   10521.21   9884.35     52.91      43.76
 10522.21   10522.21   9884.26     56.43      44.00
 10523.21   10523.21   9884.17     59.57      44.00
 10524.21   10524.21   9884.08     59.89      44.00
 10525.21   10525.21   9883.99     62.62      44.00
 10526.21   10526.21   9883.90     61.04      44.00
 10527.21   10527.21   9883.81     62.07      44.00
 10528.21   10528.21   9883.75     62.23      43.98
 10529.21   10529.21   9883.68     67.01      43.31
 10530.21   10530.21   9883.61     69.42      41.89
 10531.21   10531.21   9883.54     71.64      40.22
 10532.21   10532.21   9883.47     72.55      41.68
 10533.21   10533.21   9883.40     74.89      44.42
 10534.21   10534.21   9883.33     76.04      45.89
 10535.21   10535.21   9883.26     80.25      44.23
 10536.21   10536.21   9883.19     76.02      45.80
 10537.21   10537.21   9883.13     71.59      44.68
 10538.21   10538.21   9883.06     66.89      45.31
 10539.21   10539.21   9882.99     63.31      47.12
 10540.21   10540.21   9882.92     60.79      47.34
