###########################################
# File generated by DigiDrill LAS Builder #
###########################################
~Version Information
VERS.   2.0   :LAS Version 2.0        
WRAP.    NO   :One line per depth step

#MNEM   .UNIT                 DATA   INFORMATION       
#------------------------------------------------------
~Well Information
 STRT   .FT                9001.21   :Start Depth      
 STOP   .FT               14403.00   :Stop Depth       
 STEP   .FT                   1.00   :Step Value       
 NULL   .                 -9999.00   :NULL Value       
 DATE   .                7/26/2010   :Date             
 SRVC   .                Drake MWD   :Service Company  
 COMP   .              El Paso E&P   :Operating Company
 WELL   .                Hixon #5H   :Well             
  FLD   .       EGFD Shale TXSZ'27   :Field            
  LOC   .                  Cotulla   :Location         
 CNTY   .                  LaSalle   :County           
 STAT   .                       TX   :State            
 CTRY   .                      USA   :Country          
  UWI   .               4228332299   :UWI Number       
  API   .               4228332299   :API Number       

#SURVEYS:
#SVY      DEPTH    INCL      AZM       TVD        VS      N/-S       E/-W
#------------------------------------------------------------------------
~Other Information
   0    8857.00    2.38   147.94   8847.00   -205.32   -150.52     139.80
   1    8937.00    4.40   278.70   8926.93   -204.48   -151.46     137.65
   2    8969.00    9.40   291.50   8958.69   -201.11   -150.32     134.00
   3    9001.00   12.30   297.30   8990.11   -195.47   -147.80     128.54
   4    9097.00   11.90   308.20   9083.99   -175.92   -136.99     111.67
   5    9192.00   10.40   317.30   9177.20   -157.63   -124.63      98.16
   6    9288.00    9.50   313.80   9271.76   -141.05   -112.77      86.56
   7    9380.00    8.60   311.90   9362.61   -126.60   -102.93      75.96
   8    9413.00    8.90   311.90   9395.23   -121.59    -99.57      72.23
   9    9444.00   11.60   314.20   9425.73   -116.07    -95.80      68.21
  10    9476.00   14.80   317.30   9456.88   -108.77    -90.55      63.13
  11    9508.00   18.20   319.60   9487.56    -99.70    -83.74      57.11
  12    9540.00   21.60   319.10   9517.64    -88.84    -75.48      50.02
  13    9571.00   25.00   318.20   9546.11    -76.60    -66.28      41.91
  14    9603.00   27.60   318.40   9574.80    -62.44    -55.69      32.48
  15    9635.00   29.60   319.30   9602.89    -47.15    -44.16      22.41
  16    9667.00   32.00   320.70   9630.38    -30.82    -31.60      11.88
  17    9699.00   34.20   320.90   9657.18    -13.43    -18.06       0.84
  18    9731.00   37.20   320.20   9683.17      5.16     -3.65     -11.03
  19    9763.00   41.10   317.70   9707.98     25.32     11.57     -24.31
  20    9795.00   44.90   316.50   9731.38     47.13     27.55     -39.17
  21    9826.00   48.80   316.30   9752.57     69.74     43.92     -54.76
  22    9858.00   52.80   316.30   9772.79     94.53     61.85     -71.89
  23    9890.00   56.20   316.50   9791.38    120.57     80.71     -89.85
  24    9922.00   58.70   316.50   9808.59    147.54    100.28    -108.42
  25    9954.00   61.30   316.50   9824.59    175.24    120.38    -127.49
  26    9986.00   64.50   315.60   9839.17    203.72    140.88    -147.26
  27   10018.00   67.40   314.90   9852.21    232.94    161.63    -167.83
  28   10050.00   70.50   313.80   9863.70    262.80    182.50    -189.19
  29   10082.00   74.00   313.50   9873.45    293.25    203.54    -211.24
  30   10114.00   76.90   314.20   9881.49    324.21    224.99    -233.57
  31   10146.00   79.60   314.40   9888.01    355.54    246.87    -255.99
  32   10178.00   82.70   314.50   9892.93    387.15    269.01    -278.56
  33   10209.00   86.30   314.20   9895.90    418.00    290.58    -300.62
  34   10241.00   89.00   314.20   9897.21    449.96    312.87    -323.54
  35   10336.00   91.00   314.50   9897.21    544.94    379.27    -391.47
  36   10432.00   94.80   315.10   9892.36    640.80    446.82    -459.49
  37   10527.00   95.50   314.20   9883.83    735.40    513.31    -526.80
  38   10624.00   92.40   314.00   9877.15    832.14    580.64    -596.29
  39   10719.00   93.40   314.20   9872.34    927.00    646.67    -664.42
  40   10813.00   92.90   315.20   9867.18   1020.85    712.69    -731.13
  41   10908.00   92.80   314.20   9862.45   1115.72    779.43    -798.57
  42   11004.00   92.30   312.90   9858.18   1211.58    845.50    -868.08
  43   11101.00   92.30   313.80   9854.29   1308.44    912.03    -938.56
  44   11196.00   92.60   313.50   9850.23   1403.32    977.55   -1007.24
  45   11292.00   91.60   313.50   9846.71   1499.20   1043.58   -1076.82
  46   11386.00   92.70   314.70   9843.18   1593.11   1108.95   -1144.28
  47   11482.00   93.10   313.30   9838.33   1688.96   1175.55   -1213.25
  48   11578.00   93.90   313.10   9832.47   1784.71   1241.15   -1283.10
  49   11674.00   94.00   311.70   9825.85   1880.36   1305.72   -1353.82
  50   11770.00   93.30   312.90   9819.74   1976.03   1370.20   -1424.68
  51   11865.00   93.30   314.70   9814.27   2070.83   1435.84   -1493.13
  52   11960.00   94.40   315.90   9807.89   2165.62   1503.21   -1559.80
  53   12056.00   94.80   316.60   9800.19   2261.29   1572.34   -1625.97
  54   12152.00   94.30   317.00   9792.58   2356.96   1642.10   -1691.48
  55   12248.00   92.50   317.00   9786.89   2452.75   1712.18   -1756.83
  56   12344.00   90.70   314.40   9784.21   2548.69   1780.85   -1823.84
  57   12439.00   92.10   316.50   9781.88   2643.66   1848.52   -1890.46
  58   12535.00   92.70   316.30   9777.86   2739.55   1917.98   -1956.61
  59   12631.00   92.20   314.90   9773.76   2835.46   1986.51   -2023.71
  60   12727.00   92.30   315.80   9769.99   2931.39   2054.75   -2091.13
  61   12822.00   90.70   317.00   9767.50   3026.33   2123.52   -2156.62
  62   12918.00   91.50   319.40   9765.66   3122.19   2195.07   -2220.59
  63   13014.00   90.70   318.70   9763.82   3217.96   2267.56   -2283.49
  64   13105.00   91.90   318.90   9761.75   3308.77   2336.01   -2343.42
  65   13200.00   90.70   316.80   9759.60   3403.65   2406.42   -2407.15
  66   13296.00   89.40   314.50   9759.52   3499.64   2475.06   -2474.25
  67   13392.00   88.50   314.20   9761.27   3595.61   2542.16   -2542.88
  68   13486.00   88.50   314.00   9763.74   3689.55   2607.55   -2610.37
  69   13582.00   89.30   313.80   9765.58   3785.51   2674.10   -2679.52
  70   13678.00   89.40   313.50   9766.67   3881.46   2740.36   -2748.98
  71   13774.00   90.00   313.10   9767.17   3977.40   2806.20   -2818.85
  72   13868.00   90.40   312.40   9766.84   4071.30   2870.01   -2887.87
  73   13960.00   91.30   312.60   9765.48   4163.18   2932.15   -2955.69
  74   14054.00   91.20   315.60   9763.43   4257.12   2997.55   -3023.17
  75   14148.00   92.40   318.20   9760.47   4351.03   3066.14   -3087.36
  76   14241.00   91.80   316.50   9757.06   4443.91   3134.49   -3150.33
  77   14334.00   91.70   315.90   9754.22   4536.85   3201.58   -3214.67

# MNEM   .UNIT    DATA   INFORMATION                                                               
#--------------------------------------------------------------------------------------------------
~Curve Information
 DEPTH   .FT             :Measured Depth                                                           
    MD   .FT             :Measured depth.                                                          
   TVD   .FT             :True vertical depth.                                                     
   ROP   .FT/HR          :Rate of penetration at bit depth.                                        
    GR   .API            :API corrected gamma counts from all gamma configurations at sensor depth.

#   DEPTH         MD       TVD       ROP         GR
#--------------------------------------------------
~ASCII Log
# ...
 14237.21   14237.21   9757.20     68.99      58.00
 14238.21   14238.21   9757.17     79.26      58.00
 14239.21   14239.21   9757.13     85.99      58.00
 14240.21   14240.21   9757.09     75.77      56.81
 14241.21   14241.21   9757.06     63.96      55.00
 14242.21   14242.21   9757.03     62.81      55.00
 14243.21   14243.21   9757.00     65.71      55.00
 14244.21   14244.21   9756.97     70.90      55.00
 14245.21   14245.21   9756.94     76.03      58.00
 14246.21   14246.21   9756.91     86.08      58.00
 14247.21   14247.21   9756.88     88.54      58.00
 14248.21   14248.21   9756.85     78.58      58.00
 14249.21   14249.21   9756.81     73.54      58.00
 14250.21   14250.21   9756.78     86.53      58.00
 14251.21   14251.21   9756.75     90.93      56.00
 14252.21   14252.21   9756.72     76.94      56.00
 14253.21   14253.21   9756.69     70.40      49.00
 14254.21   14254.21   9756.66     75.68      49.00
 14255.21   14255.21   9756.63     86.09      53.09
 14256.21   14256.21   9756.60     73.38      56.00
 14257.21   14257.21   9756.57     62.44      56.00
 14258.21   14258.21   9756.54     63.18      56.00
 14259.21   14259.21   9756.51     62.17      55.86
 14260.21   14260.21   9756.48     60.59      55.00
 14261.21   14261.21   9756.45     62.36      55.00
 14262.21   14262.21   9756.42     59.49      55.00
 14263.21   14263.21   9756.39     55.50      56.00
 14264.21   14264.21   9756.36     56.48      56.00
 14265.21   14265.21   9756.33     54.45      55.79
 14266.21   14266.21   9756.30     59.04      55.00
 14267.21   14267.21   9756.27     56.60      55.00
 14268.21   14268.21   9756.23     62.30      55.50
 14269.21   14269.21   9756.20     66.00      56.00
 14270.21   14270.21   9756.17     60.41      56.00
 14271.21   14271.21   9756.14     58.72      54.53
 14272.21   14272.21   9756.11     65.59      53.00
 14273.21   14273.21   9756.08     79.02      53.80
 14274.21   14274.21   9756.05     77.31      58.00
 14275.21   14275.21   9756.02     66.30      58.00
 14276.21   14276.21   9755.99     79.96      56.00
 14277.21   14277.21   9755.96     83.16      56.00
 14278.21   14278.21   9755.93     73.45      55.16
 14279.21   14279.21   9755.90     71.92      55.00
 14280.21   14280.21   9755.87     68.60      55.79
 14281.21   14281.21   9755.84     61.65      56.00
 14282.21   14282.21   9755.81     61.15      55.60
 14283.21   14283.21   9755.78     73.10      55.00
 14284.21   14284.21   9755.75     81.30      54.29
 14285.21   14285.21   9755.72     77.55      53.00
 14286.21   14286.21   9755.69     68.94      52.03
 14287.21   14287.21   9755.65     64.44      51.00
 14288.21   14288.21   9755.62     66.01      53.47
 14289.21   14289.21   9755.59     64.82      55.00
 14290.21   14290.21   9755.56     58.46      54.25
 14291.21   14291.21   9755.53     67.48      53.00
 14292.21   14292.21   9755.50     85.46      53.00
 14293.21   14293.21   9755.47     84.68      53.00
 14294.21   14294.21   9755.44     64.97      51.00
 14295.21   14295.21   9755.41     60.35      51.00
 14296.21   14296.21   9755.38     77.53      54.42
 14297.21   14297.21   9755.35     81.90      58.00
 14298.21   14298.21   9755.32     76.97      58.00
 14299.21   14299.21   9755.29     79.34      51.00
 14300.21   14300.21   9755.26     80.30      51.00
 14301.21   14301.21   9755.23     75.94      53.59
 14302.21   14302.21   9755.20     56.45      55.00
 14303.21   14303.21   9755.17     41.99      54.56
 14304.21   14304.21   9755.13    124.05      53.00
 14305.21   14305.21   9755.10    111.04      53.00
 14306.21   14306.21   9755.07     97.72      51.00
 14307.21   14307.21   9755.04     93.89      51.00
 14308.21   14308.21   9755.01     83.08      51.00
 14309.21   14309.21   9754.98     87.75      51.00
 14310.21   14310.21   9754.95     89.63      51.00
 14311.21   14311.21   9754.92     93.35      53.00
 14312.21   14312.21   9754.89    100.94      53.00
 14313.21   14313.21   9754.86    101.72      53.00
 14314.21   14314.21   9754.83     97.98      53.00
 14315.21   14315.21   9754.80     84.45      48.33
 14316.21   14316.21   9754.77     71.25      47.00
 14317.21   14317.21   9754.74     70.00      47.00
 14318.21   14318.21   9754.71     72.65      47.00
 14319.21   14319.21   9754.68     83.08      47.55
 14320.21   14320.21   9754.65     77.30      51.00
 14321.21   14321.21   9754.62     70.53      51.00
 14322.21   14322.21   9754.59     69.81      47.00
 14323.21   14323.21   9754.55     69.98      47.00
 14324.21   14324.21   9754.52     71.97      46.01
 14325.21   14325.21   9754.49     72.51      44.00
 14326.21   14326.21   9754.46     69.78      44.00
 14327.21   14327.21   9754.43     70.25      53.00
 14328.21   14328.21   9754.40     65.43      53.00
 14329.21   14329.21   9754.37     65.18      50.37
 14330.21   14330.21   9754.34     62.72      49.00
 14331.21   14331.21   9754.31     63.54      49.00
 14332.21   14332.21   9754.28     70.06      49.00
 14333.21   14333.21   9754.25     71.82      49.00
 14334.21   14334.21   9754.22     76.41      49.00
 14335.21   14335.21   9754.19     86.86      49.00
 14336.21   14336.21   9754.16     85.48      49.00
 14337.21   14337.21   9754.13     83.52      49.00
 14338.21   14338.21   9754.10     86.66      49.00
 14339.21   14339.21   9754.07     86.29      49.00
 14340.21   14340.21   9754.04     83.71      48.72
 14341.21   14341.21   9754.01     82.67      47.00
 14342.21   14342.21   9753.98     83.99      47.00
 14343.21   14343.21   9753.95     79.30      47.00
 14344.21   14344.21   9753.92     80.88      47.00
 14345.21   14345.21   9753.89     79.07      47.00
 14346.21   14346.21   9753.86     75.40      47.00
 14347.21   14347.21   9753.83     76.76      46.00
 14348.21   14348.21   9753.80     75.95      46.00
 14349.21   14349.21   9753.77     74.42      46.14
 14350.21   14350.21   9753.74     76.87      47.00
 14351.21   14351.21   9753.72     73.32      47.00
 14352.21   14352.21   9753.69     77.69      48.25
 14353.21   14353.21   9753.65     98.04      58.00
 14354.21   14354.21   9753.63     96.62      56.58
 14355.21   14355.21   9753.60     82.93      55.00
 14356.21   14356.21   9753.57     68.04      55.00
 14357.21   14357.21   9753.54     66.63      53.00
 14358.21   14358.21   9753.51     66.48      53.00
 14359.21   14359.21   9753.48     77.27      53.00
 14360.21   14360.21   9753.45     86.29      53.00
 14361.21   14361.21   9753.42     77.00   -9999.00
 14362.21   14362.21   9753.39     70.08   -9999.00
 14363.21   14363.21   9753.36     68.72   -9999.00
 14364.21   14364.21   9753.33     68.34   -9999.00
 14365.21   14365.21   9753.30     71.29   -9999.00
 14366.21   14366.21   9753.27     72.20   -9999.00
 14367.21   14367.21   9753.24     70.28   -9999.00
 14368.21   14368.21   9753.21     71.75   -9999.00
 14369.21   14369.21   9753.18     73.12   -9999.00
 14370.21   14370.21   9753.15     72.33   -9999.00
 14371.21   14371.21   9753.12     77.12   -9999.00
 14372.21   14372.21   9753.09     78.19   -9999.00
 14373.21   14373.21   9753.06     90.58   -9999.00
 14374.21   14374.21   9753.03     96.52   -9999.00
 14375.21   14375.21   9753.00     97.73   -9999.00
 14376.21   14376.21   9752.97     99.56   -9999.00
 14377.21   14377.21   9752.94     96.62   -9999.00
 14378.21   14378.21   9752.91     97.46   -9999.00
 14379.21   14379.21   9752.88     95.75   -9999.00
 14380.21   14380.21   9752.85     95.99   -9999.00
 14381.21   14381.21   9752.82     96.77   -9999.00
 14382.21   14382.21   9752.79     98.82   -9999.00
 14383.21   14383.21   9752.77     98.87   -9999.00
 14384.21   14384.21   9752.74     98.72   -9999.00
 14385.21   14385.21   9752.71    101.83   -9999.00
 14386.21   14386.21   9752.68    103.25   -9999.00
 14387.21   14387.21   9752.65     97.79   -9999.00
 14388.21   14388.21   9752.62     97.91   -9999.00
 14389.21   14389.21   9752.59    102.08   -9999.00
 14390.21   14390.21   9752.56    100.77   -9999.00
