###########################################
# File generated by DigiDrill LAS Builder #
###########################################
~Version Information
VERS.   2.0   :LAS Version 2.0        
WRAP.    NO   :One line per depth step

#MNEM   .UNIT                 DATA   INFORMATION       
#------------------------------------------------------
~Well Information
 STRT   .FT                9001.21   :Start Depth      
 STOP   .FT               14403.00   :Stop Depth       
 STEP   .FT                   1.00   :Step Value       
 NULL   .                 -9999.00   :NULL Value       
 DATE   .                7/26/2010   :Date             
 SRVC   .                Drake MWD   :Service Company  
 COMP   .              El Paso E&P   :Operating Company
 WELL   .                Hixon #5H   :Well             
  FLD   .       EGFD Shale TXSZ'27   :Field            
  LOC   .                  Cotulla   :Location         
 CNTY   .                  LaSalle   :County           
 STAT   .                       TX   :State            
 CTRY   .                      USA   :Country          
  UWI   .               4228332299   :UWI Number       
  API   .               4228332299   :API Number       

#SURVEYS:
#SVY      DEPTH    INCL      AZM       TVD        VS      N/-S       E/-W
#------------------------------------------------------------------------
~Other Information
   0    8857.00    2.38   147.94   8847.00   -205.32   -150.52     139.80
   1    8937.00    4.40   278.70   8926.93   -204.48   -151.46     137.65
   2    8969.00    9.40   291.50   8958.69   -201.11   -150.32     134.00
   3    9001.00   12.30   297.30   8990.11   -195.47   -147.80     128.54
   4    9097.00   11.90   308.20   9083.99   -175.92   -136.99     111.67
   5    9192.00   10.40   317.30   9177.20   -157.63   -124.63      98.16
   6    9288.00    9.50   313.80   9271.76   -141.05   -112.77      86.56
   7    9380.00    8.60   311.90   9362.61   -126.60   -102.93      75.96
   8    9413.00    8.90   311.90   9395.23   -121.59    -99.57      72.23
   9    9444.00   11.60   314.20   9425.73   -116.07    -95.80      68.21
  10    9476.00   14.80   317.30   9456.88   -108.77    -90.55      63.13
  11    9508.00   18.20   319.60   9487.56    -99.70    -83.74      57.11
  12    9540.00   21.60   319.10   9517.64    -88.84    -75.48      50.02
  13    9571.00   25.00   318.20   9546.11    -76.60    -66.28      41.91
  14    9603.00   27.60   318.40   9574.80    -62.44    -55.69      32.48
  15    9635.00   29.60   319.30   9602.89    -47.15    -44.16      22.41
  16    9667.00   32.00   320.70   9630.38    -30.82    -31.60      11.88
  17    9699.00   34.20   320.90   9657.18    -13.43    -18.06       0.84
  18    9731.00   37.20   320.20   9683.17      5.16     -3.65     -11.03
  19    9763.00   41.10   317.70   9707.98     25.32     11.57     -24.31
  20    9795.00   44.90   316.50   9731.38     47.13     27.55     -39.17
  21    9826.00   48.80   316.30   9752.57     69.74     43.92     -54.76
  22    9858.00   52.80   316.30   9772.79     94.53     61.85     -71.89
  23    9890.00   56.20   316.50   9791.38    120.57     80.71     -89.85
  24    9922.00   58.70   316.50   9808.59    147.54    100.28    -108.42
  25    9954.00   61.30   316.50   9824.59    175.24    120.38    -127.49
  26    9986.00   64.50   315.60   9839.17    203.72    140.88    -147.26
  27   10018.00   67.40   314.90   9852.21    232.94    161.63    -167.83
  28   10050.00   70.50   313.80   9863.70    262.80    182.50    -189.19
  29   10082.00   74.00   313.50   9873.45    293.25    203.54    -211.24
  30   10114.00   76.90   314.20   9881.49    324.21    224.99    -233.57
  31   10146.00   79.60   314.40   9888.01    355.54    246.87    -255.99
  32   10178.00   82.70   314.50   9892.93    387.15    269.01    -278.56
  33   10209.00   86.30   314.20   9895.90    418.00    290.58    -300.62
  34   10241.00   89.00   314.20   9897.21    449.96    312.87    -323.54
  35   10336.00   91.00   314.50   9897.21    544.94    379.27    -391.47
  36   10432.00   94.80   315.10   9892.36    640.80    446.82    -459.49
  37   10527.00   95.50   314.20   9883.83    735.40    513.31    -526.80
  38   10624.00   92.40   314.00   9877.15    832.14    580.64    -596.29
  39   10719.00   93.40   314.20   9872.34    927.00    646.67    -664.42
  40   10813.00   92.90   315.20   9867.18   1020.85    712.69    -731.13
  41   10908.00   92.80   314.20   9862.45   1115.72    779.43    -798.57
  42   11004.00   92.30   312.90   9858.18   1211.58    845.50    -868.08
  43   11101.00   92.30   313.80   9854.29   1308.44    912.03    -938.56
  44   11196.00   92.60   313.50   9850.23   1403.32    977.55   -1007.24
  45   11292.00   91.60   313.50   9846.71   1499.20   1043.58   -1076.82
  46   11386.00   92.70   314.70   9843.18   1593.11   1108.95   -1144.28
  47   11482.00   93.10   313.30   9838.33   1688.96   1175.55   -1213.25
  48   11578.00   93.90   313.10   9832.47   1784.71   1241.15   -1283.10
  49   11674.00   94.00   311.70   9825.85   1880.36   1305.72   -1353.82
  50   11770.00   93.30   312.90   9819.74   1976.03   1370.20   -1424.68
  51   11865.00   93.30   314.70   9814.27   2070.83   1435.84   -1493.13
  52   11960.00   94.40   315.90   9807.89   2165.62   1503.21   -1559.80
  53   12056.00   94.80   316.60   9800.19   2261.29   1572.34   -1625.97
  54   12152.00   94.30   317.00   9792.58   2356.96   1642.10   -1691.48
  55   12248.00   92.50   317.00   9786.89   2452.75   1712.18   -1756.83
  56   12344.00   90.70   314.40   9784.21   2548.69   1780.85   -1823.84
  57   12439.00   92.10   316.50   9781.88   2643.66   1848.52   -1890.46
  58   12535.00   92.70   316.30   9777.86   2739.55   1917.98   -1956.61
  59   12631.00   92.20   314.90   9773.76   2835.46   1986.51   -2023.71
  60   12727.00   92.30   315.80   9769.99   2931.39   2054.75   -2091.13
  61   12822.00   90.70   317.00   9767.50   3026.33   2123.52   -2156.62
  62   12918.00   91.50   319.40   9765.66   3122.19   2195.07   -2220.59
  63   13014.00   90.70   318.70   9763.82   3217.96   2267.56   -2283.49
  64   13105.00   91.90   318.90   9761.75   3308.77   2336.01   -2343.42
  65   13200.00   90.70   316.80   9759.60   3403.65   2406.42   -2407.15
  66   13296.00   89.40   314.50   9759.52   3499.64   2475.06   -2474.25
  67   13392.00   88.50   314.20   9761.27   3595.61   2542.16   -2542.88
  68   13486.00   88.50   314.00   9763.74   3689.55   2607.55   -2610.37
  69   13582.00   89.30   313.80   9765.58   3785.51   2674.10   -2679.52
  70   13678.00   89.40   313.50   9766.67   3881.46   2740.36   -2748.98
  71   13774.00   90.00   313.10   9767.17   3977.40   2806.20   -2818.85
  72   13868.00   90.40   312.40   9766.84   4071.30   2870.01   -2887.87
  73   13960.00   91.30   312.60   9765.48   4163.18   2932.15   -2955.69
  74   14054.00   91.20   315.60   9763.43   4257.12   2997.55   -3023.17
  75   14148.00   92.40   318.20   9760.47   4351.03   3066.14   -3087.36
  76   14241.00   91.80   316.50   9757.06   4443.91   3134.49   -3150.33
  77   14334.00   91.70   315.90   9754.22   4536.85   3201.58   -3214.67

# MNEM   .UNIT    DATA   INFORMATION                                                               
#--------------------------------------------------------------------------------------------------
~Curve Information
 DEPTH   .FT             :Measured Depth                                                           
    MD   .FT             :Measured depth.                                                          
   TVD   .FT             :True vertical depth.                                                     
   ROP   .FT/HR          :Rate of penetration at bit depth.                                        
    GR   .API            :API corrected gamma counts from all gamma configurations at sensor depth.

#   DEPTH         MD       TVD       ROP         GR
#--------------------------------------------------
~ASCII Log
# ...
 11773.21   11773.21   9819.56     14.64      47.50
 11774.21   11774.21   9819.50     18.96      46.00
 11775.21   11775.21   9819.44     34.72      46.00
 11776.21   11776.21   9819.38     55.38      46.00
 11777.21   11777.21   9819.33     73.15      44.00
 11778.21   11778.21   9819.27     80.33      44.00
 11779.21   11779.21   9819.21     88.78      44.00
 11780.21   11780.21   9819.15     96.75      45.59
 11781.21   11781.21   9819.10     99.47      46.00
 11782.21   11782.21   9819.04    101.25      46.00
 11783.21   11783.21   9818.98    115.37      48.07
 11784.21   11784.21   9818.92    118.99      50.00
 11785.21   11785.21   9818.87    118.14      50.00
 11786.21   11786.21   9818.81    114.26      53.31
 11787.21   11787.21   9818.75    113.69      54.00
 11788.21   11788.21   9818.69    106.36      54.00
 11789.21   11789.21   9818.64    115.90      54.00
 11790.21   11790.21   9818.58    113.05      54.00
 11791.21   11791.21   9818.52    106.09      54.00
 11792.21   11792.21   9818.46    106.88      57.29
 11793.21   11793.21   9818.41    108.79      58.00
 11794.21   11794.21   9818.35    108.56      58.00
 11795.21   11795.21   9818.29    109.50      58.00
 11796.21   11796.21   9818.23    106.13      58.00
 11797.21   11797.21   9818.18    101.14      58.00
 11798.21   11798.21   9818.12    100.64      58.02
 11799.21   11799.21   9818.06    101.84      60.00
 11800.21   11800.21   9818.00    104.37      60.00
 11801.21   11801.21   9817.94    106.26      58.98
 11802.21   11802.21   9817.89     98.31      58.00
 11803.21   11803.21   9817.83    104.17      58.00
 11804.21   11804.21   9817.77    110.99      60.67
 11805.21   11805.21   9817.71    108.83      60.18
 11806.21   11806.21   9817.66    106.02      58.29
 11807.21   11807.21   9817.60    102.07      59.33
 11808.21   11808.21   9817.54     87.09      58.00
 11809.21   11809.21   9817.48     71.71      58.00
 11810.21   11810.21   9817.43     93.85      56.00
 11811.21   11811.21   9817.37    100.25      58.00
 11812.21   11812.21   9817.31     87.58      58.00
 11813.21   11813.21   9817.25     85.41      56.67
 11814.21   11814.21   9817.20     85.75      54.67
 11815.21   11815.21   9817.14     92.96      56.33
 11816.21   11816.21   9817.08    100.29      58.00
 11817.21   11817.21   9817.02    106.60      58.00
 11818.21   11818.21   9816.97    108.53      58.00
 11819.21   11819.21   9816.91    110.08      58.00
 11820.21   11820.21   9816.85    106.19      57.68
 11821.21   11821.21   9816.79    102.83      56.00
 11822.21   11822.21   9816.74    101.67      57.38
 11823.21   11823.21   9816.68    101.50      55.33
 11824.21   11824.21   9816.62    103.53      50.00
 11825.21   11825.21   9816.56    104.88      52.00
 11826.21   11826.21   9816.51     98.12      51.33
 11827.21   11827.21   9816.45     97.42      50.38
 11828.21   11828.21   9816.39     99.71      54.00
 11829.21   11829.21   9816.33     96.80      53.28
 11830.21   11830.21   9816.28     82.28      50.00
 11831.21   11831.21   9816.22     99.36      50.00
 11832.21   11832.21   9816.16    121.11      50.00
 11833.21   11833.21   9816.10     91.48      50.00
 11834.21   11834.21   9816.05     88.78      49.01
 11835.21   11835.21   9815.99     85.81      48.00
 11836.21   11836.21   9815.93     81.36      49.33
 11837.21   11837.21   9815.87     79.98      52.00
 11838.21   11838.21   9815.81     77.78      52.00
 11839.21   11839.21   9815.76     75.68      48.82
 11840.21   11840.21   9815.70     62.86      49.33
 11841.21   11841.21   9815.64     56.51      52.00
 11842.21   11842.21   9815.58     13.20      51.33
 11843.21   11843.21   9815.53    275.25      50.00
 11844.21   11844.21   9815.47    188.59      50.00
 11845.21   11845.21   9815.41     71.05      50.00
 11846.21   11846.21   9815.35     17.66      50.00
 11847.21   11847.21   9815.30     16.41      46.00
 11848.21   11848.21   9815.24     14.68      46.00
 11849.21   11849.21   9815.18     21.22      48.00
 11850.21   11850.21   9815.12     25.91      48.00
 11851.21   11851.21   9815.07     24.09      48.00
 11852.21   11852.21   9815.01     27.24      48.00
 11853.21   11853.21   9814.95     29.31      48.00
 11854.21   11854.21   9814.89     36.24      49.44
 11855.21   11855.21   9814.84     39.90      50.00
 11856.21   11856.21   9814.78     43.76      46.00
 11857.21   11857.21   9814.72     39.01      46.00
 11858.21   11858.21   9814.66     38.08      50.80
 11859.21   11859.21   9814.61     38.48      52.99
 11860.21   11860.21   9814.55     39.93      56.00
 11861.21   11861.21   9814.49     41.58      55.33
 11862.21   11862.21   9814.43     43.62      54.00
 11863.21   11863.21   9814.38     43.35      54.00
 11864.21   11864.21   9814.32     50.95      54.00
 11865.21   11865.21   9814.26     48.65      54.00
 11866.21   11866.21   9814.19     40.12      54.00
 11867.21   11867.21   9814.12     44.48      54.00
 11868.21   11868.21   9814.06     42.68      52.40
 11869.21   11869.21   9813.99     43.77      52.00
 11870.21   11870.21   9813.92     38.51      52.47
 11871.21   11871.21   9813.86     43.26      54.00
 11872.21   11872.21   9813.79     65.72      55.66
 11873.21   11873.21   9813.72     74.97      54.40
 11874.21   11874.21   9813.65     76.62      54.98
 11875.21   11875.21   9813.59     81.52      58.00
 11876.21   11876.21   9813.52     78.68      58.00
 11877.21   11877.21   9813.45     76.12      56.34
 11878.21   11878.21   9813.39     70.79      55.33
 11879.21   11879.21   9813.32     62.30      54.00
 11880.21   11880.21   9813.25     58.78      52.00
 11881.21   11881.21   9813.18     47.42      50.00
 11882.21   11882.21   9813.12     38.42      46.00
 11883.21   11883.21   9813.05     41.65      46.00
 11884.21   11884.21   9812.98     64.42      48.47
 11885.21   11885.21   9812.92     64.44      50.00
 11886.21   11886.21   9812.85     63.51      50.00
 11887.21   11887.21   9812.78     69.94      50.00
 11888.21   11888.21   9812.71     68.39      48.70
 11889.21   11889.21   9812.65     65.46      48.00
 11890.21   11890.21   9812.58     64.52      46.00
 11891.21   11891.21   9812.51     57.60      42.00
 11892.21   11892.21   9812.45     53.77      41.66
 11893.21   11893.21   9812.38     54.46      38.00
 11894.21   11894.21   9812.31     56.20      38.28
 11895.21   11895.21   9812.24     59.47      40.00
 11896.21   11896.21   9812.18     65.19      38.67
 11897.21   11897.21   9812.11     65.06      35.70
 11898.21   11898.21   9812.04     66.89      34.00
 11899.21   11899.21   9811.98     67.92      30.67
 11900.21   11900.21   9811.91     66.41      32.00
 11901.21   11901.21   9811.84     57.42      32.00
 11902.21   11902.21   9811.77     53.22      32.00
 11903.21   11903.21   9811.71     54.71      32.58
 11904.21   11904.21   9811.64     61.36      38.67
 11905.21   11905.21   9811.57     57.67      39.26
 11906.21   11906.21   9811.51     54.13      36.67
 11907.21   11907.21   9811.44     50.95      37.85
 11908.21   11908.21   9811.37     51.82      36.90
 11909.21   11909.21   9811.30     50.60      39.01
 11910.21   11910.21   9811.24     47.51      38.00
 11911.21   11911.21   9811.17     45.63      38.00
 11912.21   11912.21   9811.10     44.01      41.05
 11913.21   11913.21   9811.04     43.83      41.33
 11914.21   11914.21   9810.97     42.51      40.47
 11915.21   11915.21   9810.90     40.72      40.00
 11916.21   11916.21   9810.83     41.09      40.35
 11917.21   11917.21   9810.77     41.88      39.98
 11918.21   11918.21   9810.70     40.71      39.83
 11919.21   11919.21   9810.63     44.90      38.00
 11920.21   11920.21   9810.57     46.49      38.89
 11921.21   11921.21   9810.50     47.46      41.28
 11922.21   11922.21   9810.43     48.59      42.00
 11923.21   11923.21   9810.36     48.64      42.00
 11924.21   11924.21   9810.30     40.07      40.67
 11925.21   11925.21   9810.23     21.49      38.00
 11926.21   11926.21   9810.16     36.87      39.00
