###########################################
# File generated by DigiDrill LAS Builder #
###########################################
~Version Information
VERS.   2.0   :LAS Version 2.0        
WRAP.    NO   :One line per depth step

#MNEM   .UNIT                 DATA   INFORMATION       
#------------------------------------------------------
~Well Information
 STRT   .FT                9001.21   :Start Depth      
 STOP   .FT               14403.00   :Stop Depth       
 STEP   .FT                   1.00   :Step Value       
 NULL   .                 -9999.00   :NULL Value       
 DATE   .                7/26/2010   :Date             
 SRVC   .                Drake MWD   :Service Company  
 COMP   .              El Paso E&P   :Operating Company
 WELL   .                Hixon #5H   :Well             
  FLD   .       EGFD Shale TXSZ'27   :Field            
  LOC   .                  Cotulla   :Location         
 CNTY   .                  LaSalle   :County           
 STAT   .                       TX   :State            
 CTRY   .                      USA   :Country          
  UWI   .               4228332299   :UWI Number       
  API   .               4228332299   :API Number       

#SURVEYS:
#SVY      DEPTH    INCL      AZM       TVD        VS      N/-S       E/-W
#------------------------------------------------------------------------
~Other Information
   0    8857.00    2.38   147.94   8847.00   -205.32   -150.52     139.80
   1    8937.00    4.40   278.70   8926.93   -204.48   -151.46     137.65
   2    8969.00    9.40   291.50   8958.69   -201.11   -150.32     134.00
   3    9001.00   12.30   297.30   8990.11   -195.47   -147.80     128.54
   4    9097.00   11.90   308.20   9083.99   -175.92   -136.99     111.67
   5    9192.00   10.40   317.30   9177.20   -157.63   -124.63      98.16
   6    9288.00    9.50   313.80   9271.76   -141.05   -112.77      86.56
   7    9380.00    8.60   311.90   9362.61   -126.60   -102.93      75.96
   8    9413.00    8.90   311.90   9395.23   -121.59    -99.57      72.23
   9    9444.00   11.60   314.20   9425.73   -116.07    -95.80      68.21
  10    9476.00   14.80   317.30   9456.88   -108.77    -90.55      63.13
  11    9508.00   18.20   319.60   9487.56    -99.70    -83.74      57.11
  12    9540.00   21.60   319.10   9517.64    -88.84    -75.48      50.02
  13    9571.00   25.00   318.20   9546.11    -76.60    -66.28      41.91
  14    9603.00   27.60   318.40   9574.80    -62.44    -55.69      32.48
  15    9635.00   29.60   319.30   9602.89    -47.15    -44.16      22.41
  16    9667.00   32.00   320.70   9630.38    -30.82    -31.60      11.88
  17    9699.00   34.20   320.90   9657.18    -13.43    -18.06       0.84
  18    9731.00   37.20   320.20   9683.17      5.16     -3.65     -11.03
  19    9763.00   41.10   317.70   9707.98     25.32     11.57     -24.31
  20    9795.00   44.90   316.50   9731.38     47.13     27.55     -39.17
  21    9826.00   48.80   316.30   9752.57     69.74     43.92     -54.76
  22    9858.00   52.80   316.30   9772.79     94.53     61.85     -71.89
  23    9890.00   56.20   316.50   9791.38    120.57     80.71     -89.85
  24    9922.00   58.70   316.50   9808.59    147.54    100.28    -108.42
  25    9954.00   61.30   316.50   9824.59    175.24    120.38    -127.49
  26    9986.00   64.50   315.60   9839.17    203.72    140.88    -147.26
  27   10018.00   67.40   314.90   9852.21    232.94    161.63    -167.83
  28   10050.00   70.50   313.80   9863.70    262.80    182.50    -189.19
  29   10082.00   74.00   313.50   9873.45    293.25    203.54    -211.24
  30   10114.00   76.90   314.20   9881.49    324.21    224.99    -233.57
  31   10146.00   79.60   314.40   9888.01    355.54    246.87    -255.99
  32   10178.00   82.70   314.50   9892.93    387.15    269.01    -278.56
  33   10209.00   86.30   314.20   9895.90    418.00    290.58    -300.62
  34   10241.00   89.00   314.20   9897.21    449.96    312.87    -323.54
  35   10336.00   91.00   314.50   9897.21    544.94    379.27    -391.47
  36   10432.00   94.80   315.10   9892.36    640.80    446.82    -459.49
  37   10527.00   95.50   314.20   9883.83    735.40    513.31    -526.80
  38   10624.00   92.40   314.00   9877.15    832.14    580.64    -596.29
  39   10719.00   93.40   314.20   9872.34    927.00    646.67    -664.42
  40   10813.00   92.90   315.20   9867.18   1020.85    712.69    -731.13
  41   10908.00   92.80   314.20   9862.45   1115.72    779.43    -798.57
  42   11004.00   92.30   312.90   9858.18   1211.58    845.50    -868.08
  43   11101.00   92.30   313.80   9854.29   1308.44    912.03    -938.56
  44   11196.00   92.60   313.50   9850.23   1403.32    977.55   -1007.24
  45   11292.00   91.60   313.50   9846.71   1499.20   1043.58   -1076.82
  46   11386.00   92.70   314.70   9843.18   1593.11   1108.95   -1144.28
  47   11482.00   93.10   313.30   9838.33   1688.96   1175.55   -1213.25
  48   11578.00   93.90   313.10   9832.47   1784.71   1241.15   -1283.10
  49   11674.00   94.00   311.70   9825.85   1880.36   1305.72   -1353.82
  50   11770.00   93.30   312.90   9819.74   1976.03   1370.20   -1424.68
  51   11865.00   93.30   314.70   9814.27   2070.83   1435.84   -1493.13
  52   11960.00   94.40   315.90   9807.89   2165.62   1503.21   -1559.80
  53   12056.00   94.80   316.60   9800.19   2261.29   1572.34   -1625.97
  54   12152.00   94.30   317.00   9792.58   2356.96   1642.10   -1691.48
  55   12248.00   92.50   317.00   9786.89   2452.75   1712.18   -1756.83
  56   12344.00   90.70   314.40   9784.21   2548.69   1780.85   -1823.84
  57   12439.00   92.10   316.50   9781.88   2643.66   1848.52   -1890.46
  58   12535.00   92.70   316.30   9777.86   2739.55   1917.98   -1956.61
  59   12631.00   92.20   314.90   9773.76   2835.46   1986.51   -2023.71
  60   12727.00   92.30   315.80   9769.99   2931.39   2054.75   -2091.13
  61   12822.00   90.70   317.00   9767.50   3026.33   2123.52   -2156.62
  62   12918.00   91.50   319.40   9765.66   3122.19   2195.07   -2220.59
  63   13014.00   90.70   318.70   9763.82   3217.96   2267.56   -2283.49
  64   13105.00   91.90   318.90   9761.75   3308.77   2336.01   -2343.42
  65   13200.00   90.70   316.80   9759.60   3403.65   2406.42   -2407.15
  66   13296.00   89.40   314.50   9759.52   3499.64   2475.06   -2474.25
  67   13392.00   88.50   314.20   9761.27   3595.61   2542.16   -2542.88
  68   13486.00   88.50   314.00   9763.74   3689.55   2607.55   -2610.37
  69   13582.00   89.30   313.80   9765.58   3785.51   2674.10   -2679.52
  70   13678.00   89.40   313.50   9766.67   3881.46   2740.36   -2748.98
  71   13774.00   90.00   313.10   9767.17   3977.40   2806.20   -2818.85
  72   13868.00   90.40   312.40   9766.84   4071.30   2870.01   -2887.87
  73   13960.00   91.30   312.60   9765.48   4163.18   2932.15   -2955.69
  74   14054.00   91.20   315.60   9763.43   4257.12   2997.55   -3023.17
  75   14148.00   92.40   318.20   9760.47   4351.03   3066.14   -3087.36
  76   14241.00   91.80   316.50   9757.06   4443.91   3134.49   -3150.33
  77   14334.00   91.70   315.90   9754.22   4536.85   3201.58   -3214.67

# MNEM   .UNIT    DATA   INFORMATION                                                               
#--------------------------------------------------------------------------------------------------
~Curve Information
 DEPTH   .FT             :Measured Depth                                                           
    MD   .FT             :Measured depth.                                                          
   TVD   .FT             :True vertical depth.                                                     
   ROP   .FT/HR          :Rate of penetration at bit depth.                                        
    GR   .API            :API corrected gamma counts from all gamma configurations at sensor depth.

#   DEPTH         MD       TVD       ROP         GR
#--------------------------------------------------
~ASCII Log
# ...
 12851.21   12851.21   9766.94     93.17      56.83
 12852.21   12852.21   9766.93     90.57      58.00
 12853.21   12853.21   9766.91     91.96      58.00
 12854.21   12854.21   9766.89     90.91      59.31
 12855.21   12855.21   9766.87     92.04      60.00
 12856.21   12856.21   9766.85     90.95      60.00
 12857.21   12857.21   9766.83     93.34      60.95
 12858.21   12858.21   9766.81     95.12      62.00
 12859.21   12859.21   9766.79     92.07      62.00
 12860.21   12860.21   9766.77     93.59      58.73
 12861.21   12861.21   9766.75     95.43      58.00
 12862.21   12862.21   9766.73     94.33      58.74
 12863.21   12863.21   9766.71     96.39      60.00
 12864.21   12864.21   9766.70     96.86      60.00
 12865.21   12865.21   9766.68     97.58      60.00
 12866.21   12866.21   9766.66     93.73      60.00
 12867.21   12867.21   9766.64     97.22      58.89
 12868.21   12868.21   9766.62     95.88      53.00
 12869.21   12869.21   9766.60     96.41      53.00
 12870.21   12870.21   9766.58     92.52      52.02
 12871.21   12871.21   9766.56     89.66      51.00
 12872.21   12872.21   9766.54     91.82      50.25
 12873.21   12873.21   9766.52     90.97      49.00
 12874.21   12874.21   9766.50     91.68      49.00
 12875.21   12875.21   9766.48     91.11      47.00
 12876.21   12876.21   9766.46     90.78      47.00
 12877.21   12877.21   9766.45     89.91      49.00
 12878.21   12878.21   9766.43     94.00      48.55
 12879.21   12879.21   9766.41     94.56      47.00
 12880.21   12880.21   9766.39     95.90      46.63
 12881.21   12881.21   9766.37     96.68      46.00
 12882.21   12882.21   9766.35     95.27      46.00
 12883.21   12883.21   9766.33     94.05      46.00
 12884.21   12884.21   9766.31     91.47      46.00
 12885.21   12885.21   9766.29     85.14      46.00
 12886.21   12886.21   9766.27     76.57      46.00
 12887.21   12887.21   9766.25     73.11      46.00
 12888.21   12888.21   9766.23     42.42      46.00
 12889.21   12889.21   9766.22    112.77      44.00
 12890.21   12890.21   9766.20    107.37      44.00
 12891.21   12891.21   9766.18     91.24      42.28
 12892.21   12892.21   9766.16     95.56      42.00
 12893.21   12893.21   9766.14     97.62      44.00
 12894.21   12894.21   9766.12    102.11      44.00
 12895.21   12895.21   9766.10    105.46      44.00
 12896.21   12896.21   9766.08    100.87      44.00
 12897.21   12897.21   9766.06    104.44      45.29
 12898.21   12898.21   9766.04     99.90      46.00
 12899.21   12899.21   9766.02     99.13      46.00
 12900.21   12900.21   9766.00     99.94      44.00
 12901.21   12901.21   9765.98     96.63      42.33
 12902.21   12902.21   9765.97     90.10      40.00
 12903.21   12903.21   9765.95     88.14      41.33
 12904.21   12904.21   9765.93     83.90      42.00
 12905.21   12905.21   9765.91     80.25      42.00
 12906.21   12906.21   9765.89     79.99      41.56
 12907.21   12907.21   9765.87     83.63      40.00
 12908.21   12908.21   9765.85     87.98      41.51
 12909.21   12909.21   9765.83     88.74      44.00
 12910.21   12910.21   9765.81     88.14      42.85
 12911.21   12911.21   9765.79     87.77      42.00
 12912.21   12912.21   9765.77     89.60      42.00
 12913.21   12913.21   9765.75     84.87      42.00
 12914.21   12914.21   9765.73     74.63      42.00
 12915.21   12915.21   9765.72     69.07      42.00
 12916.21   12916.21   9765.70     73.60      42.00
 12917.21   12917.21   9765.68     75.47      43.28
 12918.21   12918.21   9765.66     72.60      44.00
 12919.21   12919.21   9765.64     70.99      43.33
 12920.21   12920.21   9765.62     73.55      42.00
 12921.21   12921.21   9765.60     61.55      42.79
 12922.21   12922.21   9765.58     45.02      44.00
 12923.21   12923.21   9765.56     83.20      44.00
 12924.21   12924.21   9765.54     70.66      42.00
 12925.21   12925.21   9765.52     71.19      42.00
 12926.21   12926.21   9765.51     72.05      42.00
 12927.21   12927.21   9765.49     75.59      42.00
 12928.21   12928.21   9765.47     69.96      42.00
 12929.21   12929.21   9765.45     68.21      42.00
 12930.21   12930.21   9765.43     71.18      42.00
 12931.21   12931.21   9765.41     68.11      44.00
 12932.21   12932.21   9765.39     66.03      44.00
 12933.21   12933.21   9765.37     68.07      42.84
 12934.21   12934.21   9765.35     67.12      42.00
 12935.21   12935.21   9765.33     69.03      41.67
 12936.21   12936.21   9765.31     66.62      40.00
 12937.21   12937.21   9765.29     68.07      41.03
 12938.21   12938.21   9765.27     72.66      40.29
 12939.21   12939.21   9765.26     74.35      40.00
 12940.21   12940.21   9765.24     72.69      40.00
 12941.21   12941.21   9765.22     71.59      41.69
 12942.21   12942.21   9765.20     39.53      42.00
 12943.21   12943.21   9765.18     32.27      42.00
 12944.21   12944.21   9765.16     20.86      42.00
 12945.21   12945.21   9765.14     72.58      42.00
 12946.21   12946.21   9765.12     54.87      40.00
 12947.21   12947.21   9765.10     49.40      40.00
 12948.21   12948.21   9765.08     56.74      40.00
 12949.21   12949.21   9765.06     65.28      42.00
 12950.21   12950.21   9765.04     65.83      42.00
 12951.21   12951.21   9765.03     63.04      41.25
 12952.21   12952.21   9765.01     63.82      39.07
 12953.21   12953.21   9764.99     64.22      41.94
 12954.21   12954.21   9764.97     66.39      40.43
 12955.21   12955.21   9764.95     65.81      42.35
 12956.21   12956.21   9764.93     67.71      43.25
 12957.21   12957.21   9764.91     70.02      42.78
 12958.21   12958.21   9764.89     70.14      42.00
 12959.21   12959.21   9764.87     68.41      42.00
 12960.21   12960.21   9764.85     67.82      41.90
 12961.21   12961.21   9764.83     69.98      41.25
 12962.21   12962.21   9764.81     69.63      42.77
 12963.21   12963.21   9764.79     70.15      43.64
 12964.21   12964.21   9764.78     69.50      44.00
 12965.21   12965.21   9764.76     69.09      42.68
 12966.21   12966.21   9764.74     75.21      46.00
 12967.21   12967.21   9764.72     75.34      46.00
 12968.21   12968.21   9764.70     76.61      44.36
 12969.21   12969.21   9764.68     77.58      46.00
 12970.21   12970.21   9764.66     77.42      46.00
 12971.21   12971.21   9764.64     78.86      46.00
 12972.21   12972.21   9764.62     83.20      46.64
 12973.21   12973.21   9764.60     82.24      47.77
 12974.21   12974.21   9764.58     81.12      48.57
 12975.21   12975.21   9764.56     83.16      47.34
 12976.21   12976.21   9764.55     80.68      52.85
 12977.21   12977.21   9764.53     80.58      54.67
 12978.21   12978.21   9764.51     78.03      53.00
 12979.21   12979.21   9764.49     79.71      53.00
 12980.21   12980.21   9764.47     58.14      57.23
 12981.21   12981.21   9764.45     80.90      58.00
 12982.21   12982.21   9764.43    126.08      56.00
 12983.21   12983.21   9764.41     92.78      56.00
 12984.21   12984.21   9764.39     77.67      57.70
 12985.21   12985.21   9764.37     79.32      58.00
 12986.21   12986.21   9764.35     78.21      57.39
 12987.21   12987.21   9764.33     79.21      55.00
 12988.21   12988.21   9764.31     82.67      55.00
 12989.21   12989.21   9764.30     82.29      55.00
 12990.21   12990.21   9764.28     80.63      55.00
 12991.21   12991.21   9764.26     44.70      55.00
 12992.21   12992.21   9764.24     48.94      54.03
 12993.21   12993.21   9764.22    100.90      53.00
 12994.21   12994.21   9764.20     86.54      53.00
 12995.21   12995.21   9764.18     27.26      55.46
 12996.21   12996.21   9764.16     14.41      56.00
 12997.21   12997.21   9764.14     17.58      55.83
 12998.21   12998.21   9764.12     12.20      55.00
 12999.21   12999.21   9764.10     20.15      55.00
 13000.21   13000.21   9764.08     17.00      60.00
 13001.21   13001.21   9764.06     14.91      60.00
 13002.21   13002.21   9764.05     20.07      58.36
 13003.21   13003.21   9764.03     11.47      58.00
 13004.21   13004.21   9764.01     14.01      57.21
