###########################################
# File generated by DigiDrill LAS Builder #
###########################################
~Version Information
VERS.   2.0   :LAS Version 2.0        
WRAP.    NO   :One line per depth step

#MNEM   .UNIT                 DATA   INFORMATION       
#------------------------------------------------------
~Well Information
 STRT   .FT                9001.21   :Start Depth      
 STOP   .FT               14403.00   :Stop Depth       
 STEP   .FT                   1.00   :Step Value       
 NULL   .                 -9999.00   :NULL Value       
 DATE   .                7/26/2010   :Date             
 SRVC   .                Drake MWD   :Service Company  
 COMP   .              El Paso E&P   :Operating Company
 WELL   .                Hixon #5H   :Well             
  FLD   .       EGFD Shale TXSZ'27   :Field            
  LOC   .                  Cotulla   :Location         
 CNTY   .                  LaSalle   :County           
 STAT   .                       TX   :State            
 CTRY   .                      USA   :Country          
  UWI   .               4228332299   :UWI Number       
  API   .               4228332299   :API Number       

#SURVEYS:
#SVY      DEPTH    INCL      AZM       TVD        VS      N/-S       E/-W
#------------------------------------------------------------------------
~Other Information
   0    8857.00    2.38   147.94   8847.00   -205.32   -150.52     139.80
   1    8937.00    4.40   278.70   8926.93   -204.48   -151.46     137.65
   2    8969.00    9.40   291.50   8958.69   -201.11   -150.32     134.00
   3    9001.00   12.30   297.30   8990.11   -195.47   -147.80     128.54
   4    9097.00   11.90   308.20   9083.99   -175.92   -136.99     111.67
   5    9192.00   10.40   317.30   9177.20   -157.63   -124.63      98.16
   6    9288.00    9.50   313.80   9271.76   -141.05   -112.77      86.56
   7    9380.00    8.60   311.90   9362.61   -126.60   -102.93      75.96
   8    9413.00    8.90   311.90   9395.23   -121.59    -99.57      72.23
   9    9444.00   11.60   314.20   9425.73   -116.07    -95.80      68.21
  10    9476.00   14.80   317.30   9456.88   -108.77    -90.55      63.13
  11    9508.00   18.20   319.60   9487.56    -99.70    -83.74      57.11
  12    9540.00   21.60   319.10   9517.64    -88.84    -75.48      50.02
  13    9571.00   25.00   318.20   9546.11    -76.60    -66.28      41.91
  14    9603.00   27.60   318.40   9574.80    -62.44    -55.69      32.48
  15    9635.00   29.60   319.30   9602.89    -47.15    -44.16      22.41
  16    9667.00   32.00   320.70   9630.38    -30.82    -31.60      11.88
  17    9699.00   34.20   320.90   9657.18    -13.43    -18.06       0.84
  18    9731.00   37.20   320.20   9683.17      5.16     -3.65     -11.03
  19    9763.00   41.10   317.70   9707.98     25.32     11.57     -24.31
  20    9795.00   44.90   316.50   9731.38     47.13     27.55     -39.17
  21    9826.00   48.80   316.30   9752.57     69.74     43.92     -54.76
  22    9858.00   52.80   316.30   9772.79     94.53     61.85     -71.89
  23    9890.00   56.20   316.50   9791.38    120.57     80.71     -89.85
  24    9922.00   58.70   316.50   9808.59    147.54    100.28    -108.42
  25    9954.00   61.30   316.50   9824.59    175.24    120.38    -127.49
  26    9986.00   64.50   315.60   9839.17    203.72    140.88    -147.26
  27   10018.00   67.40   314.90   9852.21    232.94    161.63    -167.83
  28   10050.00   70.50   313.80   9863.70    262.80    182.50    -189.19
  29   10082.00   74.00   313.50   9873.45    293.25    203.54    -211.24
  30   10114.00   76.90   314.20   9881.49    324.21    224.99    -233.57
  31   10146.00   79.60   314.40   9888.01    355.54    246.87    -255.99
  32   10178.00   82.70   314.50   9892.93    387.15    269.01    -278.56
  33   10209.00   86.30   314.20   9895.90    418.00    290.58    -300.62
  34   10241.00   89.00   314.20   9897.21    449.96    312.87    -323.54
  35   10336.00   91.00   314.50   9897.21    544.94    379.27    -391.47
  36   10432.00   94.80   315.10   9892.36    640.80    446.82    -459.49
  37   10527.00   95.50   314.20   9883.83    735.40    513.31    -526.80
  38   10624.00   92.40   314.00   9877.15    832.14    580.64    -596.29
  39   10719.00   93.40   314.20   9872.34    927.00    646.67    -664.42
  40   10813.00   92.90   315.20   9867.18   1020.85    712.69    -731.13
  41   10908.00   92.80   314.20   9862.45   1115.72    779.43    -798.57
  42   11004.00   92.30   312.90   9858.18   1211.58    845.50    -868.08
  43   11101.00   92.30   313.80   9854.29   1308.44    912.03    -938.56
  44   11196.00   92.60   313.50   9850.23   1403.32    977.55   -1007.24
  45   11292.00   91.60   313.50   9846.71   1499.20   1043.58   -1076.82
  46   11386.00   92.70   314.70   9843.18   1593.11   1108.95   -1144.28
  47   11482.00   93.10   313.30   9838.33   1688.96   1175.55   -1213.25
  48   11578.00   93.90   313.10   9832.47   1784.71   1241.15   -1283.10
  49   11674.00   94.00   311.70   9825.85   1880.36   1305.72   -1353.82
  50   11770.00   93.30   312.90   9819.74   1976.03   1370.20   -1424.68
  51   11865.00   93.30   314.70   9814.27   2070.83   1435.84   -1493.13
  52   11960.00   94.40   315.90   9807.89   2165.62   1503.21   -1559.80
  53   12056.00   94.80   316.60   9800.19   2261.29   1572.34   -1625.97
  54   12152.00   94.30   317.00   9792.58   2356.96   1642.10   -1691.48
  55   12248.00   92.50   317.00   9786.89   2452.75   1712.18   -1756.83
  56   12344.00   90.70   314.40   9784.21   2548.69   1780.85   -1823.84
  57   12439.00   92.10   316.50   9781.88   2643.66   1848.52   -1890.46
  58   12535.00   92.70   316.30   9777.86   2739.55   1917.98   -1956.61
  59   12631.00   92.20   314.90   9773.76   2835.46   1986.51   -2023.71
  60   12727.00   92.30   315.80   9769.99   2931.39   2054.75   -2091.13
  61   12822.00   90.70   317.00   9767.50   3026.33   2123.52   -2156.62
  62   12918.00   91.50   319.40   9765.66   3122.19   2195.07   -2220.59
  63   13014.00   90.70   318.70   9763.82   3217.96   2267.56   -2283.49
  64   13105.00   91.90   318.90   9761.75   3308.77   2336.01   -2343.42
  65   13200.00   90.70   316.80   9759.60   3403.65   2406.42   -2407.15
  66   13296.00   89.40   314.50   9759.52   3499.64   2475.06   -2474.25
  67   13392.00   88.50   314.20   9761.27   3595.61   2542.16   -2542.88
  68   13486.00   88.50   314.00   9763.74   3689.55   2607.55   -2610.37
  69   13582.00   89.30   313.80   9765.58   3785.51   2674.10   -2679.52
  70   13678.00   89.40   313.50   9766.67   3881.46   2740.36   -2748.98
  71   13774.00   90.00   313.10   9767.17   3977.40   2806.20   -2818.85
  72   13868.00   90.40   312.40   9766.84   4071.30   2870.01   -2887.87
  73   13960.00   91.30   312.60   9765.48   4163.18   2932.15   -2955.69
  74   14054.00   91.20   315.60   9763.43   4257.12   2997.55   -3023.17
  75   14148.00   92.40   318.20   9760.47   4351.03   3066.14   -3087.36
  76   14241.00   91.80   316.50   9757.06   4443.91   3134.49   -3150.33
  77   14334.00   91.70   315.90   9754.22   4536.85   3201.58   -3214.67

# MNEM   .UNIT    DATA   INFORMATION                                                               
#--------------------------------------------------------------------------------------------------
~Curve Information
 DEPTH   .FT             :Measured Depth                                                           
    MD   .FT             :Measured depth.                                                          
   TVD   .FT             :True vertical depth.                                                     
   ROP   .FT/HR          :Rate of penetration at bit depth.                                        
    GR   .API            :API corrected gamma counts from all gamma configurations at sensor depth.

#   DEPTH         MD       TVD       ROP         GR
#--------------------------------------------------
~ASCII Log
# ...
 12081.21   12081.21   9798.19     74.15      60.00
 12082.21   12082.21   9798.12     74.03      64.00
 12083.21   12083.21   9798.04     71.96      64.00
 12084.21   12084.21   9797.96     72.43      60.21
 12085.21   12085.21   9797.88     73.04      58.00
 12086.21   12086.21   9797.80     71.96      58.00
 12087.21   12087.21   9797.72     68.49      58.00
 12088.21   12088.21   9797.64     63.75      58.00
 12089.21   12089.21   9797.56     56.86      60.00
 12090.21   12090.21   9797.48     52.92      55.33
 12091.21   12091.21   9797.40     47.78      54.99
 12092.21   12092.21   9797.32     40.92      52.00
 12093.21   12093.21   9797.24     38.10      51.83
 12094.21   12094.21   9797.16     37.81      50.00
 12095.21   12095.21   9797.08     37.79      50.67
 12096.21   12096.21   9797.01     39.03      53.29
 12097.21   12097.21   9796.93     35.69      52.67
 12098.21   12098.21   9796.85     41.20      50.00
 12099.21   12099.21   9796.77     52.73      50.00
 12100.21   12100.21   9796.69     59.55      50.19
 12101.21   12101.21   9796.61     64.43      52.00
 12102.21   12102.21   9796.53     69.83      52.67
 12103.21   12103.21   9796.45     71.40      54.00
 12104.21   12104.21   9796.37     70.22      54.00
 12105.21   12105.21   9796.29     70.21      54.39
 12106.21   12106.21   9796.21     65.62      58.00
 12107.21   12107.21   9796.13     61.71      58.00
 12108.21   12108.21   9796.05     58.93      68.00
 12109.21   12109.21   9795.97     59.78      68.29
 12110.21   12110.21   9795.90     59.88      70.00
 12111.21   12111.21   9795.81     62.04      71.33
 12112.21   12112.21   9795.74     59.15      73.25
 12113.21   12113.21   9795.66     56.21      70.00
 12114.21   12114.21   9795.58     60.68      70.00
 12115.21   12115.21   9795.50     61.02      70.00
 12116.21   12116.21   9795.42     52.21      68.67
 12117.21   12117.21   9795.34     34.35      66.00
 12118.21   12118.21   9795.26    118.69      68.00
 12119.21   12119.21   9795.18    116.14      68.00
 12120.21   12120.21   9795.10     76.90      68.00
 12121.21   12121.21   9795.02    109.56      68.00
 12122.21   12122.21   9794.94    110.13      68.00
 12123.21   12123.21   9794.86    103.00      68.67
 12124.21   12124.21   9794.78    100.85      70.00
 12125.21   12125.21   9794.70     97.32      70.00
 12126.21   12126.21   9794.63     95.00      70.00
 12127.21   12127.21   9794.55    101.08      69.33
 12128.21   12128.21   9794.47     70.64      68.00
 12129.21   12129.21   9794.39    101.14      68.19
 12130.21   12130.21   9794.31    102.27      70.00
 12131.21   12131.21   9794.23     38.24      68.00
 12132.21   12132.21   9794.15     26.55      68.67
 12133.21   12133.21   9794.07     25.94      70.00
 12134.21   12134.21   9793.99     17.56      68.67
 12135.21   12135.21   9793.91     12.91      66.00
 12136.21   12136.21   9793.83     14.63      66.36
 12137.21   12137.21   9793.75     18.76      68.00
 12138.21   12138.21   9793.67     15.40      68.00
 12139.21   12139.21   9793.59     14.45      68.00
 12140.21   12140.21   9793.52     20.40      68.00
 12141.21   12141.21   9793.44     24.71      68.00
 12142.21   12142.21   9793.36     59.23      68.00
 12143.21   12143.21   9793.28     41.13      66.67
 12144.21   12144.21   9793.20     52.20      64.00
 12145.21   12145.21   9793.12     62.84      64.00
 12146.21   12146.21   9793.04     46.96      63.33
 12147.21   12147.21   9792.96     54.37      62.00
 12148.21   12148.21   9792.88     59.63      62.00
 12149.21   12149.21   9792.80     58.69      57.90
 12150.21   12150.21   9792.72     55.48      56.00
 12151.21   12151.21   9792.64     52.88      56.00
 12152.21   12152.21   9792.57     59.74      56.00
 12153.21   12153.21   9792.51     62.35      53.23
 12154.21   12154.21   9792.45     60.86      51.83
 12155.21   12155.21   9792.39     53.00      50.00
 12156.21   12156.21   9792.33     46.00      50.00
 12157.21   12157.21   9792.27     66.40      48.67
 12158.21   12158.21   9792.21     56.62      46.00
 12159.21   12159.21   9792.15     51.11      45.83
 12160.21   12160.21   9792.09     49.24      44.00
 12161.21   12161.21   9792.03     44.79      44.00
 12162.21   12162.21   9791.97     47.13      43.00
 12163.21   12163.21   9791.91     51.70      42.00
 12164.21   12164.21   9791.85     38.76      42.00
 12165.21   12165.21   9791.80     40.04      39.49
 12166.21   12166.21   9791.74     37.80      38.00
 12167.21   12167.21   9791.68     35.30      38.35
 12168.21   12168.21   9791.62     34.85      42.00
 12169.21   12169.21   9791.56     31.65      40.95
 12170.21   12170.21   9791.50     34.55      40.00
 12171.21   12171.21   9791.44     37.71      40.00
 12172.21   12172.21   9791.38     37.17      40.00
 12173.21   12173.21   9791.32     38.28      40.00
 12174.21   12174.21   9791.26     44.61      40.00
 12175.21   12175.21   9791.20     50.26      40.00
 12176.21   12176.21   9791.14     55.27      40.00
 12177.21   12177.21   9791.08     63.00      39.70
 12178.21   12178.21   9791.02     72.66      38.00
 12179.21   12179.21   9790.97     79.46      38.00
 12180.21   12180.21   9790.91     85.38      40.67
 12181.21   12181.21   9790.85     92.49      46.00
 12182.21   12182.21   9790.79     93.06      46.00
 12183.21   12183.21   9790.73     98.18      46.00
 12184.21   12184.21   9790.67    104.75      46.00
 12185.21   12185.21   9790.61    104.25      46.32
 12186.21   12186.21   9790.55    107.34      48.29
 12187.21   12187.21   9790.49    101.90      50.00
 12188.21   12188.21   9790.43     98.10      50.00
 12189.21   12189.21   9790.37     94.49      50.33
 12190.21   12190.21   9790.31     93.54      51.00
 12191.21   12191.21   9790.25     94.38      50.67
 12192.21   12192.21   9790.19     89.27      48.47
 12193.21   12193.21   9790.14     84.86      50.00
 12194.21   12194.21   9790.08     64.98      48.67
 12195.21   12195.21   9790.02     61.96      50.00
 12196.21   12196.21   9789.96     59.29      51.01
 12197.21   12197.21   9789.90     53.13      48.47
 12198.21   12198.21   9789.84     50.73      49.33
 12199.21   12199.21   9789.78     44.47      50.11
 12200.21   12200.21   9789.72     43.86      51.33
 12201.21   12201.21   9789.66     45.79      49.33
 12202.21   12202.21   9789.60     38.15      48.47
 12203.21   12203.21   9789.54     34.21      48.67
 12204.21   12204.21   9789.48     40.98      47.05
 12205.21   12205.21   9789.42     46.65      50.30
 12206.21   12206.21   9789.36     63.98      51.33
 12207.21   12207.21   9789.31     71.37      50.17
 12208.21   12208.21   9789.25     74.47      50.00
 12209.21   12209.21   9789.19     83.75      46.00
 12210.21   12210.21   9789.13     85.07      46.00
 12211.21   12211.21   9789.07     84.79      46.67
 12212.21   12212.21   9789.01     75.32      48.00
 12213.21   12213.21   9788.95     88.80      48.00
 12214.21   12214.21   9788.89     82.72      48.00
 12215.21   12215.21   9788.83     87.88      51.19
 12216.21   12216.21   9788.77    119.08      52.00
 12217.21   12217.21   9788.71    122.08      52.00
 12218.21   12218.21   9788.65    122.54      52.67
 12219.21   12219.21   9788.59    120.78      54.00
 12220.21   12220.21   9788.53    112.88      54.00
 12221.21   12221.21   9788.48    109.87      54.00
 12222.21   12222.21   9788.42    102.67      54.00
 12223.21   12223.21   9788.36     76.21      54.00
 12224.21   12224.21   9788.30     21.27      53.51
 12225.21   12225.21   9788.24    345.69      52.00
 12226.21   12226.21   9788.18    940.34      52.00
 12227.21   12227.21   9788.12     18.25      50.67
 12228.21   12228.21   9788.06     18.69      50.00
 12229.21   12229.21   9788.00     19.68      50.00
 12230.21   12230.21   9787.94     21.09      54.00
 12231.21   12231.21   9787.88     22.60      54.00
 12232.21   12232.21   9787.82     18.49      54.00
 12233.21   12233.21   9787.76      8.82      50.75
 12234.21   12234.21   9787.70     14.71      50.00
