###########################################
# File generated by DigiDrill LAS Builder #
###########################################
~Version Information
VERS.   2.0   :LAS Version 2.0        
WRAP.    NO   :One line per depth step

#MNEM   .UNIT                 DATA   INFORMATION       
#------------------------------------------------------
~Well Information
 STRT   .FT                9001.21   :Start Depth      
 STOP   .FT               14403.00   :Stop Depth       
 STEP   .FT                   1.00   :Step Value       
 NULL   .                 -9999.00   :NULL Value       
 DATE   .                7/26/2010   :Date             
 SRVC   .                Drake MWD   :Service Company  
 COMP   .              El Paso E&P   :Operating Company
 WELL   .                Hixon #5H   :Well             
  FLD   .       EGFD Shale TXSZ'27   :Field            
  LOC   .                  Cotulla   :Location         
 CNTY   .                  LaSalle   :County           
 STAT   .                       TX   :State            
 CTRY   .                      USA   :Country          
  UWI   .               4228332299   :UWI Number       
  API   .               4228332299   :API Number       

#SURVEYS:
#SVY      DEPTH    INCL      AZM       TVD        VS      N/-S       E/-W
#------------------------------------------------------------------------
~Other Information
   0    8857.00    2.38   147.94   8847.00   -205.32   -150.52     139.80
   1    8937.00    4.40   278.70   8926.93   -204.48   -151.46     137.65
   2    8969.00    9.40   291.50   8958.69   -201.11   -150.32     134.00
   3    9001.00   12.30   297.30   8990.11   -195.47   -147.80     128.54
   4    9097.00   11.90   308.20   9083.99   -175.92   -136.99     111.67
   5    9192.00   10.40   317.30   9177.20   -157.63   -124.63      98.16
   6    9288.00    9.50   313.80   9271.76   -141.05   -112.77      86.56
   7    9380.00    8.60   311.90   9362.61   -126.60   -102.93      75.96
   8    9413.00    8.90   311.90   9395.23   -121.59    -99.57      72.23
   9    9444.00   11.60   314.20   9425.73   -116.07    -95.80      68.21
  10    9476.00   14.80   317.30   9456.88   -108.77    -90.55      63.13
  11    9508.00   18.20   319.60   9487.56    -99.70    -83.74      57.11
  12    9540.00   21.60   319.10   9517.64    -88.84    -75.48      50.02
  13    9571.00   25.00   318.20   9546.11    -76.60    -66.28      41.91
  14    9603.00   27.60   318.40   9574.80    -62.44    -55.69      32.48
  15    9635.00   29.60   319.30   9602.89    -47.15    -44.16      22.41
  16    9667.00   32.00   320.70   9630.38    -30.82    -31.60      11.88
  17    9699.00   34.20   320.90   9657.18    -13.43    -18.06       0.84
  18    9731.00   37.20   320.20   9683.17      5.16     -3.65     -11.03
  19    9763.00   41.10   317.70   9707.98     25.32     11.57     -24.31
  20    9795.00   44.90   316.50   9731.38     47.13     27.55     -39.17
  21    9826.00   48.80   316.30   9752.57     69.74     43.92     -54.76
  22    9858.00   52.80   316.30   9772.79     94.53     61.85     -71.89
  23    9890.00   56.20   316.50   9791.38    120.57     80.71     -89.85
  24    9922.00   58.70   316.50   9808.59    147.54    100.28    -108.42
  25    9954.00   61.30   316.50   9824.59    175.24    120.38    -127.49
  26    9986.00   64.50   315.60   9839.17    203.72    140.88    -147.26
  27   10018.00   67.40   314.90   9852.21    232.94    161.63    -167.83
  28   10050.00   70.50   313.80   9863.70    262.80    182.50    -189.19
  29   10082.00   74.00   313.50   9873.45    293.25    203.54    -211.24
  30   10114.00   76.90   314.20   9881.49    324.21    224.99    -233.57
  31   10146.00   79.60   314.40   9888.01    355.54    246.87    -255.99
  32   10178.00   82.70   314.50   9892.93    387.15    269.01    -278.56
  33   10209.00   86.30   314.20   9895.90    418.00    290.58    -300.62
  34   10241.00   89.00   314.20   9897.21    449.96    312.87    -323.54
  35   10336.00   91.00   314.50   9897.21    544.94    379.27    -391.47
  36   10432.00   94.80   315.10   9892.36    640.80    446.82    -459.49
  37   10527.00   95.50   314.20   9883.83    735.40    513.31    -526.80
  38   10624.00   92.40   314.00   9877.15    832.14    580.64    -596.29
  39   10719.00   93.40   314.20   9872.34    927.00    646.67    -664.42
  40   10813.00   92.90   315.20   9867.18   1020.85    712.69    -731.13
  41   10908.00   92.80   314.20   9862.45   1115.72    779.43    -798.57
  42   11004.00   92.30   312.90   9858.18   1211.58    845.50    -868.08
  43   11101.00   92.30   313.80   9854.29   1308.44    912.03    -938.56
  44   11196.00   92.60   313.50   9850.23   1403.32    977.55   -1007.24
  45   11292.00   91.60   313.50   9846.71   1499.20   1043.58   -1076.82
  46   11386.00   92.70   314.70   9843.18   1593.11   1108.95   -1144.28
  47   11482.00   93.10   313.30   9838.33   1688.96   1175.55   -1213.25
  48   11578.00   93.90   313.10   9832.47   1784.71   1241.15   -1283.10
  49   11674.00   94.00   311.70   9825.85   1880.36   1305.72   -1353.82
  50   11770.00   93.30   312.90   9819.74   1976.03   1370.20   -1424.68
  51   11865.00   93.30   314.70   9814.27   2070.83   1435.84   -1493.13
  52   11960.00   94.40   315.90   9807.89   2165.62   1503.21   -1559.80
  53   12056.00   94.80   316.60   9800.19   2261.29   1572.34   -1625.97
  54   12152.00   94.30   317.00   9792.58   2356.96   1642.10   -1691.48
  55   12248.00   92.50   317.00   9786.89   2452.75   1712.18   -1756.83
  56   12344.00   90.70   314.40   9784.21   2548.69   1780.85   -1823.84
  57   12439.00   92.10   316.50   9781.88   2643.66   1848.52   -1890.46
  58   12535.00   92.70   316.30   9777.86   2739.55   1917.98   -1956.61
  59   12631.00   92.20   314.90   9773.76   2835.46   1986.51   -2023.71
  60   12727.00   92.30   315.80   9769.99   2931.39   2054.75   -2091.13
  61   12822.00   90.70   317.00   9767.50   3026.33   2123.52   -2156.62
  62   12918.00   91.50   319.40   9765.66   3122.19   2195.07   -2220.59
  63   13014.00   90.70   318.70   9763.82   3217.96   2267.56   -2283.49
  64   13105.00   91.90   318.90   9761.75   3308.77   2336.01   -2343.42
  65   13200.00   90.70   316.80   9759.60   3403.65   2406.42   -2407.15
  66   13296.00   89.40   314.50   9759.52   3499.64   2475.06   -2474.25
  67   13392.00   88.50   314.20   9761.27   3595.61   2542.16   -2542.88
  68   13486.00   88.50   314.00   9763.74   3689.55   2607.55   -2610.37
  69   13582.00   89.30   313.80   9765.58   3785.51   2674.10   -2679.52
  70   13678.00   89.40   313.50   9766.67   3881.46   2740.36   -2748.98
  71   13774.00   90.00   313.10   9767.17   3977.40   2806.20   -2818.85
  72   13868.00   90.40   312.40   9766.84   4071.30   2870.01   -2887.87
  73   13960.00   91.30   312.60   9765.48   4163.18   2932.15   -2955.69
  74   14054.00   91.20   315.60   9763.43   4257.12   2997.55   -3023.17
  75   14148.00   92.40   318.20   9760.47   4351.03   3066.14   -3087.36
  76   14241.00   91.80   316.50   9757.06   4443.91   3134.49   -3150.33
  77   14334.00   91.70   315.90   9754.22   4536.85   3201.58   -3214.67

# MNEM   .UNIT    DATA   INFORMATION                                                               
#--------------------------------------------------------------------------------------------------
~Curve Information
 DEPTH   .FT             :Measured Depth                                                           
    MD   .FT             :Measured depth.                                                          
   TVD   .FT             :True vertical depth.                                                     
   ROP   .FT/HR          :Rate of penetration at bit depth.                                        
    GR   .API            :API corrected gamma counts from all gamma configurations at sensor depth.

#   DEPTH         MD       TVD       ROP         GR
#--------------------------------------------------
~ASCII Log
# ...
 11465.21   11465.21   9839.18     11.70      43.65
 11466.21   11466.21   9839.13     14.85      44.00
 11467.21   11467.21   9839.07     16.77      44.00
 11468.21   11468.21   9839.02     14.99      44.00
 11469.21   11469.21   9838.97     19.59      44.00
 11470.21   11470.21   9838.92     18.66      44.00
 11471.21   11471.21   9838.87     18.97      44.00
 11472.21   11472.21   9838.82     20.53      44.16
 11473.21   11473.21   9838.77     20.38      46.00
 11474.21   11474.21   9838.72     15.08      46.00
 11475.21   11475.21   9838.67     15.27      46.99
 11476.21   11476.21   9838.62     17.57      48.00
 11477.21   11477.21   9838.57     15.78      48.00
 11478.21   11478.21   9838.52     18.22      48.00
 11479.21   11479.21   9838.47     21.54      44.00
 11480.21   11480.21   9838.42     22.21      44.00
 11481.21   11481.21   9838.37     22.49      43.55
 11482.21   11482.21   9838.31     21.15      42.00
 11483.21   11483.21   9838.25     32.63      42.00
 11484.21   11484.21   9838.19     36.89      43.33
 11485.21   11485.21   9838.13     36.08      44.00
 11486.21   11486.21   9838.07     33.78      44.00
 11487.21   11487.21   9838.01     34.69      42.00
 11488.21   11488.21   9837.95     36.17      42.00
 11489.21   11489.21   9837.89     33.90      41.33
 11490.21   11490.21   9837.83     32.70      40.00
 11491.21   11491.21   9837.76     35.27      40.00
 11492.21   11492.21   9837.70     51.42      40.00
 11493.21   11493.21   9837.64     53.75      40.00
 11494.21   11494.21   9837.58     50.29      40.48
 11495.21   11495.21   9837.52     56.24      46.00
 11496.21   11496.21   9837.46     70.31      46.00
 11497.21   11497.21   9837.40     77.76      47.39
 11498.21   11498.21   9837.34     66.29      48.00
 11499.21   11499.21   9837.28     70.76      48.00
 11500.21   11500.21   9837.22     76.00      44.93
 11501.21   11501.21   9837.15     73.22      42.00
 11502.21   11502.21   9837.09     65.64      42.00
 11503.21   11503.21   9837.03     65.01      41.64
 11504.21   11504.21   9836.97     62.29      40.00
 11505.21   11505.21   9836.91     61.71      40.00
 11506.21   11506.21   9836.85     69.97      38.00
 11507.21   11507.21   9836.79     73.74      38.00
 11508.21   11508.21   9836.73     76.16      38.65
 11509.21   11509.21   9836.67     77.81      42.00
 11510.21   11510.21   9836.60     78.81      42.57
 11511.21   11511.21   9836.54     82.24      48.00
 11512.21   11512.21   9836.48     86.16      48.00
 11513.21   11513.21   9836.42     87.46      48.00
 11514.21   11514.21   9836.36     90.04      49.33
 11515.21   11515.21   9836.30     88.11      52.00
 11516.21   11516.21   9836.24     88.95      48.26
 11517.21   11517.21   9836.18     86.55      46.00
 11518.21   11518.21   9836.12     90.10      46.00
 11519.21   11519.21   9836.06     87.28      46.00
 11520.21   11520.21   9835.99     86.69      46.00
 11521.21   11521.21   9835.93     87.26      50.00
 11522.21   11522.21   9835.87     88.22      50.67
 11523.21   11523.21   9835.81     88.16      52.00
 11524.21   11524.21   9835.75     87.20      52.00
 11525.21   11525.21   9835.69     86.84      52.00
 11526.21   11526.21   9835.63     89.53      52.00
 11527.21   11527.21   9835.57     90.89      51.70
 11528.21   11528.21   9835.51     87.80      50.00
 11529.21   11529.21   9835.44     89.77      51.33
 11530.21   11530.21   9835.38     87.77      54.00
 11531.21   11531.21   9835.32     86.32      52.37
 11532.21   11532.21   9835.26     88.30      52.00
 11533.21   11533.21   9835.20     88.01      54.00
 11534.21   11534.21   9835.14     88.35      54.00
 11535.21   11535.21   9835.08     85.98      54.00
 11536.21   11536.21   9835.02     88.25      53.68
 11537.21   11537.21   9834.96     86.92      52.00
 11538.21   11538.21   9834.90     84.21      52.00
 11539.21   11539.21   9834.83     79.27      50.00
 11540.21   11540.21   9834.77     80.41      50.00
 11541.21   11541.21   9834.71     78.51      50.00
 11542.21   11542.21   9834.65     77.02      50.00
 11543.21   11543.21   9834.59     66.48      50.00
 11544.21   11544.21   9834.53    101.49      50.00
 11545.21   11545.21   9834.47     76.43      50.00
 11546.21   11546.21   9834.41     72.79      50.00
 11547.21   11547.21   9834.35     77.71      50.00
 11548.21   11548.21   9834.28     80.82      50.00
 11549.21   11549.21   9834.22     82.78      50.00
 11550.21   11550.21   9834.16     87.56      50.00
 11551.21   11551.21   9834.10     88.59      48.36
 11552.21   11552.21   9834.04     73.04      48.00
 11553.21   11553.21   9833.98     66.41      48.00
 11554.21   11554.21   9833.92     63.87      46.00
 11555.21   11555.21   9833.86     64.56      46.00
 11556.21   11556.21   9833.80     65.71      46.00
 11557.21   11557.21   9833.74     59.51      46.00
 11558.21   11558.21   9833.67     60.05      46.00
 11559.21   11559.21   9833.61     63.47      45.55
 11560.21   11560.21   9833.55     78.26      44.00
 11561.21   11561.21   9833.49     65.95      44.00
 11562.21   11562.21   9833.43     58.82      44.00
 11563.21   11563.21   9833.37     59.50      44.00
 11564.21   11564.21   9833.31     58.44      44.00
 11565.21   11565.21   9833.25     57.62      43.33
 11566.21   11566.21   9833.19     57.57      42.00
 11567.21   11567.21   9833.12     54.21      42.00
 11568.21   11568.21   9833.06     57.12      44.09
 11569.21   11569.21   9833.00     61.16      46.00
 11570.21   11570.21   9832.94     58.98      46.00
 11571.21   11571.21   9832.88     54.09      42.00
 11572.21   11572.21   9832.82     56.11      42.00
 11573.21   11573.21   9832.76     56.77      44.00
 11574.21   11574.21   9832.70     58.27      48.00
 11575.21   11575.21   9832.64     57.16      48.00
 11576.21   11576.21   9832.58     59.22      48.00
 11577.21   11577.21   9832.51     60.39      48.00
 11578.21   11578.21   9832.45     63.83      47.00
 11579.21   11579.21   9832.38     67.16      44.00
 11580.21   11580.21   9832.31     70.48      44.00
 11581.21   11581.21   9832.25     76.61      44.67
 11582.21   11582.21   9832.18     84.43      46.00
 11583.21   11583.21   9832.11     91.13      45.64
 11584.21   11584.21   9832.04     91.07      42.00
 11585.21   11585.21   9831.97     87.62      42.00
 11586.21   11586.21   9831.90     78.76      42.00
 11587.21   11587.21   9831.83     82.48      42.00
 11588.21   11588.21   9831.76     91.61      42.00
 11589.21   11589.21   9831.69     97.56      43.28
 11590.21   11590.21   9831.63     96.99      44.00
 11591.21   11591.21   9831.56     97.36      44.96
 11592.21   11592.21   9831.49     99.16      48.00
 11593.21   11593.21   9831.42     98.27      50.51
 11594.21   11594.21   9831.35     96.12      52.31
 11595.21   11595.21   9831.28     99.72      54.00
 11596.21   11596.21   9831.21     99.13      52.00
 11597.21   11597.21   9831.14     98.54      52.00
 11598.21   11598.21   9831.07    100.30      52.00
 11599.21   11599.21   9831.01     95.76      56.00
 11600.21   11600.21   9830.94     93.86      56.00
 11601.21   11601.21   9830.87     95.00      56.00
 11602.21   11602.21   9830.80     95.18      56.00
 11603.21   11603.21   9830.73     94.82      56.00
 11604.21   11604.21   9830.66     97.38      56.00
 11605.21   11605.21   9830.59     94.83      56.00
 11606.21   11606.21   9830.52     95.08      56.00
 11607.21   11607.21   9830.45     97.54      56.00
 11608.21   11608.21   9830.39     97.46      56.00
 11609.21   11609.21   9830.32     98.82      54.33
 11610.21   11610.21   9830.25     95.93      54.00
 11611.21   11611.21   9830.18     95.12      54.00
 11612.21   11612.21   9830.11     94.49      52.00
 11613.21   11613.21   9830.04     91.89      52.00
 11614.21   11614.21   9829.97     87.88      52.00
 11615.21   11615.21   9829.90     83.06      52.00
 11616.21   11616.21   9829.83     73.97      52.00
 11617.21   11617.21   9829.77     64.77      52.00
 11618.21   11618.21   9829.70     64.83      52.00
