###########################################
# File generated by DigiDrill LAS Builder #
###########################################
~Version Information
VERS.   2.0   :LAS Version 2.0        
WRAP.    NO   :One line per depth step

#MNEM   .UNIT                 DATA   INFORMATION       
#------------------------------------------------------
~Well Information
 STRT   .FT                9001.21   :Start Depth      
 STOP   .FT               14403.00   :Stop Depth       
 STEP   .FT                   1.00   :Step Value       
 NULL   .                 -9999.00   :NULL Value       
 DATE   .                7/26/2010   :Date             
 SRVC   .                Drake MWD   :Service Company  
 COMP   .              El Paso E&P   :Operating Company
 WELL   .                Hixon #5H   :Well             
  FLD   .       EGFD Shale TXSZ'27   :Field            
  LOC   .                  Cotulla   :Location         
 CNTY   .                  LaSalle   :County           
 STAT   .                       TX   :State            
 CTRY   .                      USA   :Country          
  UWI   .               4228332299   :UWI Number       
  API   .               4228332299   :API Number       

#SURVEYS:
#SVY      DEPTH    INCL      AZM       TVD        VS      N/-S       E/-W
#------------------------------------------------------------------------
~Other Information
   0    8857.00    2.38   147.94   8847.00   -205.32   -150.52     139.80
   1    8937.00    4.40   278.70   8926.93   -204.48   -151.46     137.65
   2    8969.00    9.40   291.50   8958.69   -201.11   -150.32     134.00
   3    9001.00   12.30   297.30   8990.11   -195.47   -147.80     128.54
   4    9097.00   11.90   308.20   9083.99   -175.92   -136.99     111.67
   5    9192.00   10.40   317.30   9177.20   -157.63   -124.63      98.16
   6    9288.00    9.50   313.80   9271.76   -141.05   -112.77      86.56
   7    9380.00    8.60   311.90   9362.61   -126.60   -102.93      75.96
   8    9413.00    8.90   311.90   9395.23   -121.59    -99.57      72.23
   9    9444.00   11.60   314.20   9425.73   -116.07    -95.80      68.21
  10    9476.00   14.80   317.30   9456.88   -108.77    -90.55      63.13
  11    9508.00   18.20   319.60   9487.56    -99.70    -83.74      57.11
  12    9540.00   21.60   319.10   9517.64    -88.84    -75.48      50.02
  13    9571.00   25.00   318.20   9546.11    -76.60    -66.28      41.91
  14    9603.00   27.60   318.40   9574.80    -62.44    -55.69      32.48
  15    9635.00   29.60   319.30   9602.89    -47.15    -44.16      22.41
  16    9667.00   32.00   320.70   9630.38    -30.82    -31.60      11.88
  17    9699.00   34.20   320.90   9657.18    -13.43    -18.06       0.84
  18    9731.00   37.20   320.20   9683.17      5.16     -3.65     -11.03
  19    9763.00   41.10   317.70   9707.98     25.32     11.57     -24.31
  20    9795.00   44.90   316.50   9731.38     47.13     27.55     -39.17
  21    9826.00   48.80   316.30   9752.57     69.74     43.92     -54.76
  22    9858.00   52.80   316.30   9772.79     94.53     61.85     -71.89
  23    9890.00   56.20   316.50   9791.38    120.57     80.71     -89.85
  24    9922.00   58.70   316.50   9808.59    147.54    100.28    -108.42
  25    9954.00   61.30   316.50   9824.59    175.24    120.38    -127.49
  26    9986.00   64.50   315.60   9839.17    203.72    140.88    -147.26
  27   10018.00   67.40   314.90   9852.21    232.94    161.63    -167.83
  28   10050.00   70.50   313.80   9863.70    262.80    182.50    -189.19
  29   10082.00   74.00   313.50   9873.45    293.25    203.54    -211.24
  30   10114.00   76.90   314.20   9881.49    324.21    224.99    -233.57
  31   10146.00   79.60   314.40   9888.01    355.54    246.87    -255.99
  32   10178.00   82.70   314.50   9892.93    387.15    269.01    -278.56
  33   10209.00   86.30   314.20   9895.90    418.00    290.58    -300.62
  34   10241.00   89.00   314.20   9897.21    449.96    312.87    -323.54
  35   10336.00   91.00   314.50   9897.21    544.94    379.27    -391.47
  36   10432.00   94.80   315.10   9892.36    640.80    446.82    -459.49
  37   10527.00   95.50   314.20   9883.83    735.40    513.31    -526.80
  38   10624.00   92.40   314.00   9877.15    832.14    580.64    -596.29
  39   10719.00   93.40   314.20   9872.34    927.00    646.67    -664.42
  40   10813.00   92.90   315.20   9867.18   1020.85    712.69    -731.13
  41   10908.00   92.80   314.20   9862.45   1115.72    779.43    -798.57
  42   11004.00   92.30   312.90   9858.18   1211.58    845.50    -868.08
  43   11101.00   92.30   313.80   9854.29   1308.44    912.03    -938.56
  44   11196.00   92.60   313.50   9850.23   1403.32    977.55   -1007.24
  45   11292.00   91.60   313.50   9846.71   1499.20   1043.58   -1076.82
  46   11386.00   92.70   314.70   9843.18   1593.11   1108.95   -1144.28
  47   11482.00   93.10   313.30   9838.33   1688.96   1175.55   -1213.25
  48   11578.00   93.90   313.10   9832.47   1784.71   1241.15   -1283.10
  49   11674.00   94.00   311.70   9825.85   1880.36   1305.72   -1353.82
  50   11770.00   93.30   312.90   9819.74   1976.03   1370.20   -1424.68
  51   11865.00   93.30   314.70   9814.27   2070.83   1435.84   -1493.13
  52   11960.00   94.40   315.90   9807.89   2165.62   1503.21   -1559.80
  53   12056.00   94.80   316.60   9800.19   2261.29   1572.34   -1625.97
  54   12152.00   94.30   317.00   9792.58   2356.96   1642.10   -1691.48
  55   12248.00   92.50   317.00   9786.89   2452.75   1712.18   -1756.83
  56   12344.00   90.70   314.40   9784.21   2548.69   1780.85   -1823.84
  57   12439.00   92.10   316.50   9781.88   2643.66   1848.52   -1890.46
  58   12535.00   92.70   316.30   9777.86   2739.55   1917.98   -1956.61
  59   12631.00   92.20   314.90   9773.76   2835.46   1986.51   -2023.71
  60   12727.00   92.30   315.80   9769.99   2931.39   2054.75   -2091.13
  61   12822.00   90.70   317.00   9767.50   3026.33   2123.52   -2156.62
  62   12918.00   91.50   319.40   9765.66   3122.19   2195.07   -2220.59
  63   13014.00   90.70   318.70   9763.82   3217.96   2267.56   -2283.49
  64   13105.00   91.90   318.90   9761.75   3308.77   2336.01   -2343.42
  65   13200.00   90.70   316.80   9759.60   3403.65   2406.42   -2407.15
  66   13296.00   89.40   314.50   9759.52   3499.64   2475.06   -2474.25
  67   13392.00   88.50   314.20   9761.27   3595.61   2542.16   -2542.88
  68   13486.00   88.50   314.00   9763.74   3689.55   2607.55   -2610.37
  69   13582.00   89.30   313.80   9765.58   3785.51   2674.10   -2679.52
  70   13678.00   89.40   313.50   9766.67   3881.46   2740.36   -2748.98
  71   13774.00   90.00   313.10   9767.17   3977.40   2806.20   -2818.85
  72   13868.00   90.40   312.40   9766.84   4071.30   2870.01   -2887.87
  73   13960.00   91.30   312.60   9765.48   4163.18   2932.15   -2955.69
  74   14054.00   91.20   315.60   9763.43   4257.12   2997.55   -3023.17
  75   14148.00   92.40   318.20   9760.47   4351.03   3066.14   -3087.36
  76   14241.00   91.80   316.50   9757.06   4443.91   3134.49   -3150.33
  77   14334.00   91.70   315.90   9754.22   4536.85   3201.58   -3214.67

# MNEM   .UNIT    DATA   INFORMATION                                                               
#--------------------------------------------------------------------------------------------------
~Curve Information
 DEPTH   .FT             :Measured Depth                                                           
    MD   .FT             :Measured depth.                                                          
   TVD   .FT             :True vertical depth.                                                     
   ROP   .FT/HR          :Rate of penetration at bit depth.                                        
    GR   .API            :API corrected gamma counts from all gamma configurations at sensor depth.

#   DEPTH         MD       TVD       ROP         GR
#--------------------------------------------------
~ASCII Log
  9001.21    9001.21   8990.32     43.54      51.00
  9002.21    9002.21   8991.30     52.08      51.00
  9003.21    9003.21   8992.27     51.81      50.95
  9004.21    9004.21   8993.25     46.96      49.58
  9005.21    9005.21   8994.23     37.32      51.61
  9006.21    9006.21   8995.21     32.42      78.00
  9007.21    9007.21   8996.19     48.42      75.75
  9008.21    9008.21   8997.16     58.34      59.94
  9009.21    9009.21   8998.14     56.97      58.17
  9010.21    9010.21   8999.12     59.26      56.03
  9011.21    9011.21   9000.10     64.51      56.80
  9012.21    9012.21   9001.07     65.29      58.00
  9013.21    9013.21   9002.05     66.13      58.00
  9014.21    9014.21   9003.03     61.91      57.70
  9015.21    9015.21   9004.01     62.30      55.00
  9016.21    9016.21   9004.99     59.86      55.00
  9017.21    9017.21   9005.96     63.55      55.57
  9018.21    9018.21   9006.94     56.02      57.55
  9019.21    9019.21   9007.92     57.63      54.63
  9020.21    9020.21   9008.90     60.94      51.00
  9021.21    9021.21   9009.88     59.73      51.24
  9022.21    9022.21   9010.85     59.07      54.59
  9023.21    9023.21   9011.83     55.89      55.00
  9024.21    9024.21   9012.81     59.51      55.00
  9025.21    9025.21   9013.79     61.24      55.00
  9026.21    9026.21   9014.77     55.46      55.00
  9027.21    9027.21   9015.74     52.83      54.80
  9028.21    9028.21   9016.72     58.38      52.97
  9029.21    9029.21   9017.70     55.77      52.56
  9030.21    9030.21   9018.68     53.13      56.25
  9031.21    9031.21   9019.65     54.03      57.93
  9032.21    9032.21   9020.63     53.94      56.09
  9033.21    9033.21   9021.61     49.50      52.81
  9034.21    9034.21   9022.59     52.68      52.73
  9035.21    9035.21   9023.57     52.42      54.01
  9036.21    9036.21   9024.54     53.00      55.09
  9037.21    9037.21   9025.52     50.65      55.44
  9038.21    9038.21   9026.50     58.44      56.79
  9039.21    9039.21   9027.48     56.11      57.97
  9040.21    9040.21   9028.46     56.36      56.92
  9041.21    9041.21   9029.43     57.45      53.90
  9042.21    9042.21   9030.41     55.85      54.33
  9043.21    9043.21   9031.39     53.56      56.00
  9044.21    9044.21   9032.37     54.31      56.00
  9045.21    9045.21   9033.35     56.06      56.00
  9046.21    9046.21   9034.32     55.71      56.00
  9047.21    9047.21   9035.30     55.43      56.00
  9048.21    9048.21   9036.28     54.20      56.00
  9049.21    9049.21   9037.26     54.53      56.00
  9050.21    9050.21   9038.23     56.91      56.00
  9051.21    9051.21   9039.21     60.97      56.00
  9052.21    9052.21   9040.19     54.08      55.35
  9053.21    9053.21   9041.17     58.16      50.87
  9054.21    9054.21   9042.15     59.97      47.33
  9055.21    9055.21   9043.12     56.54      44.96
  9056.21    9056.21   9044.10     54.75      45.19
  9057.21    9057.21   9045.08     52.94      46.94
  9058.21    9058.21   9046.06     50.77      46.07
  9059.21    9059.21   9047.04     51.72      45.07
  9060.21    9060.21   9048.01     48.72      44.00
  9061.21    9061.21   9048.99     49.99      44.00
  9062.21    9062.21   9049.97     33.65      44.00
  9063.21    9063.21   9050.95     40.21      44.10
  9064.21    9064.21   9051.93     66.95      46.65
  9065.21    9065.21   9052.90     65.02      45.69
  9066.21    9066.21   9053.88     67.38      44.00
  9067.21    9067.21   9054.86     64.79      44.00
  9068.21    9068.21   9055.84     62.96      44.00
  9069.21    9069.21   9056.81     60.82      44.04
  9070.21    9070.21   9057.79     59.44      45.30
  9071.21    9071.21   9058.77     63.15      46.98
  9072.21    9072.21   9059.75     58.66      46.15
  9073.21    9073.21   9060.73     58.72      46.00
  9074.21    9074.21   9061.70     44.20      45.95
  9075.21    9075.21   9062.68     28.57      44.66
  9076.21    9076.21   9063.66     22.58      44.79
  9077.21    9077.21   9064.64     45.51      46.00
  9078.21    9078.21   9065.62     28.28      46.31
  9079.21    9079.21   9066.59     34.08      48.77
  9080.21    9080.21   9067.57     12.14      42.98
  9081.21    9081.21   9068.55     12.78      48.16
  9082.21    9082.21   9069.53     18.75      49.00
  9083.21    9083.21   9070.51     23.39      48.97
  9084.21    9084.21   9071.48     26.98      48.18
  9085.21    9085.21   9072.46     33.27      49.59
  9086.21    9086.21   9073.44     37.01      49.74
  9087.21    9087.21   9074.42     37.31      47.21
  9088.21    9088.21   9075.40     14.80      49.00
  9089.21    9089.21   9076.37     46.13      48.94
  9090.21    9090.21   9077.35     39.13      47.80
  9091.21    9091.21   9078.33     40.30      55.00
  9092.21    9092.21   9079.31     42.73      55.00
  9093.21    9093.21   9080.29     38.51      54.42
  9094.21    9094.21   9081.26     34.08      49.49
  9095.21    9095.21   9082.24     39.75      49.84
  9096.21    9096.21   9083.22     42.73      44.59
  9097.21    9097.21   9084.20     47.31      42.06
  9098.21    9098.21   9085.18     47.18      44.40
  9099.21    9099.21   9086.16     44.94      51.16
  9100.21    9100.21   9087.14     41.36      52.21
  9101.21    9101.21   9088.12     47.04      51.33
  9102.21    9102.21   9089.10     47.90      56.58
  9103.21    9103.21   9090.08     47.36      58.18
  9104.21    9104.21   9091.07     51.25      53.74
  9105.21    9105.21   9092.05     49.59      50.86
  9106.21    9106.21   9093.03     51.20      49.00
  9107.21    9107.21   9094.01     51.30      49.00
  9108.21    9108.21   9094.99     50.78      49.20
  9109.21    9109.21   9095.97     48.40      51.00
  9110.21    9110.21   9096.95     52.45      51.00
  9111.21    9111.21   9097.93     56.46      51.00
  9112.21    9112.21   9098.92     56.39      51.06
  9113.21    9113.21   9099.90     58.03      52.77
  9114.21    9114.21   9100.88     57.19      53.22
  9115.21    9115.21   9101.86     56.17      52.68
  9116.21    9116.21   9102.84     57.84      41.94
  9117.21    9117.21   9103.82     48.17      39.93
  9118.21    9118.21   9104.80     40.36      38.21
  9119.21    9119.21   9105.78     39.75      38.29
  9120.21    9120.21   9106.76     38.19      41.91
  9121.21    9121.21   9107.75     40.23      38.47
  9122.21    9122.21   9108.73     38.22      35.00
  9123.21    9123.21   9109.71     36.73      35.57
  9124.21    9124.21   9110.69     37.69      50.78
  9125.21    9125.21   9111.67     41.03      52.87
  9126.21    9126.21   9112.65     54.75      49.31
  9127.21    9127.21   9113.63     54.63      45.92
  9128.21    9128.21   9114.61     36.55      41.86
  9129.21    9129.21   9115.60     42.07      39.88
  9130.21    9130.21   9116.58     45.30      35.53
  9131.21    9131.21   9117.56     41.98      33.41
  9132.21    9132.21   9118.54     33.94      39.98
  9133.21    9133.21   9119.52     36.26      38.86
  9134.21    9134.21   9120.50     44.04      35.23
  9135.21    9135.21   9121.48     34.24      44.05
  9136.21    9136.21   9122.46     44.29      52.60
  9137.21    9137.21   9123.44     51.08      41.37
  9138.21    9138.21   9124.43     34.58      37.08
  9139.21    9139.21   9125.41     12.99      51.11
  9140.21    9140.21   9126.39     12.27      56.41
  9141.21    9141.21   9127.37     16.23      64.40
  9142.21    9142.21   9128.35     21.43      46.00
  9143.21    9143.21   9129.33     22.01      46.00
  9144.21    9144.21   9130.31     19.63      46.88
  9145.21    9145.21   9131.29     26.60      52.95
  9146.21    9146.21   9132.27     24.06      51.48
  9147.21    9147.21   9133.26     22.81      48.33
  9148.21    9148.21   9134.24     17.95      46.86
  9149.21    9149.21   9135.22     24.10      41.49
  9150.21    9150.21   9136.20     44.06      35.01
  9151.21    9151.21   9137.18     32.00      26.04
  9152.21    9152.21   9138.16     33.00      27.19
  9153.21    9153.21   9139.14     35.22      29.00
  9154.21    9154.21   9140.12     38.36      29.00
