###########################################
# File generated by DigiDrill LAS Builder #
###########################################
~Version Information
VERS.   2.0   :LAS Version 2.0        
WRAP.    NO   :One line per depth step

#MNEM   .UNIT                 DATA   INFORMATION       
#------------------------------------------------------
~Well Information
 STRT   .FT                9001.21   :Start Depth      
 STOP   .FT               14403.00   :Stop Depth       
 STEP   .FT                   1.00   :Step Value       
 NULL   .                 -9999.00   :NULL Value       
 DATE   .                7/26/2010   :Date             
 SRVC   .                Drake MWD   :Service Company  
 COMP   .              El Paso E&P   :Operating Company
 WELL   .                Hixon #5H   :Well             
  FLD   .       EGFD Shale TXSZ'27   :Field            
  LOC   .                  Cotulla   :Location         
 CNTY   .                  LaSalle   :County           
 STAT   .                       TX   :State            
 CTRY   .                      USA   :Country          
  UWI   .               4228332299   :UWI Number       
  API   .               4228332299   :API Number       

#SURVEYS:
#SVY      DEPTH    INCL      AZM       TVD        VS      N/-S       E/-W
#------------------------------------------------------------------------
~Other Information
   0    8857.00    2.38   147.94   8847.00   -205.32   -150.52     139.80
   1    8937.00    4.40   278.70   8926.93   -204.48   -151.46     137.65
   2    8969.00    9.40   291.50   8958.69   -201.11   -150.32     134.00
   3    9001.00   12.30   297.30   8990.11   -195.47   -147.80     128.54
   4    9097.00   11.90   308.20   9083.99   -175.92   -136.99     111.67
   5    9192.00   10.40   317.30   9177.20   -157.63   -124.63      98.16
   6    9288.00    9.50   313.80   9271.76   -141.05   -112.77      86.56
   7    9380.00    8.60   311.90   9362.61   -126.60   -102.93      75.96
   8    9413.00    8.90   311.90   9395.23   -121.59    -99.57      72.23
   9    9444.00   11.60   314.20   9425.73   -116.07    -95.80      68.21
  10    9476.00   14.80   317.30   9456.88   -108.77    -90.55      63.13
  11    9508.00   18.20   319.60   9487.56    -99.70    -83.74      57.11
  12    9540.00   21.60   319.10   9517.64    -88.84    -75.48      50.02
  13    9571.00   25.00   318.20   9546.11    -76.60    -66.28      41.91
  14    9603.00   27.60   318.40   9574.80    -62.44    -55.69      32.48
  15    9635.00   29.60   319.30   9602.89    -47.15    -44.16      22.41
  16    9667.00   32.00   320.70   9630.38    -30.82    -31.60      11.88
  17    9699.00   34.20   320.90   9657.18    -13.43    -18.06       0.84
  18    9731.00   37.20   320.20   9683.17      5.16     -3.65     -11.03
  19    9763.00   41.10   317.70   9707.98     25.32     11.57     -24.31
  20    9795.00   44.90   316.50   9731.38     47.13     27.55     -39.17
  21    9826.00   48.80   316.30   9752.57     69.74     43.92     -54.76
  22    9858.00   52.80   316.30   9772.79     94.53     61.85     -71.89
  23    9890.00   56.20   316.50   9791.38    120.57     80.71     -89.85
  24    9922.00   58.70   316.50   9808.59    147.54    100.28    -108.42
  25    9954.00   61.30   316.50   9824.59    175.24    120.38    -127.49
  26    9986.00   64.50   315.60   9839.17    203.72    140.88    -147.26
  27   10018.00   67.40   314.90   9852.21    232.94    161.63    -167.83
  28   10050.00   70.50   313.80   9863.70    262.80    182.50    -189.19
  29   10082.00   74.00   313.50   9873.45    293.25    203.54    -211.24
  30   10114.00   76.90   314.20   9881.49    324.21    224.99    -233.57
  31   10146.00   79.60   314.40   9888.01    355.54    246.87    -255.99
  32   10178.00   82.70   314.50   9892.93    387.15    269.01    -278.56
  33   10209.00   86.30   314.20   9895.90    418.00    290.58    -300.62
  34   10241.00   89.00   314.20   9897.21    449.96    312.87    -323.54
  35   10336.00   91.00   314.50   9897.21    544.94    379.27    -391.47
  36   10432.00   94.80   315.10   9892.36    640.80    446.82    -459.49
  37   10527.00   95.50   314.20   9883.83    735.40    513.31    -526.80
  38   10624.00   92.40   314.00   9877.15    832.14    580.64    -596.29
  39   10719.00   93.40   314.20   9872.34    927.00    646.67    -664.42
  40   10813.00   92.90   315.20   9867.18   1020.85    712.69    -731.13
  41   10908.00   92.80   314.20   9862.45   1115.72    779.43    -798.57
  42   11004.00   92.30   312.90   9858.18   1211.58    845.50    -868.08
  43   11101.00   92.30   313.80   9854.29   1308.44    912.03    -938.56
  44   11196.00   92.60   313.50   9850.23   1403.32    977.55   -1007.24
  45   11292.00   91.60   313.50   9846.71   1499.20   1043.58   -1076.82
  46   11386.00   92.70   314.70   9843.18   1593.11   1108.95   -1144.28
  47   11482.00   93.10   313.30   9838.33   1688.96   1175.55   -1213.25
  48   11578.00   93.90   313.10   9832.47   1784.71   1241.15   -1283.10
  49   11674.00   94.00   311.70   9825.85   1880.36   1305.72   -1353.82
  50   11770.00   93.30   312.90   9819.74   1976.03   1370.20   -1424.68
  51   11865.00   93.30   314.70   9814.27   2070.83   1435.84   -1493.13
  52   11960.00   94.40   315.90   9807.89   2165.62   1503.21   -1559.80
  53   12056.00   94.80   316.60   9800.19   2261.29   1572.34   -1625.97
  54   12152.00   94.30   317.00   9792.58   2356.96   1642.10   -1691.48
  55   12248.00   92.50   317.00   9786.89   2452.75   1712.18   -1756.83
  56   12344.00   90.70   314.40   9784.21   2548.69   1780.85   -1823.84
  57   12439.00   92.10   316.50   9781.88   2643.66   1848.52   -1890.46
  58   12535.00   92.70   316.30   9777.86   2739.55   1917.98   -1956.61
  59   12631.00   92.20   314.90   9773.76   2835.46   1986.51   -2023.71
  60   12727.00   92.30   315.80   9769.99   2931.39   2054.75   -2091.13
  61   12822.00   90.70   317.00   9767.50   3026.33   2123.52   -2156.62
  62   12918.00   91.50   319.40   9765.66   3122.19   2195.07   -2220.59
  63   13014.00   90.70   318.70   9763.82   3217.96   2267.56   -2283.49
  64   13105.00   91.90   318.90   9761.75   3308.77   2336.01   -2343.42
  65   13200.00   90.70   316.80   9759.60   3403.65   2406.42   -2407.15
  66   13296.00   89.40   314.50   9759.52   3499.64   2475.06   -2474.25
  67   13392.00   88.50   314.20   9761.27   3595.61   2542.16   -2542.88
  68   13486.00   88.50   314.00   9763.74   3689.55   2607.55   -2610.37
  69   13582.00   89.30   313.80   9765.58   3785.51   2674.10   -2679.52
  70   13678.00   89.40   313.50   9766.67   3881.46   2740.36   -2748.98
  71   13774.00   90.00   313.10   9767.17   3977.40   2806.20   -2818.85
  72   13868.00   90.40   312.40   9766.84   4071.30   2870.01   -2887.87
  73   13960.00   91.30   312.60   9765.48   4163.18   2932.15   -2955.69
  74   14054.00   91.20   315.60   9763.43   4257.12   2997.55   -3023.17
  75   14148.00   92.40   318.20   9760.47   4351.03   3066.14   -3087.36
  76   14241.00   91.80   316.50   9757.06   4443.91   3134.49   -3150.33
  77   14334.00   91.70   315.90   9754.22   4536.85   3201.58   -3214.67

# MNEM   .UNIT    DATA   INFORMATION                                                               
#--------------------------------------------------------------------------------------------------
~Curve Information
 DEPTH   .FT             :Measured Depth                                                           
    MD   .FT             :Measured depth.                                                          
   TVD   .FT             :True vertical depth.                                                     
   ROP   .FT/HR          :Rate of penetration at bit depth.                                        
    GR   .API            :API corrected gamma counts from all gamma configurations at sensor depth.

#   DEPTH         MD       TVD       ROP         GR
#--------------------------------------------------
~ASCII Log
# ...
 13467.21   13467.21   9763.24     79.30      62.73
 13468.21   13468.21   9763.27     78.98      62.00
 13469.21   13469.21   9763.30     77.07      62.00
 13470.21   13470.21   9763.32     77.55      60.28
 13471.21   13471.21   9763.35     80.39      61.02
 13472.21   13472.21   9763.37     77.73      66.00
 13473.21   13473.21   9763.40     79.22      66.00
 13474.21   13474.21   9763.43     80.33      64.82
 13475.21   13475.21   9763.45     79.91      64.00
 13476.21   13476.21   9763.48     82.89      66.00
 13477.21   13477.21   9763.51     86.79      66.37
 13478.21   13478.21   9763.53     89.24      67.00
 13479.21   13479.21   9763.56     92.79      67.00
 13480.21   13480.21   9763.58     93.33      67.00
 13481.21   13481.21   9763.61     93.08      68.71
 13482.21   13482.21   9763.64     93.23      69.00
 13483.21   13483.21   9763.66     92.88      67.21
 13484.21   13484.21   9763.69     92.77      66.00
 13485.21   13485.21   9763.71     95.18      65.69
 13486.21   13486.21   9763.74     96.31      64.00
 13487.21   13487.21   9763.76     96.62      64.00
 13488.21   13488.21   9763.78     98.12      66.00
 13489.21   13489.21   9763.80     97.18      66.00
 13490.21   13490.21   9763.82     97.12      64.00
 13491.21   13491.21   9763.84     95.77      64.67
 13492.21   13492.21   9763.85     93.44      66.00
 13493.21   13493.21   9763.87     96.77      66.65
 13494.21   13494.21   9763.89    101.01      67.00
 13495.21   13495.21   9763.91     98.05      62.82
 13496.21   13496.21   9763.93     98.70      60.00
 13497.21   13497.21   9763.95     98.31      56.00
 13498.21   13498.21   9763.97     92.83      51.71
 13499.21   13499.21   9763.99     94.32      51.00
 13500.21   13500.21   9764.01     96.86      51.00
 13501.21   13501.21   9764.03     93.98      52.64
 13502.21   13502.21   9764.05     89.88      51.44
 13503.21   13503.21   9764.07     84.57      47.56
 13504.21   13504.21   9764.09     80.55      47.83
 13505.21   13505.21   9764.10     75.48      49.00
 13506.21   13506.21   9764.12     60.38      49.00
 13507.21   13507.21   9764.14     57.18      50.50
 13508.21   13508.21   9764.16     59.18      49.52
 13509.21   13509.21   9764.18     57.93      52.82
 13510.21   13510.21   9764.20     49.10      51.88
 13511.21   13511.21   9764.22     46.38      56.00
 13512.21   13512.21   9764.24     44.66      55.21
 13513.21   13513.21   9764.26     42.05      55.38
 13514.21   13514.21   9764.28     43.79      53.00
 13515.21   13515.21   9764.30     43.13      53.00
 13516.21   13516.21   9764.32     40.89      50.37
 13517.21   13517.21   9764.34     44.44      51.00
 13518.21   13518.21   9764.35     49.52      53.77
 13519.21   13519.21   9764.37     52.70      51.65
 13520.21   13520.21   9764.39     54.38      50.56
 13521.21   13521.21   9764.41     56.41      50.31
 13522.21   13522.21   9764.43     59.51      51.00
 13523.21   13523.21   9764.45     63.35      51.00
 13524.21   13524.21   9764.47     68.17      51.00
 13525.21   13525.21   9764.49     71.19      51.00
 13526.21   13526.21   9764.51     78.16      51.00
 13527.21   13527.21   9764.53     79.27      51.00
 13528.21   13528.21   9764.55     79.29      47.83
 13529.21   13529.21   9764.56     78.39      47.00
 13530.21   13530.21   9764.58     71.42      47.00
 13531.21   13531.21   9764.60     64.23      46.50
 13532.21   13532.21   9764.62     63.85      46.00
 13533.21   13533.21   9764.64     61.83      46.00
 13534.21   13534.21   9764.66     60.64      44.36
 13535.21   13535.21   9764.68     60.31      44.00
 13536.21   13536.21   9764.70     55.27      44.00
 13537.21   13537.21   9764.72     49.15      45.17
 13538.21   13538.21   9764.74     48.06      46.00
 13539.21   13539.21   9764.76     46.97      46.00
 13540.21   13540.21   9764.78     42.89      46.52
 13541.21   13541.21   9764.80     43.15      47.00
 13542.21   13542.21   9764.81     34.08      47.00
 13543.21   13543.21   9764.83     33.48      51.00
 13544.21   13544.21   9764.85     34.06      51.00
 13545.21   13545.21   9764.87     34.36      49.45
 13546.21   13546.21   9764.89     34.78      49.00
 13547.21   13547.21   9764.91     34.93      51.22
 13548.21   13548.21   9764.93      8.20      55.00
 13549.21   13549.21   9764.95   1353.46      55.00
 13550.21   13550.21   9764.97    132.53      55.78
 13551.21   13551.21   9764.99     16.94      56.00
 13552.21   13552.21   9765.01      8.72      56.00
 13553.21   13553.21   9765.03     11.06      56.00
 13554.21   13554.21   9765.05     16.43      56.00
 13555.21   13555.21   9765.06     12.18      57.27
 13556.21   13556.21   9765.08     15.86      58.00
 13557.21   13557.21   9765.10     17.53      58.00
 13558.21   13558.21   9765.12     18.54      58.00
 13559.21   13559.21   9765.14     22.67      58.00
 13560.21   13560.21   9765.16     24.22      58.00
 13561.21   13561.21   9765.18     19.26      58.00
 13562.21   13562.21   9765.20     20.19      58.00
 13563.21   13563.21   9765.22     19.02      58.00
 13564.21   13564.21   9765.24     26.26      61.91
 13565.21   13565.21   9765.26     83.65      64.00
 13566.21   13566.21   9765.28     96.02      64.00
 13567.21   13567.21   9765.29    103.91      64.00
 13568.21   13568.21   9765.31     98.36      64.00
 13569.21   13569.21   9765.33    104.15      64.47
 13570.21   13570.21   9765.35    104.71      67.00
 13571.21   13571.21   9765.37    104.91      67.00
 13572.21   13572.21   9765.39    107.02      65.55
 13573.21   13573.21   9765.41    104.86      64.00
 13574.21   13574.21   9765.43     97.13      64.00
 13575.21   13575.21   9765.45     93.78      66.00
 13576.21   13576.21   9765.47     93.77      66.00
 13577.21   13577.21   9765.49     95.29      66.00
 13578.21   13578.21   9765.51     98.08      66.00
 13579.21   13579.21   9765.52    106.34      66.00
 13580.21   13580.21   9765.54    107.77      66.00
 13581.21   13581.21   9765.56    109.34      66.00
 13582.21   13582.21   9765.58    104.64      66.00
 13583.21   13583.21   9765.59     95.05      66.00
 13584.21   13584.21   9765.60     86.30      67.95
 13585.21   13585.21   9765.61     82.09      71.00
 13586.21   13586.21   9765.63     85.63      67.74
 13587.21   13587.21   9765.64     80.37      67.00
 13588.21   13588.21   9765.65     75.04      69.00
 13589.21   13589.21   9765.66     73.67      67.73
 13590.21   13590.21   9765.67     78.58      67.30
 13591.21   13591.21   9765.68     78.00      69.00
 13592.21   13592.21   9765.69     89.93      69.83
 13593.21   13593.21   9765.71     85.01      73.00
 13594.21   13594.21   9765.72     86.14      71.73
 13595.21   13595.21   9765.73     85.40      71.00
 13596.21   13596.21   9765.74     81.95      71.00
 13597.21   13597.21   9765.75     86.01      70.20
 13598.21   13598.21   9765.76     91.71      69.00
 13599.21   13599.21   9765.77     93.10      67.29
 13600.21   13600.21   9765.78     93.32      69.00
 13601.21   13601.21   9765.80     93.15      69.99
 13602.21   13602.21   9765.81     92.72      69.68
 13603.21   13603.21   9765.82     85.18      66.46
 13604.21   13604.21   9765.83     90.34      65.07
 13605.21   13605.21   9765.84     91.07      68.18
 13606.21   13606.21   9765.85     89.93      69.00
 13607.21   13607.21   9765.86     88.80      67.02
 13608.21   13608.21   9765.88     88.81      68.54
 13609.21   13609.21   9765.89     87.26      67.33
 13610.21   13610.21   9765.90     88.07      68.64
 13611.21   13611.21   9765.91     88.48      67.45
 13612.21   13612.21   9765.92     88.17      66.83
 13613.21   13613.21   9765.93     90.58      65.68
 13614.21   13614.21   9765.94     86.84      64.45
 13615.21   13615.21   9765.96     86.37      67.00
 13616.21   13616.21   9765.97     87.82      64.00
 13617.21   13617.21   9765.98     83.29      62.28
 13618.21   13618.21   9765.99     86.58      58.17
 13619.21   13619.21   9766.00     87.87      56.00
 13620.21   13620.21   9766.01     87.86      55.58
