###########################################
# File generated by DigiDrill LAS Builder #
###########################################
~Version Information
VERS.   2.0   :LAS Version 2.0        
WRAP.    NO   :One line per depth step

#MNEM   .UNIT                 DATA   INFORMATION       
#------------------------------------------------------
~Well Information
 STRT   .FT                9001.21   :Start Depth      
 STOP   .FT               14403.00   :Stop Depth       
 STEP   .FT                   1.00   :Step Value       
 NULL   .                 -9999.00   :NULL Value       
 DATE   .                7/26/2010   :Date             
 SRVC   .                Drake MWD   :Service Company  
 COMP   .              El Paso E&P   :Operating Company
 WELL   .                Hixon #5H   :Well             
  FLD   .       EGFD Shale TXSZ'27   :Field            
  LOC   .                  Cotulla   :Location         
 CNTY   .                  LaSalle   :County           
 STAT   .                       TX   :State            
 CTRY   .                      USA   :Country          
  UWI   .               4228332299   :UWI Number       
  API   .               4228332299   :API Number       

#SURVEYS:
#SVY      DEPTH    INCL      AZM       TVD        VS      N/-S       E/-W
#------------------------------------------------------------------------
~Other Information
   0    8857.00    2.38   147.94   8847.00   -205.32   -150.52     139.80
   1    8937.00    4.40   278.70   8926.93   -204.48   -151.46     137.65
   2    8969.00    9.40   291.50   8958.69   -201.11   -150.32     134.00
   3    9001.00   12.30   297.30   8990.11   -195.47   -147.80     128.54
   4    9097.00   11.90   308.20   9083.99   -175.92   -136.99     111.67
   5    9192.00   10.40   317.30   9177.20   -157.63   -124.63      98.16
   6    9288.00    9.50   313.80   9271.76   -141.05   -112.77      86.56
   7    9380.00    8.60   311.90   9362.61   -126.60   -102.93      75.96
   8    9413.00    8.90   311.90   9395.23   -121.59    -99.57      72.23
   9    9444.00   11.60   314.20   9425.73   -116.07    -95.80      68.21
  10    9476.00   14.80   317.30   9456.88   -108.77    -90.55      63.13
  11    9508.00   18.20   319.60   9487.56    -99.70    -83.74      57.11
  12    9540.00   21.60   319.10   9517.64    -88.84    -75.48      50.02
  13    9571.00   25.00   318.20   9546.11    -76.60    -66.28      41.91
  14    9603.00   27.60   318.40   9574.80    -62.44    -55.69      32.48
  15    9635.00   29.60   319.30   9602.89    -47.15    -44.16      22.41
  16    9667.00   32.00   320.70   9630.38    -30.82    -31.60      11.88
  17    9699.00   34.20   320.90   9657.18    -13.43    -18.06       0.84
  18    9731.00   37.20   320.20   9683.17      5.16     -3.65     -11.03
  19    9763.00   41.10   317.70   9707.98     25.32     11.57     -24.31
  20    9795.00   44.90   316.50   9731.38     47.13     27.55     -39.17
  21    9826.00   48.80   316.30   9752.57     69.74     43.92     -54.76
  22    9858.00   52.80   316.30   9772.79     94.53     61.85     -71.89
  23    9890.00   56.20   316.50   9791.38    120.57     80.71     -89.85
  24    9922.00   58.70   316.50   9808.59    147.54    100.28    -108.42
  25    9954.00   61.30   316.50   9824.59    175.24    120.38    -127.49
  26    9986.00   64.50   315.60   9839.17    203.72    140.88    -147.26
  27   10018.00   67.40   314.90   9852.21    232.94    161.63    -167.83
  28   10050.00   70.50   313.80   9863.70    262.80    182.50    -189.19
  29   10082.00   74.00   313.50   9873.45    293.25    203.54    -211.24
  30   10114.00   76.90   314.20   9881.49    324.21    224.99    -233.57
  31   10146.00   79.60   314.40   9888.01    355.54    246.87    -255.99
  32   10178.00   82.70   314.50   9892.93    387.15    269.01    -278.56
  33   10209.00   86.30   314.20   9895.90    418.00    290.58    -300.62
  34   10241.00   89.00   314.20   9897.21    449.96    312.87    -323.54
  35   10336.00   91.00   314.50   9897.21    544.94    379.27    -391.47
  36   10432.00   94.80   315.10   9892.36    640.80    446.82    -459.49
  37   10527.00   95.50   314.20   9883.83    735.40    513.31    -526.80
  38   10624.00   92.40   314.00   9877.15    832.14    580.64    -596.29
  39   10719.00   93.40   314.20   9872.34    927.00    646.67    -664.42
  40   10813.00   92.90   315.20   9867.18   1020.85    712.69    -731.13
  41   10908.00   92.80   314.20   9862.45   1115.72    779.43    -798.57
  42   11004.00   92.30   312.90   9858.18   1211.58    845.50    -868.08
  43   11101.00   92.30   313.80   9854.29   1308.44    912.03    -938.56
  44   11196.00   92.60   313.50   9850.23   1403.32    977.55   -1007.24
  45   11292.00   91.60   313.50   9846.71   1499.20   1043.58   -1076.82
  46   11386.00   92.70   314.70   9843.18   1593.11   1108.95   -1144.28
  47   11482.00   93.10   313.30   9838.33   1688.96   1175.55   -1213.25
  48   11578.00   93.90   313.10   9832.47   1784.71   1241.15   -1283.10
  49   11674.00   94.00   311.70   9825.85   1880.36   1305.72   -1353.82
  50   11770.00   93.30   312.90   9819.74   1976.03   1370.20   -1424.68
  51   11865.00   93.30   314.70   9814.27   2070.83   1435.84   -1493.13
  52   11960.00   94.40   315.90   9807.89   2165.62   1503.21   -1559.80
  53   12056.00   94.80   316.60   9800.19   2261.29   1572.34   -1625.97
  54   12152.00   94.30   317.00   9792.58   2356.96   1642.10   -1691.48
  55   12248.00   92.50   317.00   9786.89   2452.75   1712.18   -1756.83
  56   12344.00   90.70   314.40   9784.21   2548.69   1780.85   -1823.84
  57   12439.00   92.10   316.50   9781.88   2643.66   1848.52   -1890.46
  58   12535.00   92.70   316.30   9777.86   2739.55   1917.98   -1956.61
  59   12631.00   92.20   314.90   9773.76   2835.46   1986.51   -2023.71
  60   12727.00   92.30   315.80   9769.99   2931.39   2054.75   -2091.13
  61   12822.00   90.70   317.00   9767.50   3026.33   2123.52   -2156.62
  62   12918.00   91.50   319.40   9765.66   3122.19   2195.07   -2220.59
  63   13014.00   90.70   318.70   9763.82   3217.96   2267.56   -2283.49
  64   13105.00   91.90   318.90   9761.75   3308.77   2336.01   -2343.42
  65   13200.00   90.70   316.80   9759.60   3403.65   2406.42   -2407.15
  66   13296.00   89.40   314.50   9759.52   3499.64   2475.06   -2474.25
  67   13392.00   88.50   314.20   9761.27   3595.61   2542.16   -2542.88
  68   13486.00   88.50   314.00   9763.74   3689.55   2607.55   -2610.37
  69   13582.00   89.30   313.80   9765.58   3785.51   2674.10   -2679.52
  70   13678.00   89.40   313.50   9766.67   3881.46   2740.36   -2748.98
  71   13774.00   90.00   313.10   9767.17   3977.40   2806.20   -2818.85
  72   13868.00   90.40   312.40   9766.84   4071.30   2870.01   -2887.87
  73   13960.00   91.30   312.60   9765.48   4163.18   2932.15   -2955.69
  74   14054.00   91.20   315.60   9763.43   4257.12   2997.55   -3023.17
  75   14148.00   92.40   318.20   9760.47   4351.03   3066.14   -3087.36
  76   14241.00   91.80   316.50   9757.06   4443.91   3134.49   -3150.33
  77   14334.00   91.70   315.90   9754.22   4536.85   3201.58   -3214.67

# MNEM   .UNIT    DATA   INFORMATION                                                               
#--------------------------------------------------------------------------------------------------
~Curve Information
 DEPTH   .FT             :Measured Depth                                                           
    MD   .FT             :Measured depth.                                                          
   TVD   .FT             :True vertical depth.                                                     
   ROP   .FT/HR          :Rate of penetration at bit depth.                                        
    GR   .API            :API corrected gamma counts from all gamma configurations at sensor depth.

#   DEPTH         MD       TVD       ROP         GR
#--------------------------------------------------
~ASCII Log
# ...
 12543.21   12543.21   9777.51    102.51      54.00
 12544.21   12544.21   9777.47    101.34      54.00
 12545.21   12545.21   9777.43    100.41      54.00
 12546.21   12546.21   9777.38     96.15      52.00
 12547.21   12547.21   9777.34     94.11      52.00
 12548.21   12548.21   9777.30     97.93      51.69
 12549.21   12549.21   9777.26     96.59      50.00
 12550.21   12550.21   9777.21     94.74      50.00
 12551.21   12551.21   9777.17     95.73      50.00
 12552.21   12552.21   9777.13     96.23      50.00
 12553.21   12553.21   9777.09     95.23      50.00
 12554.21   12554.21   9777.04     96.56      50.00
 12555.21   12555.21   9777.00     95.67      49.33
 12556.21   12556.21   9776.96     92.34      48.00
 12557.21   12557.21   9776.91     98.81      48.00
 12558.21   12558.21   9776.87     94.34      48.00
 12559.21   12559.21   9776.83     96.47      46.00
 12560.21   12560.21   9776.79     96.84      46.00
 12561.21   12561.21   9776.74     92.61      46.00
 12562.21   12562.21   9776.70     93.39      50.15
 12563.21   12563.21   9776.66     97.20      52.00
 12564.21   12564.21   9776.61    105.32      52.00
 12565.21   12565.21   9776.57    102.82      51.33
 12566.21   12566.21   9776.53     95.85      50.00
 12567.21   12567.21   9776.49     92.75      50.00
 12568.21   12568.21   9776.44     98.78      50.00
 12569.21   12569.21   9776.40    101.54      50.00
 12570.21   12570.21   9776.36     95.73      50.00
 12571.21   12571.21   9776.32     92.59      50.00
 12572.21   12572.21   9776.27     96.63      50.00
 12573.21   12573.21   9776.23     93.99      50.00
 12574.21   12574.21   9776.19     93.96      50.63
 12575.21   12575.21   9776.15     97.56      54.00
 12576.21   12576.21   9776.10     91.07      54.00
 12577.21   12577.21   9776.06     90.64      54.00
 12578.21   12578.21   9776.02     91.38      52.00
 12579.21   12579.21   9775.97     91.85      52.00
 12580.21   12580.21   9775.93     93.36      52.00
 12581.21   12581.21   9775.89     92.96      51.33
 12582.21   12582.21   9775.85     92.26      50.00
 12583.21   12583.21   9775.80     91.05      50.00
 12584.21   12584.21   9775.76     95.13      50.00
 12585.21   12585.21   9775.72     91.12      52.00
 12586.21   12586.21   9775.67     95.01      52.00
 12587.21   12587.21   9775.63     99.57      52.00
 12588.21   12588.21   9775.59    102.95      51.09
 12589.21   12589.21   9775.55    102.82      48.00
 12590.21   12590.21   9775.50     99.54      48.00
 12591.21   12591.21   9775.46     97.18      48.00
 12592.21   12592.21   9775.42     96.90      48.00
 12593.21   12593.21   9775.38     96.86      48.00
 12594.21   12594.21   9775.33     94.15      48.00
 12595.21   12595.21   9775.29     89.52      48.00
 12596.21   12596.21   9775.25     91.97      48.00
 12597.21   12597.21   9775.20    136.51      48.00
 12598.21   12598.21   9775.16    117.58      48.00
 12599.21   12599.21   9775.12    114.21      48.00
 12600.21   12600.21   9775.08    114.73      50.00
 12601.21   12601.21   9775.03    112.24      54.00
 12602.21   12602.21   9774.99    110.40      54.00
 12603.21   12603.21   9774.95    109.50      54.00
 12604.21   12604.21   9774.91    109.88      52.00
 12605.21   12605.21   9774.86    111.05      52.00
 12606.21   12606.21   9774.82    112.48      52.00
 12607.21   12607.21   9774.78    104.93      54.00
 12608.21   12608.21   9774.73    104.63      58.00
 12609.21   12609.21   9774.69    103.71      58.00
 12610.21   12610.21   9774.65    101.54      57.29
 12611.21   12611.21   9774.61    111.78      54.00
 12612.21   12612.21   9774.56    107.94      54.00
 12613.21   12613.21   9774.52     99.98      54.00
 12614.21   12614.21   9774.48    104.70      52.35
 12615.21   12615.21   9774.44    110.71      52.00
 12616.21   12616.21   9774.39    100.03      52.00
 12617.21   12617.21   9774.35     95.14      53.03
 12618.21   12618.21   9774.31     95.54      54.00
 12619.21   12619.21   9774.26    109.40      54.00
 12620.21   12620.21   9774.22    113.66      53.66
 12621.21   12621.21   9774.18    110.91      52.00
 12622.21   12622.21   9774.14    108.33      52.00
 12623.21   12623.21   9774.09    114.32      52.00
 12624.21   12624.21   9774.05    114.66      52.00
 12625.21   12625.21   9774.01    117.32      52.00
 12626.21   12626.21   9773.97    116.79      52.18
 12627.21   12627.21   9773.92    119.63      54.00
 12628.21   12628.21   9773.88    117.45      54.00
 12629.21   12629.21   9773.84    122.18      54.00
 12630.21   12630.21   9773.79    122.11      54.00
 12631.21   12631.21   9773.75    122.74      54.00
 12632.21   12632.21   9773.71    122.16      53.71
 12633.21   12633.21   9773.67    119.83      52.00
 12634.21   12634.21   9773.63    120.30      52.00
 12635.21   12635.21   9773.60    123.56      52.00
 12636.21   12636.21   9773.56    119.52      52.00
 12637.21   12637.21   9773.52    117.82      52.00
 12638.21   12638.21   9773.48    119.72      52.00
 12639.21   12639.21   9773.44    120.68      52.00
 12640.21   12640.21   9773.40    119.46      52.00
 12641.21   12641.21   9773.36    112.41      52.00
 12642.21   12642.21   9773.32    110.38      52.00
 12643.21   12643.21   9773.28    114.42      52.00
 12644.21   12644.21   9773.24    118.00      52.00
 12645.21   12645.21   9773.20    114.78      52.00
 12646.21   12646.21   9773.16    117.68      46.00
 12647.21   12647.21   9773.12    116.92      46.00
 12648.21   12648.21   9773.08    114.82      45.69
 12649.21   12649.21   9773.05    115.83      46.00
 12650.21   12650.21   9773.01    117.18      48.00
 12651.21   12651.21   9772.97    112.87      46.00
 12652.21   12652.21   9772.93    109.54      54.00
 12653.21   12653.21   9772.89    109.86      52.00
 12654.21   12654.21   9772.85    106.63      54.00
 12655.21   12655.21   9772.81    107.33      50.70
 12656.21   12656.21   9772.77    110.69      52.00
 12657.21   12657.21   9772.73    107.72      48.00
 12658.21   12658.21   9772.69    112.27      51.31
 12659.21   12659.21   9772.65    112.91      52.00
 12660.21   12660.21   9772.61    112.21      52.47
 12661.21   12661.21   9772.57    111.08      52.00
 12662.21   12662.21   9772.53    108.93      52.00
 12663.21   12663.21   9772.50    107.47      51.33
 12664.21   12664.21   9772.46    102.15      50.29
 12665.21   12665.21   9772.42    100.46      52.00
 12666.21   12666.21   9772.38    100.23      52.00
 12667.21   12667.21   9772.34    102.94      52.67
 12668.21   12668.21   9772.30    100.41      50.00
 12669.21   12669.21   9772.26     95.80      50.00
 12670.21   12670.21   9772.22    101.13      50.46
 12671.21   12671.21   9772.18    100.45      50.32
 12672.21   12672.21   9772.14    103.10      54.00
 12673.21   12673.21   9772.10    105.61      50.74
 12674.21   12674.21   9772.06    105.08      49.50
 12675.21   12675.21   9772.02    105.24      51.33
 12676.21   12676.21   9771.99    100.92      53.07
 12677.21   12677.21   9771.95     99.73      53.59
 12678.21   12678.21   9771.91    100.01      54.22
 12679.21   12679.21   9771.87    102.81      47.35
 12680.21   12680.21   9771.83     98.85      48.36
 12681.21   12681.21   9771.79     98.07      48.00
 12682.21   12682.21   9771.75    101.25      48.00
 12683.21   12683.21   9771.71    104.38      44.74
 12684.21   12684.21   9771.67    101.91      47.66
 12685.21   12685.21   9771.63    102.51      46.00
 12686.21   12686.21   9771.59    100.47      46.00
 12687.21   12687.21   9771.55     98.13      46.00
 12688.21   12688.21   9771.51     97.56      46.00
 12689.21   12689.21   9771.48     95.89      46.00
 12690.21   12690.21   9771.44     95.74      46.00
 12691.21   12691.21   9771.40     91.87      46.00
 12692.21   12692.21   9771.36    102.35      46.00
 12693.21   12693.21   9771.32    103.57      46.00
 12694.21   12694.21   9771.28     84.54      46.00
 12695.21   12695.21   9771.24    108.33      46.00
 12696.21   12696.21   9771.20    110.87      46.00
