###########################################
# File generated by DigiDrill LAS Builder #
###########################################
~Version Information
VERS.   2.0   :LAS Version 2.0        
WRAP.    NO   :One line per depth step

#MNEM   .UNIT                 DATA   INFORMATION       
#------------------------------------------------------
~Well Information
 STRT   .FT                9001.21   :Start Depth      
 STOP   .FT               14403.00   :Stop Depth       
 STEP   .FT                   1.00   :Step Value       
 NULL   .                 -9999.00   :NULL Value       
 DATE   .                7/26/2010   :Date             
 SRVC   .                Drake MWD   :Service Company  
 COMP   .              El Paso E&P   :Operating Company
 WELL   .                Hixon #5H   :Well             
  FLD   .       EGFD Shale TXSZ'27   :Field            
  LOC   .                  Cotulla   :Location         
 CNTY   .                  LaSalle   :County           
 STAT   .                       TX   :State            
 CTRY   .                      USA   :Country          
  UWI   .               4228332299   :UWI Number       
  API   .               4228332299   :API Number       

#SURVEYS:
#SVY      DEPTH    INCL      AZM       TVD        VS      N/-S       E/-W
#------------------------------------------------------------------------
~Other Information
   0    8857.00    2.38   147.94   8847.00   -205.32   -150.52     139.80
   1    8937.00    4.40   278.70   8926.93   -204.48   -151.46     137.65
   2    8969.00    9.40   291.50   8958.69   -201.11   -150.32     134.00
   3    9001.00   12.30   297.30   8990.11   -195.47   -147.80     128.54
   4    9097.00   11.90   308.20   9083.99   -175.92   -136.99     111.67
   5    9192.00   10.40   317.30   9177.20   -157.63   -124.63      98.16
   6    9288.00    9.50   313.80   9271.76   -141.05   -112.77      86.56
   7    9380.00    8.60   311.90   9362.61   -126.60   -102.93      75.96
   8    9413.00    8.90   311.90   9395.23   -121.59    -99.57      72.23
   9    9444.00   11.60   314.20   9425.73   -116.07    -95.80      68.21
  10    9476.00   14.80   317.30   9456.88   -108.77    -90.55      63.13
  11    9508.00   18.20   319.60   9487.56    -99.70    -83.74      57.11
  12    9540.00   21.60   319.10   9517.64    -88.84    -75.48      50.02
  13    9571.00   25.00   318.20   9546.11    -76.60    -66.28      41.91
  14    9603.00   27.60   318.40   9574.80    -62.44    -55.69      32.48
  15    9635.00   29.60   319.30   9602.89    -47.15    -44.16      22.41
  16    9667.00   32.00   320.70   9630.38    -30.82    -31.60      11.88
  17    9699.00   34.20   320.90   9657.18    -13.43    -18.06       0.84
  18    9731.00   37.20   320.20   9683.17      5.16     -3.65     -11.03
  19    9763.00   41.10   317.70   9707.98     25.32     11.57     -24.31
  20    9795.00   44.90   316.50   9731.38     47.13     27.55     -39.17
  21    9826.00   48.80   316.30   9752.57     69.74     43.92     -54.76
  22    9858.00   52.80   316.30   9772.79     94.53     61.85     -71.89
  23    9890.00   56.20   316.50   9791.38    120.57     80.71     -89.85
  24    9922.00   58.70   316.50   9808.59    147.54    100.28    -108.42
  25    9954.00   61.30   316.50   9824.59    175.24    120.38    -127.49
  26    9986.00   64.50   315.60   9839.17    203.72    140.88    -147.26
  27   10018.00   67.40   314.90   9852.21    232.94    161.63    -167.83
  28   10050.00   70.50   313.80   9863.70    262.80    182.50    -189.19
  29   10082.00   74.00   313.50   9873.45    293.25    203.54    -211.24
  30   10114.00   76.90   314.20   9881.49    324.21    224.99    -233.57
  31   10146.00   79.60   314.40   9888.01    355.54    246.87    -255.99
  32   10178.00   82.70   314.50   9892.93    387.15    269.01    -278.56
  33   10209.00   86.30   314.20   9895.90    418.00    290.58    -300.62
  34   10241.00   89.00   314.20   9897.21    449.96    312.87    -323.54
  35   10336.00   91.00   314.50   9897.21    544.94    379.27    -391.47
  36   10432.00   94.80   315.10   9892.36    640.80    446.82    -459.49
  37   10527.00   95.50   314.20   9883.83    735.40    513.31    -526.80
  38   10624.00   92.40   314.00   9877.15    832.14    580.64    -596.29
  39   10719.00   93.40   314.20   9872.34    927.00    646.67    -664.42
  40   10813.00   92.90   315.20   9867.18   1020.85    712.69    -731.13
  41   10908.00   92.80   314.20   9862.45   1115.72    779.43    -798.57
  42   11004.00   92.30   312.90   9858.18   1211.58    845.50    -868.08
  43   11101.00   92.30   313.80   9854.29   1308.44    912.03    -938.56
  44   11196.00   92.60   313.50   9850.23   1403.32    977.55   -1007.24
  45   11292.00   91.60   313.50   9846.71   1499.20   1043.58   -1076.82
  46   11386.00   92.70   314.70   9843.18   1593.11   1108.95   -1144.28
  47   11482.00   93.10   313.30   9838.33   1688.96   1175.55   -1213.25
  48   11578.00   93.90   313.10   9832.47   1784.71   1241.15   -1283.10
  49   11674.00   94.00   311.70   9825.85   1880.36   1305.72   -1353.82
  50   11770.00   93.30   312.90   9819.74   1976.03   1370.20   -1424.68
  51   11865.00   93.30   314.70   9814.27   2070.83   1435.84   -1493.13
  52   11960.00   94.40   315.90   9807.89   2165.62   1503.21   -1559.80
  53   12056.00   94.80   316.60   9800.19   2261.29   1572.34   -1625.97
  54   12152.00   94.30   317.00   9792.58   2356.96   1642.10   -1691.48
  55   12248.00   92.50   317.00   9786.89   2452.75   1712.18   -1756.83
  56   12344.00   90.70   314.40   9784.21   2548.69   1780.85   -1823.84
  57   12439.00   92.10   316.50   9781.88   2643.66   1848.52   -1890.46
  58   12535.00   92.70   316.30   9777.86   2739.55   1917.98   -1956.61
  59   12631.00   92.20   314.90   9773.76   2835.46   1986.51   -2023.71
  60   12727.00   92.30   315.80   9769.99   2931.39   2054.75   -2091.13
  61   12822.00   90.70   317.00   9767.50   3026.33   2123.52   -2156.62
  62   12918.00   91.50   319.40   9765.66   3122.19   2195.07   -2220.59
  63   13014.00   90.70   318.70   9763.82   3217.96   2267.56   -2283.49
  64   13105.00   91.90   318.90   9761.75   3308.77   2336.01   -2343.42
  65   13200.00   90.70   316.80   9759.60   3403.65   2406.42   -2407.15
  66   13296.00   89.40   314.50   9759.52   3499.64   2475.06   -2474.25
  67   13392.00   88.50   314.20   9761.27   3595.61   2542.16   -2542.88
  68   13486.00   88.50   314.00   9763.74   3689.55   2607.55   -2610.37
  69   13582.00   89.30   313.80   9765.58   3785.51   2674.10   -2679.52
  70   13678.00   89.40   313.50   9766.67   3881.46   2740.36   -2748.98
  71   13774.00   90.00   313.10   9767.17   3977.40   2806.20   -2818.85
  72   13868.00   90.40   312.40   9766.84   4071.30   2870.01   -2887.87
  73   13960.00   91.30   312.60   9765.48   4163.18   2932.15   -2955.69
  74   14054.00   91.20   315.60   9763.43   4257.12   2997.55   -3023.17
  75   14148.00   92.40   318.20   9760.47   4351.03   3066.14   -3087.36
  76   14241.00   91.80   316.50   9757.06   4443.91   3134.49   -3150.33
  77   14334.00   91.70   315.90   9754.22   4536.85   3201.58   -3214.67

# MNEM   .UNIT    DATA   INFORMATION                                                               
#--------------------------------------------------------------------------------------------------
~Curve Information
 DEPTH   .FT             :Measured Depth                                                           
    MD   .FT             :Measured depth.                                                          
   TVD   .FT             :True vertical depth.                                                     
   ROP   .FT/HR          :Rate of penetration at bit depth.                                        
    GR   .API            :API corrected gamma counts from all gamma configurations at sensor depth.

#   DEPTH         MD       TVD       ROP         GR
#--------------------------------------------------
~ASCII Log
# ...
  9309.21    9309.21   9292.70     45.79      31.00
  9310.21    9310.21   9293.69     43.50      31.00
  9311.21    9311.21   9294.68     44.47      31.49
  9312.21    9312.21   9295.67     45.40      36.14
  9313.21    9313.21   9296.65     45.99      39.88
  9314.21    9314.21   9297.64     44.63      41.09
  9315.21    9315.21   9298.63     36.90      28.49
  9316.21    9316.21   9299.62     31.95      27.52
  9317.21    9317.21   9300.60     31.84      29.10
  9318.21    9318.21   9301.59     35.41      32.40
  9319.21    9319.21   9302.58     53.22      32.58
  9320.21    9320.21   9303.57     49.60      29.06
  9321.21    9321.21   9304.55     44.43      30.81
  9322.21    9322.21   9305.54     43.60      31.91
  9323.21    9323.21   9306.53     46.07      35.09
  9324.21    9324.21   9307.52     49.91      38.45
  9325.21    9325.21   9308.50     56.98      41.41
  9326.21    9326.21   9309.49     58.34      36.05
  9327.21    9327.21   9310.48     52.27      38.28
  9328.21    9328.21   9311.47     43.69      46.25
  9329.21    9329.21   9312.45     56.06      58.52
  9330.21    9330.21   9313.44     63.08      90.13
  9331.21    9331.21   9314.43     78.29      66.75
  9332.21    9332.21   9315.42     65.42      56.58
  9333.21    9333.21   9316.40     44.94      31.05
  9334.21    9334.21   9317.39     44.71      33.00
  9335.21    9335.21   9318.38     47.81      34.94
  9336.21    9336.21   9319.37     52.32      33.32
  9337.21    9337.21   9320.35     49.64      35.57
  9338.21    9338.21   9321.34     49.53      36.05
  9339.21    9339.21   9322.33     50.70      37.45
  9340.21    9340.21   9323.32     53.02      39.04
  9341.21    9341.21   9324.31     61.62      41.75
  9342.21    9342.21   9325.29     58.81      38.40
  9343.21    9343.21   9326.28     49.04      38.53
  9344.21    9344.21   9327.27     47.48      40.08
  9345.21    9345.21   9328.26     52.69      42.37
  9346.21    9346.21   9329.24     59.33      45.90
  9347.21    9347.21   9330.23     57.08      43.14
  9348.21    9348.21   9331.22     50.94      41.48
  9349.21    9349.21   9332.21     43.55      40.03
  9350.21    9350.21   9333.19     57.39      41.16
  9351.21    9351.21   9334.18     47.40      42.42
  9352.21    9352.21   9335.17     44.91      46.00
  9353.21    9353.21   9336.16     51.35      45.82
  9354.21    9354.21   9337.14     54.48      40.81
  9355.21    9355.21   9338.13     48.56      38.24
  9356.21    9356.21   9339.12     45.84      41.60
  9357.21    9357.21   9340.11     44.43      42.89
  9358.21    9358.21   9341.09     54.89      51.00
  9359.21    9359.21   9342.08     60.48      50.96
  9360.21    9360.21   9343.07     53.43      49.46
  9361.21    9361.21   9344.06     51.59      48.47
  9362.21    9362.21   9345.04     52.07      43.97
  9363.21    9363.21   9346.03     50.19      43.12
  9364.21    9364.21   9347.02     48.98      42.12
  9365.21    9365.21   9348.01     50.02      46.26
  9366.21    9366.21   9348.99     50.52      46.85
  9367.21    9367.21   9349.98     56.23      42.91
  9368.21    9368.21   9350.97     57.43      41.86
  9369.21    9369.21   9351.96     52.51      36.81
  9370.21    9370.21   9352.94     46.03      33.00
  9371.21    9371.21   9353.93     48.78      33.00
  9372.21    9372.21   9354.92     57.11      33.35
  9373.21    9373.21   9355.91     52.73      42.65
  9374.21    9374.21   9356.89     50.78      44.62
  9375.21    9375.21   9357.88     51.66      49.00
  9376.21    9376.21   9358.87     52.87      49.00
  9377.21    9377.21   9359.86     56.05      49.06
  9378.21    9378.21   9360.84     54.21      50.24
  9379.21    9379.21   9361.83     58.04      46.34
  9380.21    9380.21   9362.82     59.70      40.52
  9381.21    9381.21   9363.81     53.70      41.55
  9382.21    9382.21   9364.80     48.08      46.08
  9383.21    9383.21   9365.78     47.47      41.66
  9384.21    9384.21   9366.77     48.03      47.81
  9385.21    9385.21   9367.76     45.17      54.19
  9386.21    9386.21   9368.75     48.16      53.50
  9387.21    9387.21   9369.74     55.02      61.15
  9388.21    9388.21   9370.73     59.22      59.72
  9389.21    9389.21   9371.71     62.44      55.36
  9390.21    9390.21   9372.70     56.06      51.00
  9391.21    9391.21   9373.69     52.23      50.80
  9392.21    9392.21   9374.68     53.54      48.72
  9393.21    9393.21   9375.67     51.30      45.80
  9394.21    9394.21   9376.66     52.34      39.22
  9395.21    9395.21   9377.65     46.30      38.56
  9396.21    9396.21   9378.63     41.86      40.63
  9397.21    9397.21   9379.62     40.86      42.19
  9398.21    9398.21   9380.61     52.32      49.13
  9399.21    9399.21   9381.60     59.17      60.00
  9400.21    9400.21   9382.59     58.08      60.00
  9401.21    9401.21   9383.57     61.83      60.00
  9402.21    9402.21   9384.56     59.36      59.36
  9403.21    9403.21   9385.55     59.18      52.90
  9404.21    9404.21   9386.54     56.37      49.60
  9405.21    9405.21   9387.53     49.03      49.43
  9406.21    9406.21   9388.52     53.15      54.11
  9407.21    9407.21   9389.51     55.64      53.37
  9408.21    9408.21   9390.49     56.85      41.75
  9409.21    9409.21   9391.48     54.16      40.09
  9410.21    9410.21   9392.47     43.99      42.79
  9411.21    9411.21   9393.46     38.44      46.48
  9412.21    9412.21   9394.45     52.20      48.29
  9413.21    9413.21   9395.44     58.54      49.00
  9414.21    9414.21   9396.42     59.52      49.74
  9415.21    9415.21   9397.40     61.16      55.90
  9416.21    9416.21   9398.39     65.26      53.34
  9417.21    9417.21   9399.37     62.06      52.34
  9418.21    9418.21   9400.35     59.02      46.00
  9419.21    9419.21   9401.34     55.74      46.00
  9420.21    9420.21   9402.32     53.63      45.87
  9421.21    9421.21   9403.31     32.49      42.37
  9422.21    9422.21   9404.29     27.13      42.10
  9423.21    9423.21   9405.27     13.21      44.61
  9424.21    9424.21   9406.26      8.81      41.62
  9425.21    9425.21   9407.24     14.01      35.25
  9426.21    9426.21   9408.23     14.30      44.10
  9427.21    9427.21   9409.21     18.20      45.68
  9428.21    9428.21   9410.19     11.80      41.97
  9429.21    9429.21   9411.18     14.26      40.84
  9430.21    9430.21   9412.16     21.62      40.00
  9431.21    9431.21   9413.15     25.94      40.00
  9432.21    9432.21   9414.13     28.01      40.00
  9433.21    9433.21   9415.11     30.49      40.00
  9434.21    9434.21   9416.10     31.43      39.58
  9435.21    9435.21   9417.08     37.20      36.19
  9436.21    9436.21   9418.07     35.35      41.35
  9437.21    9437.21   9419.05     38.07      42.03
  9438.21    9438.21   9420.03     37.67      43.16
  9439.21    9439.21   9421.02     38.22      44.10
  9440.21    9440.21   9422.00     37.87      46.75
  9441.21    9441.21   9422.99     29.08      48.32
  9442.21    9442.21   9423.97     41.99      47.25
  9443.21    9443.21   9424.95     50.60      47.59
  9444.21    9444.21   9425.94     48.68      47.49
  9445.21    9445.21   9426.91     48.95      46.00
  9446.21    9446.21   9427.88     48.10      45.94
  9447.21    9447.21   9428.86     45.94      44.29
  9448.21    9448.21   9429.83     44.64      45.70
  9449.21    9449.21   9430.80     49.89      46.00
  9450.21    9450.21   9431.78     45.85      45.21
  9451.21    9451.21   9432.75     15.31      37.90
  9452.21    9452.21   9433.72     23.17      35.36
  9453.21    9453.21   9434.70     33.23      35.00
  9454.21    9454.21   9435.67     26.96      35.00
  9455.21    9455.21   9436.64     29.76      35.14
  9456.21    9456.21   9437.62     32.72      39.11
  9457.21    9457.21   9438.59     37.59      43.96
  9458.21    9458.21   9439.56     42.81      49.00
  9459.21    9459.21   9440.54     41.34      49.00
  9460.21    9460.21   9441.51     54.68      48.86
  9461.21    9461.21   9442.48     53.66      47.44
  9462.21    9462.21   9443.46     56.47      49.01
