###########################################
# File generated by DigiDrill LAS Builder #
###########################################
~Version Information
VERS.   2.0   :LAS Version 2.0        
WRAP.    NO   :One line per depth step

#MNEM   .UNIT                 DATA   INFORMATION       
#------------------------------------------------------
~Well Information
 STRT   .FT                9001.21   :Start Depth      
 STOP   .FT               14403.00   :Stop Depth       
 STEP   .FT                   1.00   :Step Value       
 NULL   .                 -9999.00   :NULL Value       
 DATE   .                7/26/2010   :Date             
 SRVC   .                Drake MWD   :Service Company  
 COMP   .              El Paso E&P   :Operating Company
 WELL   .                Hixon #5H   :Well             
  FLD   .       EGFD Shale TXSZ'27   :Field            
  LOC   .                  Cotulla   :Location         
 CNTY   .                  LaSalle   :County           
 STAT   .                       TX   :State            
 CTRY   .                      USA   :Country          
  UWI   .               4228332299   :UWI Number       
  API   .               4228332299   :API Number       

#SURVEYS:
#SVY      DEPTH    INCL      AZM       TVD        VS      N/-S       E/-W
#------------------------------------------------------------------------
~Other Information
   0    8857.00    2.38   147.94   8847.00   -205.32   -150.52     139.80
   1    8937.00    4.40   278.70   8926.93   -204.48   -151.46     137.65
   2    8969.00    9.40   291.50   8958.69   -201.11   -150.32     134.00
   3    9001.00   12.30   297.30   8990.11   -195.47   -147.80     128.54
   4    9097.00   11.90   308.20   9083.99   -175.92   -136.99     111.67
   5    9192.00   10.40   317.30   9177.20   -157.63   -124.63      98.16
   6    9288.00    9.50   313.80   9271.76   -141.05   -112.77      86.56
   7    9380.00    8.60   311.90   9362.61   -126.60   -102.93      75.96
   8    9413.00    8.90   311.90   9395.23   -121.59    -99.57      72.23
   9    9444.00   11.60   314.20   9425.73   -116.07    -95.80      68.21
  10    9476.00   14.80   317.30   9456.88   -108.77    -90.55      63.13
  11    9508.00   18.20   319.60   9487.56    -99.70    -83.74      57.11
  12    9540.00   21.60   319.10   9517.64    -88.84    -75.48      50.02
  13    9571.00   25.00   318.20   9546.11    -76.60    -66.28      41.91
  14    9603.00   27.60   318.40   9574.80    -62.44    -55.69      32.48
  15    9635.00   29.60   319.30   9602.89    -47.15    -44.16      22.41
  16    9667.00   32.00   320.70   9630.38    -30.82    -31.60      11.88
  17    9699.00   34.20   320.90   9657.18    -13.43    -18.06       0.84
  18    9731.00   37.20   320.20   9683.17      5.16     -3.65     -11.03
  19    9763.00   41.10   317.70   9707.98     25.32     11.57     -24.31
  20    9795.00   44.90   316.50   9731.38     47.13     27.55     -39.17
  21    9826.00   48.80   316.30   9752.57     69.74     43.92     -54.76
  22    9858.00   52.80   316.30   9772.79     94.53     61.85     -71.89
  23    9890.00   56.20   316.50   9791.38    120.57     80.71     -89.85
  24    9922.00   58.70   316.50   9808.59    147.54    100.28    -108.42
  25    9954.00   61.30   316.50   9824.59    175.24    120.38    -127.49
  26    9986.00   64.50   315.60   9839.17    203.72    140.88    -147.26
  27   10018.00   67.40   314.90   9852.21    232.94    161.63    -167.83
  28   10050.00   70.50   313.80   9863.70    262.80    182.50    -189.19
  29   10082.00   74.00   313.50   9873.45    293.25    203.54    -211.24
  30   10114.00   76.90   314.20   9881.49    324.21    224.99    -233.57
  31   10146.00   79.60   314.40   9888.01    355.54    246.87    -255.99
  32   10178.00   82.70   314.50   9892.93    387.15    269.01    -278.56
  33   10209.00   86.30   314.20   9895.90    418.00    290.58    -300.62
  34   10241.00   89.00   314.20   9897.21    449.96    312.87    -323.54
  35   10336.00   91.00   314.50   9897.21    544.94    379.27    -391.47
  36   10432.00   94.80   315.10   9892.36    640.80    446.82    -459.49
  37   10527.00   95.50   314.20   9883.83    735.40    513.31    -526.80
  38   10624.00   92.40   314.00   9877.15    832.14    580.64    -596.29
  39   10719.00   93.40   314.20   9872.34    927.00    646.67    -664.42
  40   10813.00   92.90   315.20   9867.18   1020.85    712.69    -731.13
  41   10908.00   92.80   314.20   9862.45   1115.72    779.43    -798.57
  42   11004.00   92.30   312.90   9858.18   1211.58    845.50    -868.08
  43   11101.00   92.30   313.80   9854.29   1308.44    912.03    -938.56
  44   11196.00   92.60   313.50   9850.23   1403.32    977.55   -1007.24
  45   11292.00   91.60   313.50   9846.71   1499.20   1043.58   -1076.82
  46   11386.00   92.70   314.70   9843.18   1593.11   1108.95   -1144.28
  47   11482.00   93.10   313.30   9838.33   1688.96   1175.55   -1213.25
  48   11578.00   93.90   313.10   9832.47   1784.71   1241.15   -1283.10
  49   11674.00   94.00   311.70   9825.85   1880.36   1305.72   -1353.82
  50   11770.00   93.30   312.90   9819.74   1976.03   1370.20   -1424.68
  51   11865.00   93.30   314.70   9814.27   2070.83   1435.84   -1493.13
  52   11960.00   94.40   315.90   9807.89   2165.62   1503.21   -1559.80
  53   12056.00   94.80   316.60   9800.19   2261.29   1572.34   -1625.97
  54   12152.00   94.30   317.00   9792.58   2356.96   1642.10   -1691.48
  55   12248.00   92.50   317.00   9786.89   2452.75   1712.18   -1756.83
  56   12344.00   90.70   314.40   9784.21   2548.69   1780.85   -1823.84
  57   12439.00   92.10   316.50   9781.88   2643.66   1848.52   -1890.46
  58   12535.00   92.70   316.30   9777.86   2739.55   1917.98   -1956.61
  59   12631.00   92.20   314.90   9773.76   2835.46   1986.51   -2023.71
  60   12727.00   92.30   315.80   9769.99   2931.39   2054.75   -2091.13
  61   12822.00   90.70   317.00   9767.50   3026.33   2123.52   -2156.62
  62   12918.00   91.50   319.40   9765.66   3122.19   2195.07   -2220.59
  63   13014.00   90.70   318.70   9763.82   3217.96   2267.56   -2283.49
  64   13105.00   91.90   318.90   9761.75   3308.77   2336.01   -2343.42
  65   13200.00   90.70   316.80   9759.60   3403.65   2406.42   -2407.15
  66   13296.00   89.40   314.50   9759.52   3499.64   2475.06   -2474.25
  67   13392.00   88.50   314.20   9761.27   3595.61   2542.16   -2542.88
  68   13486.00   88.50   314.00   9763.74   3689.55   2607.55   -2610.37
  69   13582.00   89.30   313.80   9765.58   3785.51   2674.10   -2679.52
  70   13678.00   89.40   313.50   9766.67   3881.46   2740.36   -2748.98
  71   13774.00   90.00   313.10   9767.17   3977.40   2806.20   -2818.85
  72   13868.00   90.40   312.40   9766.84   4071.30   2870.01   -2887.87
  73   13960.00   91.30   312.60   9765.48   4163.18   2932.15   -2955.69
  74   14054.00   91.20   315.60   9763.43   4257.12   2997.55   -3023.17
  75   14148.00   92.40   318.20   9760.47   4351.03   3066.14   -3087.36
  76   14241.00   91.80   316.50   9757.06   4443.91   3134.49   -3150.33
  77   14334.00   91.70   315.90   9754.22   4536.85   3201.58   -3214.67

# MNEM   .UNIT    DATA   INFORMATION                                                               
#--------------------------------------------------------------------------------------------------
~Curve Information
 DEPTH   .FT             :Measured Depth                                                           
    MD   .FT             :Measured depth.                                                          
   TVD   .FT             :True vertical depth.                                                     
   ROP   .FT/HR          :Rate of penetration at bit depth.                                        
    GR   .API            :API corrected gamma counts from all gamma configurations at sensor depth.

#   DEPTH         MD       TVD       ROP         GR
#--------------------------------------------------
~ASCII Log
# ...
 13159.21   13159.21   9760.53    105.31      60.00
 13160.21   13160.21   9760.50    104.18      60.00
 13161.21   13161.21   9760.48    102.47      60.00
 13162.21   13162.21   9760.46    100.23      62.00
 13163.21   13163.21   9760.44     98.43      63.65
 13164.21   13164.21   9760.41     98.09      62.44
 13165.21   13165.21   9760.39    100.78      63.30
 13166.21   13166.21   9760.37     88.42      64.00
 13167.21   13167.21   9760.34     89.51      58.00
 13168.21   13168.21   9760.32     89.67      58.00
 13169.21   13169.21   9760.30    100.41      58.00
 13170.21   13170.21   9760.28    127.31      59.41
 13171.21   13171.21   9760.25    129.67      62.00
 13172.21   13172.21   9760.23    132.00      62.00
 13173.21   13173.21   9760.21    129.70      62.00
 13174.21   13174.21   9760.19    129.95      62.00
 13175.21   13175.21   9760.16    130.74      62.00
 13176.21   13176.21   9760.14    130.77      62.00
 13177.21   13177.21   9760.12    129.32      62.00
 13178.21   13178.21   9760.09    131.64      62.00
 13179.21   13179.21   9760.07    132.00      62.00
 13180.21   13180.21   9760.05     40.08      62.00
 13181.21   13181.21   9760.03    458.09      62.00
 13182.21   13182.21   9760.00    338.06      62.00
 13183.21   13183.21   9759.98     38.36      62.00
 13184.21   13184.21   9759.96     11.45      62.00
 13185.21   13185.21   9759.94     18.96      62.00
 13186.21   13186.21   9759.91     27.25      62.00
 13187.21   13187.21   9759.89     15.59      62.00
 13188.21   13188.21   9759.87     12.90      62.00
 13189.21   13189.21   9759.85     20.48      62.00
 13190.21   13190.21   9759.82     27.69      62.00
 13191.21   13191.21   9759.80     34.01      62.00
 13192.21   13192.21   9759.78     33.87      62.00
 13193.21   13193.21   9759.75     29.56      62.00
 13194.21   13194.21   9759.73     33.83      62.00
 13195.21   13195.21   9759.71     30.60      60.35
 13196.21   13196.21   9759.69     22.42      58.00
 13197.21   13197.21   9759.66     17.20      58.00
 13198.21   13198.21   9759.64     12.75      58.00
 13199.21   13199.21   9759.62     11.84      60.00
 13200.21   13200.21   9759.60     14.47      60.00
 13201.21   13201.21   9759.60     25.73      60.00
 13202.21   13202.21   9759.60     31.78      60.00
 13203.21   13203.21   9759.60     34.46      60.00
 13204.21   13204.21   9759.60     37.82      60.00
 13205.21   13205.21   9759.60     34.83      60.00
 13206.21   13206.21   9759.59     37.13      60.00
 13207.21   13207.21   9759.59     34.25      58.00
 13208.21   13208.21   9759.59     34.66      58.00
 13209.21   13209.21   9759.59     92.57      58.00
 13210.21   13210.21   9759.59    120.62      59.37
 13211.21   13211.21   9759.59    125.05      62.00
 13212.21   13212.21   9759.59    116.99      62.00
 13213.21   13213.21   9759.59    107.18      62.00
 13214.21   13214.21   9759.59    105.41      60.29
 13215.21   13215.21   9759.59     91.76      60.00
 13216.21   13216.21   9759.59     83.25      60.00
 13217.21   13217.21   9759.59     72.41      60.00
 13218.21   13218.21   9759.58     76.11      59.69
 13219.21   13219.21   9759.58     71.71      60.00
 13220.21   13220.21   9759.58     70.59      60.00
 13221.21   13221.21   9759.58     71.45      60.00
 13222.21   13222.21   9759.58     78.90      60.00
 13223.21   13223.21   9759.58     92.72      58.00
 13224.21   13224.21   9759.58    107.48      58.00
 13225.21   13225.21   9759.58    131.82      58.00
 13226.21   13226.21   9759.58    361.18      58.00
 13227.21   13227.21   9759.58    107.96      59.67
 13228.21   13228.21   9759.58    116.87      60.00
 13229.21   13229.21   9759.57    115.16      60.00
 13230.21   13230.21   9759.57    117.28      59.44
 13231.21   13231.21   9759.57    117.91      60.00
 13232.21   13232.21   9759.57    116.22      60.00
 13233.21   13233.21   9759.57    115.86      60.00
 13234.21   13234.21   9759.57    115.93      59.09
 13235.21   13235.21   9759.57    112.18      59.06
 13236.21   13236.21   9759.57    108.08      59.18
 13237.21   13237.21   9759.57    105.78      60.68
 13238.21   13238.21   9759.57     96.66      60.01
 13239.21   13239.21   9759.57    111.61      59.67
 13240.21   13240.21   9759.56    115.11      60.72
 13241.21   13241.21   9759.56    116.12      58.93
 13242.21   13242.21   9759.56    116.27      58.00
 13243.21   13243.21   9759.56    117.81      58.99
 13244.21   13244.21   9759.56    117.46      59.02
 13245.21   13245.21   9759.56    116.40      60.00
 13246.21   13246.21   9759.56    116.33      58.12
 13247.21   13247.21   9759.56    115.56      60.82
 13248.21   13248.21   9759.56    115.10      60.00
 13249.21   13249.21   9759.56    114.96      60.00
 13250.21   13250.21   9759.56    115.31      58.00
 13251.21   13251.21   9759.56    117.54      58.00
 13252.21   13252.21   9759.55    118.17      58.00
 13253.21   13253.21   9759.55    118.82      56.00
 13254.21   13254.21   9759.55    116.60      55.62
 13255.21   13255.21   9759.55    115.26      55.00
 13256.21   13256.21   9759.55    115.82      55.00
 13257.21   13257.21   9759.55    110.87      53.07
 13258.21   13258.21   9759.55    106.82      51.00
 13259.21   13259.21   9759.55    108.64      51.00
 13260.21   13260.21   9759.55    109.46      49.77
 13261.21   13261.21   9759.55    108.97      48.32
 13262.21   13262.21   9759.55     88.24      47.00
 13263.21   13263.21   9759.54    124.22      51.00
 13264.21   13264.21   9759.54    130.81      49.94
 13265.21   13265.21   9759.54    134.74      51.00
 13266.21   13266.21   9759.54    133.18      49.00
 13267.21   13267.21   9759.54    132.75      47.44
 13268.21   13268.21   9759.54    132.39      47.00
 13269.21   13269.21   9759.54    136.97      47.00
 13270.21   13270.21   9759.54    132.71      47.00
 13271.21   13271.21   9759.54    134.73      47.00
 13272.21   13272.21   9759.54    136.92      47.00
 13273.21   13273.21   9759.54    107.32      47.00
 13274.21   13274.21   9759.54     43.37      47.00
 13275.21   13275.21   9759.53    180.59      46.67
 13276.21   13276.21   9759.53    248.19      46.00
 13277.21   13277.21   9759.53     45.06      46.00
 13278.21   13278.21   9759.53     21.45      46.00
 13279.21   13279.21   9759.53     19.84      46.00
 13280.21   13280.21   9759.53     14.12      46.00
 13281.21   13281.21   9759.53     19.54      44.00
 13282.21   13282.21   9759.53     23.58      44.00
 13283.21   13283.21   9759.53     12.15      44.00
 13284.21   13284.21   9759.53     12.31      42.71
 13285.21   13285.21   9759.53     14.44      42.00
 13286.21   13286.21   9759.52     17.33      42.00
 13287.21   13287.21   9759.52     22.78      41.36
 13288.21   13288.21   9759.52     19.87      38.00
 13289.21   13289.21   9759.52     20.11      38.00
 13290.21   13290.21   9759.52     19.77      38.00
 13291.21   13291.21   9759.52     36.32      38.00
 13292.21   13292.21   9759.52     49.94      38.00
 13293.21   13293.21   9759.52     48.92      38.00
 13294.21   13294.21   9759.52     49.85      38.00
 13295.21   13295.21   9759.52     52.66      38.00
 13296.21   13296.21   9759.52     54.05      38.00
 13297.21   13297.21   9759.54     53.56      38.00
 13298.21   13298.21   9759.56     51.31      38.00
 13299.21   13299.21   9759.58     49.13      38.00
 13300.21   13300.21   9759.59     48.38      38.00
 13301.21   13301.21   9759.61     46.86      38.00
 13302.21   13302.21   9759.63     45.62      38.00
 13303.21   13303.21   9759.65     47.26      40.60
 13304.21   13304.21   9759.67     45.56      42.00
 13305.21   13305.21   9759.69     43.51      42.00
 13306.21   13306.21   9759.70     44.03      41.70
 13307.21   13307.21   9759.72     44.83      40.00
 13308.21   13308.21   9759.74     63.66      40.00
 13309.21   13309.21   9759.76     53.14      40.00
 13310.21   13310.21   9759.78     45.28      41.31
 13311.21   13311.21   9759.79     46.99      42.00
 13312.21   13312.21   9759.81     47.23      42.00
