~Version Information
 VERS.                2.00:   CWLS log ASCII Standard -VERSION 2.00
 WRAP.                  NO:   One line per frame      
~Well Information Block
#MNEM.UNIT                  Well Data                    Data Description
#----.----   -----------------------------------------   -------------------------------
 STRT.FT                                      1290.000 : Starting Depth
 STOP.FT                                      6345.000 : Ending Depth
 STEP.FT                                         0.500 : Level Spacing
 NULL.                                       -999.2500 : Absent Value
 COMP.        NEWFIELD EXPLORATION COMPANY             : Company
 WELL.        MORO CREEK #3409H                        : Well
 FLD .        BRISCOE RANCH (EAGLEFORD)                : Field
 LOC .        1642' FNEL & 2015' FSEL OF SURVEY        : Location
 CNTY.        DIMMIT                                   : County
 STAT.        TEXAS                                    : State
 CTRY.        USA                                      : Country
 SRVC.        Baker Hughes                             : Service Company
 DATE.        12-OCT-2014                              : Log Date
 API .        42-127-36592                             : API Number
 UWI .        42-127-36592                             : Unique Well ID
~Curve Information Block
#MNEM    .UNIT        API Codes     Curve Description
#--------.--------   ------------   -------------------------------
 DEPT    .FT         99 995 99  1 : Depth
 M1R1    .OHMM        8 120 10  1 : Vertical 1-foot resolution matched resistivity, 10-inch DOI
 M1R2    .OHMM        8 120 20  1 : Vertical 1-foot resolution matched resistivity, 20-inch DOI
 M1R3    .OHMM        8 120 30  1 : Vertical 1-foot resolution matched resistivity, 30-inch DOI
 M1R6    .OHMM        8 120 60  1 : Vertical 1-foot resolution matched resistivity, 60-inch DOI
 M1R9    .OHMM        8 120 90  1 : Vertical 1-foot resolution matched resistivity, 90-inch DOI
 M1RX    .OHMM        8 120 90  1 : Vertical 1-foot resolution matched resistivity, 120-inch DOI
 M2R2    .OHMM        8 120 20  1 : Vertical 2-foot resolution matched resistivity, 20-inch DOI
 M2RX    .OHMM        8 120 99  1 : Vertical 2-foot resolution matched resistivity, 120-inch DOI
 M2CCX   .MMHO        8 110 99  1 : HDIL 2-foot resolution compressed conductivity, 120-inch DOI
 TEN     .LBF        99 635 99  1 : Differential tension
 CAL     .IN         70 280 99  1 : Caliper
 CNCF    .PU         42 995 99  1 : Field normalized compensated neutron porosity
 PORZC   .PU         99 995 99  1 : Corrected porosity
 ZDNC    .G/C3       94 995 99  1 : Borehole size/mud weight corrected density
 ZCOR    .G/C3       45 356 99  1 : Density correction
 RWAZC   .OHMM       94 935  7  1 : Apparent formation water resistivity (corrected)
 GR      .GAPI       30 310  1  1 : Gamma ray
 PE      .B/E        45 358  1  1 : Photo electric cross-section
 WTBH    .DEGF       99 995 99  1 : Temperature of borehole
~Parameter Information Block
#MNEM.UNIT             Parameter Value                  Parameter Description
#----.----   ----------------------------------------   -------------------------------
 HIDE.       HIGH DEFINITION INDUCTION LOG^S          : Header Identifer
 HID1.       COMPENSATED Z-DENSILOG^S                 : Header Identifer
 HID2.       COMPENSATED NEUTRON LOG                  : Header Identifer
 HID3.       GAMMA RAY LOG                            : Header Identifer
 FILE.       11135                                    : File Number
 CMT1.       FINAL PRINT                              : Comment 1  
 CMT4.       H&P 389                                  : Comment 4  
 FL1 .       1883' FSWL & 7767' FSEL OF LEASE         : Field Location 1
 FL2 .       H&GN RR CO / RICHARDSON, H E             : Field Location 2
 FL3 .       SEC. 34  /  A - 1037                     : Field Location 3
 OS1 .       NONE                                     : Other Services Line 1
 PDAT.       GL                                       : Permanent Datum
 EPD .FT     588                                      : Elevation Of Perm. Datum
 LMF .       KB                                       : Log Measured From
 APD .FT     25                                       : Above Permanent Datum
 DMF .       KB                                       : Drilling Measured From
 EKB .FT     613                                      : Elevation Of Kelly Bushing
 EDF .FT     612                                      : Elevation Of Derrick Floor
 EGL .FT     588                                      : Elevation Of Ground Level
 RUN .       1                                        : Run Number
 TRIP.       1                                        : Trip Number
 SON .       US090769                                 : Service Order Number
 TDD .FT     6326                                     : Total Depth - Driller
 TDL .FT     6334                                     : Total Depth - Logger
 BLI .FT     6326                                     : Bottom Log Interval
 TLI .FT     1299                                     : Top Log Interval
 CSIZ.IN     9.625                                    : Casing Size
 CBDR.FT     1305                                     : Casing Bottom - Driller
 CBLO.FT     1299                                     : Casing Bottom - Logger
 BS  .IN     8.750                                    : Bit Size
 DFT .       OBM                                      : Drilling Fluid Type
 DFD .LB/G   10.7                                     : Drilling Fluid Density
 DFV .S      50                                       : Drilling Fluid Viscosity
 MSS .       PITS                                     : Mud Sample Source
 MFSS.       ---                                      : Mud Filtrate Sample Source
 MCSS.       ---                                      : Mud Cake Sample Source
 TSC .       9 HR                                     : Time Since Circulation
 MRT .DEGF   188                                      : Maximum Recorded Temperature
 LUN .       HL-6678                                  : Logging Unit Number
 LUL .       ALICE, TX                                : Logging Unit Location
 ENGI.       R. MARTIN                                : Engineer's Name
 WITN.       J. MARMION                               : Witness' Name
 TSTR.       HDIL/ZDL/CN/GR                           : Title Service Mnemonic
 TSTG.       NA                                       : Title Service Mnemonic
 STUS.       FINAL                                    : Status
 LCNM.       BAKER ATLAS                              : Logging Company Name
 LCC .       150                                      : Logging Company Code
 OPMD.       OH.WIRE                                  : Operation Mode
 PANA.       R. MARTIN                                : Processing Analyst
 PCON.       BAKER ATLAS                              : Processing Contractor
~Other information
 BVOL = TOTAL BOREHOLE VOLUME                                                    
 CVOL = TOTAL CEMENT VOLUME, BASED ON 5.5" CSG                                   
 DENSITY MATRIX = LIMESTONE, 2.71 G/CC                                           
 NEUTRON MATRIX = LIMESTONE, 51100 PPM SALINITY                                  
 HL-6678 CREW:  R. MARTIN, A. GONZALES, L. SALAZAR, H. RUIZ                      
#  Curve Data
~A DEPT     M1R1     M1R2     M1R3     M1R6     M1R9     M1RX     M2R2     M2RX     M2CCX    TEN      CAL      CNCF     PORZC    ZDNC     ZCOR     RWAZC    GR       PE       WTBH    
# ...
 3292.500    4.968    5.142    5.126    5.123    5.268    5.458    4.768    5.061  197.605   -8.310    8.736   17.730    5.505    2.616    0.019    0.015   74.055    3.902  151.855
 3293.000    3.891    4.020    4.013    4.010    4.125    4.269    4.344    4.613  216.787  -12.347    8.746   18.950    6.885    2.592    0.011    0.022   81.991    3.627  151.762
 3293.500    4.006    4.094    4.076    4.075    4.192    4.334    4.048    4.285  233.349  -83.399    8.745   21.061    7.980    2.574    0.005    0.027   85.945    3.324  151.626
 3294.000    3.939    3.931    3.897    3.898    4.010    4.141    3.831    4.033  247.934  -55.419    8.736   22.509    8.399    2.566    0.004    0.028   88.433    3.160  151.601
 3294.500    3.458    3.375    3.336    3.339    3.421    3.516    3.723    3.895  256.767   53.063    8.728   22.578    8.257    2.569    0.006    0.027   90.986    3.082  151.639
 3295.000    3.947    3.774    3.714    3.722    3.826    3.941    3.774    3.941  253.769   68.569    8.719   21.615    7.646    2.579    0.012    0.023   90.657    3.019  151.642
 3295.500    4.386    4.162    4.092    4.107    4.232    4.370    3.820    3.995  250.322   -3.245    8.714   20.520    7.000    2.590    0.019    0.020   88.165    3.090  151.660
 3296.000    4.186    4.024    3.973    3.992    4.110    4.235    3.639    3.811  262.411  -11.066    8.719   20.403    7.095    2.589    0.021    0.019   87.872    3.225  151.639
 3296.500    3.434    3.366    3.345    3.362    3.444    3.533    3.314    3.476  287.681   38.017    8.725   21.271    7.865    2.576    0.017    0.022   91.990    3.145  151.508
 3297.000    2.966    2.942    2.936    2.950    3.016    3.085    3.081    3.238  308.849   22.624    8.731   22.644    8.546    2.564    0.014    0.024   97.547    2.930  151.534
 3297.500    3.065    3.057    3.055    3.072    3.143    3.217    2.988    3.141  318.380  -44.679    8.738   23.829    8.866    2.558    0.013    0.025   98.985    2.892  151.707
 3298.000    3.002    2.994    2.991    3.008    3.074    3.144    2.924    3.066  326.106  -39.747    8.735   24.638    9.015    2.556    0.013    0.025   96.985    3.046  151.761
 3298.500    2.798    2.780    2.772    2.786    2.841    2.901    2.846    2.974  336.263   26.699    8.725   25.514    9.017    2.556    0.013    0.024   96.214    3.209  151.788
 3299.000    2.863    2.828    2.813    2.827    2.880    2.942    2.831    2.945  339.605   20.563    8.727   26.338    9.047    2.555    0.012    0.024   96.660    3.295  151.926
 3299.500    2.926    2.873    2.851    2.865    2.915    2.978    2.888    2.993  334.075  -51.188    8.745   26.487    9.206    2.553    0.011    0.025   94.693    3.310  151.986
 3300.000    3.038    2.966    2.937    2.953    3.002    3.067    2.955    3.055  327.328  -22.565    8.759   26.083    9.243    2.552    0.010    0.026   90.685    3.257  151.871
 3300.500    3.000    2.918    2.887    2.903    2.947    3.010    3.007    3.105  322.010  111.226    8.760   25.281    9.190    2.553    0.008    0.026   88.318    3.142  151.710
 3301.000    3.042    2.950    2.919    2.937    2.979    3.044    3.095    3.199  312.645  164.362    8.755   24.336    9.313    2.551    0.005    0.028   89.452    3.014  151.638
 3301.500    3.439    3.322    3.287    3.311    3.361    3.444    3.226    3.341  299.299   71.574    8.743   23.844    9.506    2.547    0.001    0.030   91.186    3.022  151.706
 3302.000    3.598    3.485    3.451    3.479    3.532    3.625    3.326    3.453  289.614  -15.112    8.729   23.253    9.530    2.547   -0.001    0.031   91.236    3.249  151.820
 3302.500    3.440    3.355    3.328    3.355    3.401    3.490    3.395    3.533  283.053   13.167    8.729   22.792    9.504    2.547    0.000    0.032   91.409    3.518  151.892
 3303.000    3.478    3.409    3.383    3.411    3.458    3.552    3.492    3.643  274.503   82.225    8.744   23.410    9.497    2.548    0.002    0.033   92.737    3.616  151.963
 3303.500    3.705    3.635    3.606    3.637    3.690    3.800    3.569    3.728  268.224   74.061    8.757   24.556    9.541    2.547    0.004    0.034   93.764    3.668  152.010
 3304.000    3.662    3.587    3.555    3.584    3.636    3.749    3.565    3.725  268.467   29.179    8.755   24.512    9.635    2.545    0.006    0.035   93.551    3.776  152.014
 3304.500    3.450    3.369    3.336    3.361    3.408    3.512    3.567    3.726  268.354   39.202    8.739   23.527    9.617    2.546    0.009    0.034   91.463    3.731  152.015
 3305.000    3.715    3.608    3.564    3.593    3.648    3.768    3.691    3.859  259.150   51.496    8.732   22.897    9.286    2.551    0.011    0.033   89.119    3.448  151.994
 3305.500    4.101    3.964    3.906    3.941    4.009    4.154    3.921    4.107  243.469   21.072    8.743   22.172    8.822    2.559    0.012    0.032   88.172    3.231  151.931
 3306.000    4.331    4.180    4.114    4.156    4.234    4.394    4.132    4.341  230.357   27.415    8.756   21.332    8.580    2.563    0.011    0.032   86.787    3.293  151.931
 3306.500    4.347    4.202    4.140    4.186    4.268    4.431    4.264    4.499  222.281   61.451    8.757   21.052    8.625    2.563    0.008    0.033   83.610    3.467  151.994
 3307.000    4.349    4.218    4.165    4.216    4.302    4.469    4.352    4.617  216.610   26.730    8.745   20.973    8.742    2.561    0.005    0.035   81.857    3.514  151.973
 3307.500    4.567    4.449    4.405    4.465    4.568    4.752    4.372    4.666  214.329  -35.346    8.735   20.467    8.768    2.560    0.002    0.036   82.422    3.429  151.838
 3308.000    4.796    4.698    4.668    4.739    4.861    5.069    4.211    4.518  221.349  -25.842    8.737   20.193    8.692    2.561    0.000    0.034   83.082    3.301  151.749
 3308.500    4.050    4.000    3.987    4.042    4.140    4.312    3.888    4.184  238.989   39.279    8.746   20.588    8.522    2.564    0.001    0.030   83.073    3.213  151.787
 3309.000    3.536    3.498    3.489    3.534    3.617    3.763    3.599    3.877  257.914   80.654    8.750   21.489    8.346    2.567    0.005    0.027   84.743    3.287  151.855
 3309.500    3.531    3.474    3.459    3.505    3.590    3.738    3.461    3.724  268.532   36.439    8.746   22.643    8.538    2.564    0.009    0.027   88.094    3.488  151.879
 3310.000    3.384    3.298    3.274    3.318    3.393    3.527    3.463    3.716  269.137  -49.925    8.740   23.297    9.155    2.553    0.009    0.031   91.374    3.542  151.926
 3310.500    3.496    3.366    3.331    3.379    3.456    3.588    3.593    3.847  259.965  -47.028    8.736   23.269    9.440    2.549    0.008    0.034   92.534    3.363  152.035
 3311.000    4.103    3.896    3.841    3.909    4.009    4.179    3.813    4.084  244.881   36.022    8.741   22.960    8.849    2.559    0.010    0.032   90.759    3.253  152.170
 3311.500    4.368    4.139    4.076    4.157    4.266    4.450    3.989    4.278  233.779   58.725    8.749   22.615    8.019    2.573    0.012    0.028   87.107    3.385  152.229
 3312.000    4.236    4.052    3.998    4.079    4.178    4.348    4.058    4.355  229.646   19.379    8.752   22.042    7.867    2.575    0.011    0.027   84.960    3.548  152.257
 3312.500    4.197    4.055    4.010    4.092    4.185    4.353    4.120    4.428  225.860   10.844    8.745   21.222    8.184    2.570    0.008    0.030   84.998    3.558  152.342
 3313.000    4.220    4.105    4.068    4.151    4.242    4.409    4.287    4.615  216.674    3.772    8.738   20.754    8.315    2.568    0.008    0.032   83.795    3.497  152.465
 3313.500    4.694    4.572    4.531    4.629    4.735    4.926    4.530    4.878  204.984  -44.575    8.740   20.837    8.166    2.570    0.009    0.033   80.149    3.430  152.536
 3314.000    5.141    5.003    4.952    5.060    5.175    5.382    4.651    5.001  199.959  -70.118    8.740   21.013    7.847    2.576    0.010    0.031   77.958    3.388  152.567
 3314.500    4.502    4.380    4.338    4.416    4.516    4.695    4.569    4.901  204.052  -31.001    8.737   21.009    7.620    2.580    0.009    0.028   79.772    3.498  152.571
