~Version Information
 VERS.                2.00:   CWLS log ASCII Standard -VERSION 2.00
 WRAP.                  NO:   One line per frame      
~Well Information Block
#MNEM.UNIT                  Well Data                    Data Description
#----.----   -----------------------------------------   -------------------------------
 STRT.FT                                      1290.000 : Starting Depth
 STOP.FT                                      6345.000 : Ending Depth
 STEP.FT                                         0.500 : Level Spacing
 NULL.                                       -999.2500 : Absent Value
 COMP.        NEWFIELD EXPLORATION COMPANY             : Company
 WELL.        MORO CREEK #3409H                        : Well
 FLD .        BRISCOE RANCH (EAGLEFORD)                : Field
 LOC .        1642' FNEL & 2015' FSEL OF SURVEY        : Location
 CNTY.        DIMMIT                                   : County
 STAT.        TEXAS                                    : State
 CTRY.        USA                                      : Country
 SRVC.        Baker Hughes                             : Service Company
 DATE.        12-OCT-2014                              : Log Date
 API .        42-127-36592                             : API Number
 UWI .        42-127-36592                             : Unique Well ID
~Curve Information Block
#MNEM    .UNIT        API Codes     Curve Description
#--------.--------   ------------   -------------------------------
 DEPT    .FT         99 995 99  1 : Depth
 M1R1    .OHMM        8 120 10  1 : Vertical 1-foot resolution matched resistivity, 10-inch DOI
 M1R2    .OHMM        8 120 20  1 : Vertical 1-foot resolution matched resistivity, 20-inch DOI
 M1R3    .OHMM        8 120 30  1 : Vertical 1-foot resolution matched resistivity, 30-inch DOI
 M1R6    .OHMM        8 120 60  1 : Vertical 1-foot resolution matched resistivity, 60-inch DOI
 M1R9    .OHMM        8 120 90  1 : Vertical 1-foot resolution matched resistivity, 90-inch DOI
 M1RX    .OHMM        8 120 90  1 : Vertical 1-foot resolution matched resistivity, 120-inch DOI
 M2R2    .OHMM        8 120 20  1 : Vertical 2-foot resolution matched resistivity, 20-inch DOI
 M2RX    .OHMM        8 120 99  1 : Vertical 2-foot resolution matched resistivity, 120-inch DOI
 M2CCX   .MMHO        8 110 99  1 : HDIL 2-foot resolution compressed conductivity, 120-inch DOI
 TEN     .LBF        99 635 99  1 : Differential tension
 CAL     .IN         70 280 99  1 : Caliper
 CNCF    .PU         42 995 99  1 : Field normalized compensated neutron porosity
 PORZC   .PU         99 995 99  1 : Corrected porosity
 ZDNC    .G/C3       94 995 99  1 : Borehole size/mud weight corrected density
 ZCOR    .G/C3       45 356 99  1 : Density correction
 RWAZC   .OHMM       94 935  7  1 : Apparent formation water resistivity (corrected)
 GR      .GAPI       30 310  1  1 : Gamma ray
 PE      .B/E        45 358  1  1 : Photo electric cross-section
 WTBH    .DEGF       99 995 99  1 : Temperature of borehole
~Parameter Information Block
#MNEM.UNIT             Parameter Value                  Parameter Description
#----.----   ----------------------------------------   -------------------------------
 HIDE.       HIGH DEFINITION INDUCTION LOG^S          : Header Identifer
 HID1.       COMPENSATED Z-DENSILOG^S                 : Header Identifer
 HID2.       COMPENSATED NEUTRON LOG                  : Header Identifer
 HID3.       GAMMA RAY LOG                            : Header Identifer
 FILE.       11135                                    : File Number
 CMT1.       FINAL PRINT                              : Comment 1  
 CMT4.       H&P 389                                  : Comment 4  
 FL1 .       1883' FSWL & 7767' FSEL OF LEASE         : Field Location 1
 FL2 .       H&GN RR CO / RICHARDSON, H E             : Field Location 2
 FL3 .       SEC. 34  /  A - 1037                     : Field Location 3
 OS1 .       NONE                                     : Other Services Line 1
 PDAT.       GL                                       : Permanent Datum
 EPD .FT     588                                      : Elevation Of Perm. Datum
 LMF .       KB                                       : Log Measured From
 APD .FT     25                                       : Above Permanent Datum
 DMF .       KB                                       : Drilling Measured From
 EKB .FT     613                                      : Elevation Of Kelly Bushing
 EDF .FT     612                                      : Elevation Of Derrick Floor
 EGL .FT     588                                      : Elevation Of Ground Level
 RUN .       1                                        : Run Number
 TRIP.       1                                        : Trip Number
 SON .       US090769                                 : Service Order Number
 TDD .FT     6326                                     : Total Depth - Driller
 TDL .FT     6334                                     : Total Depth - Logger
 BLI .FT     6326                                     : Bottom Log Interval
 TLI .FT     1299                                     : Top Log Interval
 CSIZ.IN     9.625                                    : Casing Size
 CBDR.FT     1305                                     : Casing Bottom - Driller
 CBLO.FT     1299                                     : Casing Bottom - Logger
 BS  .IN     8.750                                    : Bit Size
 DFT .       OBM                                      : Drilling Fluid Type
 DFD .LB/G   10.7                                     : Drilling Fluid Density
 DFV .S      50                                       : Drilling Fluid Viscosity
 MSS .       PITS                                     : Mud Sample Source
 MFSS.       ---                                      : Mud Filtrate Sample Source
 MCSS.       ---                                      : Mud Cake Sample Source
 TSC .       9 HR                                     : Time Since Circulation
 MRT .DEGF   188                                      : Maximum Recorded Temperature
 LUN .       HL-6678                                  : Logging Unit Number
 LUL .       ALICE, TX                                : Logging Unit Location
 ENGI.       R. MARTIN                                : Engineer's Name
 WITN.       J. MARMION                               : Witness' Name
 TSTR.       HDIL/ZDL/CN/GR                           : Title Service Mnemonic
 TSTG.       NA                                       : Title Service Mnemonic
 STUS.       FINAL                                    : Status
 LCNM.       BAKER ATLAS                              : Logging Company Name
 LCC .       150                                      : Logging Company Code
 OPMD.       OH.WIRE                                  : Operation Mode
 PANA.       R. MARTIN                                : Processing Analyst
 PCON.       BAKER ATLAS                              : Processing Contractor
~Other information
 BVOL = TOTAL BOREHOLE VOLUME                                                    
 CVOL = TOTAL CEMENT VOLUME, BASED ON 5.5" CSG                                   
 DENSITY MATRIX = LIMESTONE, 2.71 G/CC                                           
 NEUTRON MATRIX = LIMESTONE, 51100 PPM SALINITY                                  
 HL-6678 CREW:  R. MARTIN, A. GONZALES, L. SALAZAR, H. RUIZ                      
#  Curve Data
~A DEPT     M1R1     M1R2     M1R3     M1R6     M1R9     M1RX     M2R2     M2RX     M2CCX    TEN      CAL      CNCF     PORZC    ZDNC     ZCOR     RWAZC    GR       PE       WTBH    
# ...
 6285.000    8.613    8.046    7.809    7.809    8.039    8.386    7.853    8.177  122.302  -28.883    8.655   10.188    4.003    2.642    0.012    0.013   32.571    4.642 -999.250
 6285.500    5.618    5.253    5.126    5.148    5.242    5.385    7.335    7.596  131.646  -65.900    8.663   11.032    3.664    2.647    0.018    0.010   31.798    4.646 -999.250
 6286.000    8.469    7.536    7.236    7.323    7.486    7.738    9.370    9.684  103.268  -60.023    8.656   10.071    3.015    2.658    0.022    0.009   32.287    4.703 -999.250
 6286.500   31.106   22.052   19.828   20.876   21.997   23.778   16.033   16.926   59.081   -7.249    8.634    7.309    2.787    2.662    0.021    0.013   32.734    4.626 -999.250
 6287.000   52.539   34.571   30.441   33.444   35.648   38.909   26.828   29.369   34.050   23.974    8.621    4.705    2.943    2.660    0.018    0.025   32.245    4.448 -999.250
 6287.500   40.220   33.905   31.678   34.633   35.665   38.145   36.099   40.944   24.424  -26.870    8.626    3.334    2.923    2.660    0.016    0.035   31.295    4.387 -999.250
 6288.000   45.791   46.743   47.044   50.124   51.362   54.543   40.628   46.394   21.555 -125.792    8.635    2.861    2.410    2.669    0.019    0.027   29.592    4.483 -999.250
 6288.500   50.522   68.019   73.569   74.163   77.124   81.509   44.522   53.313   18.757 -151.124    8.627    2.704    1.763    2.680    0.022    0.017   27.942    4.632 -999.250
 6289.000   28.005   37.341   41.329   41.967   43.650   46.075   42.885   52.687   18.980  -23.176    8.614    2.641    1.783    2.680    0.019    0.017   29.320    4.782 -999.250
 6289.500   23.671   30.753   33.431   33.809   35.222   37.171   37.700   45.316   22.067  166.272    8.608    2.715    2.728    2.663    0.011    0.034   33.351    4.777 -999.250
 6290.000   29.129   37.472   39.231   39.218   40.467   42.709   35.131   40.030   24.982  249.105    8.604    2.843    3.559    2.649    0.004    0.051   35.445    4.600 -999.250
 6290.500   30.297   35.894   36.116   35.682   36.607   38.567   35.408   38.038   26.289  185.312    8.595    2.900    3.476    2.651    0.005    0.046   34.735    4.514 -999.250
 6291.000   32.703   35.702   35.704   34.545   35.780   37.601   34.647   36.473   27.417   73.230    8.597    2.966    2.950    2.660    0.010    0.032 -999.250    4.585 -999.250
 6291.500   29.324   30.150   29.862   28.879   30.054   31.292   32.577   33.914   29.486   -1.061    8.607    3.022    2.635    2.665    0.013    0.024 -999.250    4.650 -999.250
 6292.000   27.615   27.629   27.318   26.457   27.610   28.595   31.121   32.353   30.909  -30.653    8.610    2.980    2.547    2.666    0.014    0.021 -999.250    4.710 -999.250
 6292.500   34.661   35.133   34.590   33.414   35.251   36.753   29.620   30.763   32.506  -51.062    8.608    2.957    2.614    2.665    0.014    0.021 -999.250    4.763 -999.250
 6293.000   38.773   41.484   41.494   40.353   43.488   45.913   23.133   24.447   40.904  -75.104    8.608    2.969    2.871    2.661    0.013    0.020 -999.250    4.688 -999.250
 6293.500   18.886   20.433   20.934   20.671   21.966   22.672   15.635   16.912   59.129  -71.498    8.611    2.869    3.194    2.655    0.014    0.017 -999.250    4.509 -999.250
 6294.000    8.703    9.295    9.561    9.538    9.895   10.032   12.298   13.624   73.402  -29.487    8.612    2.789    3.333    2.653    0.016    0.015 -999.250    4.380 -999.250
 6294.500    9.559   10.517   10.963   10.978   11.445   11.584   12.615   14.182   70.514    2.017    8.601    3.078    3.362    2.653    0.016    0.016 -999.250    4.367 -999.250
 6295.000   14.226   16.545   17.457   17.506   18.422   18.638   16.756   18.906   52.894  -16.195    8.586    3.249    3.531    2.650    0.013    0.024 -999.250    4.460 -999.250
 6295.500   21.260   26.083   27.319   27.294   28.703   28.996   26.699   29.753   33.610  -53.874    8.574    2.471    3.810    2.645    0.008    0.043 -999.250    4.600 -999.250
 6296.000   40.721   55.106   56.410   56.360   58.327   58.952   40.327   43.460   23.010  -55.444    8.566    1.635    3.892    2.643    0.007    0.066 -999.250    4.658 -999.250
 6296.500   73.611   92.546   92.343   90.704   92.779   93.934   44.695   46.458   21.525   -9.600    8.557    1.712    3.549    2.649    0.013    0.059 -999.250    4.681 -999.250
 6297.000   31.401   35.911   35.709   34.792   36.895   37.227   35.870   37.185   26.893   42.123    8.558    2.155    2.847    2.661    0.023    0.030 -999.250    4.850 -999.250
 6297.500   21.449   22.847   22.216   21.547   23.010   23.214   28.938   29.443   33.964   43.251    8.568 -999.250    2.143    2.673    0.031    0.014 -999.250    5.012 -999.250
 6298.000   24.933   25.403   24.699   23.887   25.444   25.715   24.909   25.213   39.662  -14.561    8.576 -999.250    1.815    2.679    0.033    0.008 -999.250    4.899 -999.250
 6298.500   26.543   26.700   26.282   25.567   27.026   27.361   20.505   20.991   47.638  -68.864    8.579 -999.250    2.023    2.675    0.030    0.009 -999.250    4.678 -999.250
 6299.000   21.969   22.411   22.044   21.515   23.146   23.593   14.917   15.458   64.690  -60.949    8.574 -999.250    2.611    2.665    0.025    0.011 -999.250    4.566 -999.250
 6299.500    8.413    8.371    8.377    8.327    8.644    8.763   10.280   10.878   91.929   -8.809    8.564 -999.250    3.062    2.658    0.023    0.010 -999.250    4.556 -999.250
 6300.000    6.736    6.594    6.635    6.628    6.859    6.970    8.157    8.740  114.422   21.568    8.558 -999.250    3.265    2.654    0.024    0.009 -999.250    4.645 -999.250
 6300.500    9.553    8.983    9.061    9.114    9.498    9.734    7.991    8.580  116.551    2.245    8.560 -999.250    3.542    2.649    0.024    0.011 -999.250    4.772 -999.250
 6301.000   10.513    9.659    9.670    9.782   10.155   10.387   10.003   10.786   92.713  -28.556    8.572 -999.250    3.900    2.643    0.023    0.016 -999.250    4.786 -999.250
 6301.500   17.260   15.365   15.197   15.511   16.202   16.724   16.401   17.958   55.686  -24.332    8.588 -999.250    3.927    2.643    0.025    0.028 -999.250    4.642 -999.250
 6302.000   35.192   29.973   28.674   29.828   31.577   33.224   29.266   32.357   30.906   -3.608    8.596 -999.250    3.480    2.650    0.029    0.039 -999.250    4.452 -999.250
 6302.500   50.744   46.014   42.644   44.962   47.718   50.694   43.014   47.441   21.079  -15.547    8.586 -999.250    2.948    2.660    0.034    0.041 -999.250    4.381 -999.250
 6303.000   48.053   48.107   45.604   47.641   48.800   50.609   42.309   44.603   22.420  -61.833    8.568 -999.250    2.689    2.664    0.037    0.032 -999.250    4.492 -999.250
 6303.500   46.224   50.253   49.126   50.412   52.388   54.373   28.414   30.281   33.024  -92.363    8.557 -999.250    2.447    2.668    0.040    0.018 -999.250    4.625 -999.250
 6304.000   25.789   27.936   27.892   28.151   29.428   31.312   16.794   17.958   55.685  -63.750    8.560 -999.250    1.848    2.678    0.045    0.006 -999.250    4.550 -999.250
 6304.500    9.961   10.210   10.196   10.188   10.426   10.776   11.115   11.789   84.822    6.518    8.570 -999.250    1.212    2.689    0.049    0.002 -999.250    4.282 -999.250
 6305.000    8.256    8.332    8.295    8.266    8.431    8.714    9.104    9.562  104.582   44.586    8.585 -999.250    1.058    2.692    0.049    0.001 -999.250    4.146 -999.250
 6305.500   10.774   10.779   10.675   10.626   10.888   11.402    8.328    8.694  115.018   -2.275    8.594 -999.250    1.453    2.685    0.046    0.002 -999.250    4.389 -999.250
 6306.000    6.485    6.469    6.429    6.424    6.522    6.717    7.995    8.377  119.375  -99.514    8.587 -999.250    2.191    2.673    0.040    0.004 -999.250    4.878 -999.250
 6306.500    6.450    6.425    6.392    6.409    6.513    6.685    9.056    9.580  104.384 -139.579    8.577 -999.250    2.939    2.660    0.036    0.008 -999.250    5.045 -999.250
 6307.000   16.003   16.056   15.927   16.195   16.709   17.473   13.635   14.643   68.290  -46.598    8.580 -999.250    3.065    2.658    0.036    0.014 -999.250    4.687 -999.250
