~Version Information
 VERS.                2.00:   CWLS log ASCII Standard -VERSION 2.00
 WRAP.                  NO:   One line per frame      
~Well Information Block
#MNEM.UNIT                  Well Data                    Data Description
#----.----   -----------------------------------------   -------------------------------
 STRT.FT                                      1290.000 : Starting Depth
 STOP.FT                                      6345.000 : Ending Depth
 STEP.FT                                         0.500 : Level Spacing
 NULL.                                       -999.2500 : Absent Value
 COMP.        NEWFIELD EXPLORATION COMPANY             : Company
 WELL.        MORO CREEK #3409H                        : Well
 FLD .        BRISCOE RANCH (EAGLEFORD)                : Field
 LOC .        1642' FNEL & 2015' FSEL OF SURVEY        : Location
 CNTY.        DIMMIT                                   : County
 STAT.        TEXAS                                    : State
 CTRY.        USA                                      : Country
 SRVC.        Baker Hughes                             : Service Company
 DATE.        12-OCT-2014                              : Log Date
 API .        42-127-36592                             : API Number
 UWI .        42-127-36592                             : Unique Well ID
~Curve Information Block
#MNEM    .UNIT        API Codes     Curve Description
#--------.--------   ------------   -------------------------------
 DEPT    .FT         99 995 99  1 : Depth
 M1R1    .OHMM        8 120 10  1 : Vertical 1-foot resolution matched resistivity, 10-inch DOI
 M1R2    .OHMM        8 120 20  1 : Vertical 1-foot resolution matched resistivity, 20-inch DOI
 M1R3    .OHMM        8 120 30  1 : Vertical 1-foot resolution matched resistivity, 30-inch DOI
 M1R6    .OHMM        8 120 60  1 : Vertical 1-foot resolution matched resistivity, 60-inch DOI
 M1R9    .OHMM        8 120 90  1 : Vertical 1-foot resolution matched resistivity, 90-inch DOI
 M1RX    .OHMM        8 120 90  1 : Vertical 1-foot resolution matched resistivity, 120-inch DOI
 M2R2    .OHMM        8 120 20  1 : Vertical 2-foot resolution matched resistivity, 20-inch DOI
 M2RX    .OHMM        8 120 99  1 : Vertical 2-foot resolution matched resistivity, 120-inch DOI
 M2CCX   .MMHO        8 110 99  1 : HDIL 2-foot resolution compressed conductivity, 120-inch DOI
 TEN     .LBF        99 635 99  1 : Differential tension
 CAL     .IN         70 280 99  1 : Caliper
 CNCF    .PU         42 995 99  1 : Field normalized compensated neutron porosity
 PORZC   .PU         99 995 99  1 : Corrected porosity
 ZDNC    .G/C3       94 995 99  1 : Borehole size/mud weight corrected density
 ZCOR    .G/C3       45 356 99  1 : Density correction
 RWAZC   .OHMM       94 935  7  1 : Apparent formation water resistivity (corrected)
 GR      .GAPI       30 310  1  1 : Gamma ray
 PE      .B/E        45 358  1  1 : Photo electric cross-section
 WTBH    .DEGF       99 995 99  1 : Temperature of borehole
~Parameter Information Block
#MNEM.UNIT             Parameter Value                  Parameter Description
#----.----   ----------------------------------------   -------------------------------
 HIDE.       HIGH DEFINITION INDUCTION LOG^S          : Header Identifer
 HID1.       COMPENSATED Z-DENSILOG^S                 : Header Identifer
 HID2.       COMPENSATED NEUTRON LOG                  : Header Identifer
 HID3.       GAMMA RAY LOG                            : Header Identifer
 FILE.       11135                                    : File Number
 CMT1.       FINAL PRINT                              : Comment 1  
 CMT4.       H&P 389                                  : Comment 4  
 FL1 .       1883' FSWL & 7767' FSEL OF LEASE         : Field Location 1
 FL2 .       H&GN RR CO / RICHARDSON, H E             : Field Location 2
 FL3 .       SEC. 34  /  A - 1037                     : Field Location 3
 OS1 .       NONE                                     : Other Services Line 1
 PDAT.       GL                                       : Permanent Datum
 EPD .FT     588                                      : Elevation Of Perm. Datum
 LMF .       KB                                       : Log Measured From
 APD .FT     25                                       : Above Permanent Datum
 DMF .       KB                                       : Drilling Measured From
 EKB .FT     613                                      : Elevation Of Kelly Bushing
 EDF .FT     612                                      : Elevation Of Derrick Floor
 EGL .FT     588                                      : Elevation Of Ground Level
 RUN .       1                                        : Run Number
 TRIP.       1                                        : Trip Number
 SON .       US090769                                 : Service Order Number
 TDD .FT     6326                                     : Total Depth - Driller
 TDL .FT     6334                                     : Total Depth - Logger
 BLI .FT     6326                                     : Bottom Log Interval
 TLI .FT     1299                                     : Top Log Interval
 CSIZ.IN     9.625                                    : Casing Size
 CBDR.FT     1305                                     : Casing Bottom - Driller
 CBLO.FT     1299                                     : Casing Bottom - Logger
 BS  .IN     8.750                                    : Bit Size
 DFT .       OBM                                      : Drilling Fluid Type
 DFD .LB/G   10.7                                     : Drilling Fluid Density
 DFV .S      50                                       : Drilling Fluid Viscosity
 MSS .       PITS                                     : Mud Sample Source
 MFSS.       ---                                      : Mud Filtrate Sample Source
 MCSS.       ---                                      : Mud Cake Sample Source
 TSC .       9 HR                                     : Time Since Circulation
 MRT .DEGF   188                                      : Maximum Recorded Temperature
 LUN .       HL-6678                                  : Logging Unit Number
 LUL .       ALICE, TX                                : Logging Unit Location
 ENGI.       R. MARTIN                                : Engineer's Name
 WITN.       J. MARMION                               : Witness' Name
 TSTR.       HDIL/ZDL/CN/GR                           : Title Service Mnemonic
 TSTG.       NA                                       : Title Service Mnemonic
 STUS.       FINAL                                    : Status
 LCNM.       BAKER ATLAS                              : Logging Company Name
 LCC .       150                                      : Logging Company Code
 OPMD.       OH.WIRE                                  : Operation Mode
 PANA.       R. MARTIN                                : Processing Analyst
 PCON.       BAKER ATLAS                              : Processing Contractor
~Other information
 BVOL = TOTAL BOREHOLE VOLUME                                                    
 CVOL = TOTAL CEMENT VOLUME, BASED ON 5.5" CSG                                   
 DENSITY MATRIX = LIMESTONE, 2.71 G/CC                                           
 NEUTRON MATRIX = LIMESTONE, 51100 PPM SALINITY                                  
 HL-6678 CREW:  R. MARTIN, A. GONZALES, L. SALAZAR, H. RUIZ                      
#  Curve Data
~A DEPT     M1R1     M1R2     M1R3     M1R6     M1R9     M1RX     M2R2     M2RX     M2CCX    TEN      CAL      CNCF     PORZC    ZDNC     ZCOR     RWAZC    GR       PE       WTBH    
# ...
 2955.000    4.554    4.455    4.423    4.475    4.585    4.709    4.435    4.687  213.372  -84.763    8.732   21.942    8.064    2.572    0.006    0.030   84.915    3.311  146.068
 2955.500    4.644    4.538    4.501    4.559    4.671    4.800    4.453    4.705  212.534  -92.085    8.722   21.261    7.805    2.577    0.012    0.029   84.431    3.317  146.023
 2956.000    4.492    4.384    4.346    4.402    4.505    4.626    4.445    4.695  212.975 -111.610    8.716   20.612    7.698    2.578    0.015    0.028   84.069    3.355  145.893
 2956.500    4.467    4.349    4.308    4.365    4.464    4.584    4.490    4.740  210.959 -122.607    8.719   20.061    7.981    2.574    0.013    0.030   85.556    3.406  145.757
 2957.000    4.699    4.558    4.511    4.574    4.680    4.809    4.640    4.900  204.068 -131.875    8.729   19.483    8.510    2.564    0.009    0.035   88.457    3.453  145.665
 2957.500    4.990    4.827    4.773    4.844    4.959    5.100    4.880    5.159  193.836 -150.506    8.740   19.216    8.729    2.561    0.006    0.039   89.690    3.459  145.618
 2958.000    5.273    5.097    5.041    5.119    5.242    5.395    5.147    5.451  183.456 -151.884    8.748   19.259    8.310    2.568    0.006    0.038   87.240    3.469  145.635
 2958.500    5.713    5.528    5.469    5.558    5.701    5.874    5.332    5.656  176.790 -120.341    8.739   19.144    7.765    2.577    0.006    0.034   83.136    3.595  145.702
 2959.000    5.790    5.631    5.577    5.667    5.813    5.990    5.291    5.618  177.999  -95.223    8.721   18.812    7.867    2.575    0.001    0.035   81.075    3.814  145.745
 2959.500    5.149    5.037    5.000    5.070    5.189    5.349    5.034    5.346  187.070  -93.807    8.721   19.081    8.459    2.565   -0.005    0.038   82.184    3.967  145.702
 2960.000    4.858    4.766    4.734    4.795    4.906    5.060    4.761    5.055  197.843  -89.477    8.733   20.205    8.977    2.556   -0.009    0.041   84.175    3.990  145.643
 2960.500    4.618    4.535    4.504    4.559    4.662    4.807    4.625    4.909  203.725  -91.712    8.728   21.394    9.197    2.553   -0.010    0.042   85.033    3.963  145.716
 2961.000    4.614    4.528    4.495    4.548    4.652    4.798    4.649    4.934  202.659  -98.921    8.721   21.383    9.234    2.552   -0.010    0.042   85.742    3.940  145.851
 2961.500    4.855    4.755    4.717    4.776    4.891    5.049    4.785    5.082  196.771  -60.849    8.726   20.332    8.914    2.558   -0.008    0.040   86.839    3.902  145.851
 2962.000    5.029    4.922    4.882    4.948    5.071    5.237    4.938    5.255  190.303  -12.760    8.718   19.798    8.265    2.569   -0.003    0.036   86.897    3.899  145.720
 2962.500    5.339    5.221    5.179    5.257    5.398    5.580    4.967    5.297  188.790  -28.414    8.696   20.046    8.049    2.572   -0.001    0.034   86.418    3.900  145.673
 2963.000    5.188    5.077    5.042    5.120    5.259    5.440    4.755    5.079  196.894  -46.341    8.685   20.426    8.521    2.564   -0.001    0.037   87.049    3.775  145.733
 2963.500    4.469    4.380    4.355    4.417    4.526    4.678    4.426    4.730  211.398   -4.783    8.686   20.684    8.913    2.558   -0.001    0.038   88.623    3.595  145.733
 2964.000    4.134    4.049    4.026    4.082    4.177    4.313    4.245    4.536  220.455   15.794    8.684   20.954    8.756    2.560    0.003    0.035   89.446    3.533  145.665
 2964.500    4.301    4.199    4.168    4.229    4.328    4.474    4.327    4.619  216.476  -14.249    8.689   21.154    8.497    2.565    0.008    0.033   89.101    3.522  145.618
 2965.000    4.546    4.418    4.373    4.442    4.543    4.694    4.687    4.998  200.064  -18.601    8.711   21.409    8.533    2.564    0.010    0.036   87.074    3.364  145.614
 2965.500    5.278    5.095    5.022    5.113    5.237    5.418    5.318    5.672  176.316    2.354    8.735   21.336    8.363    2.567    0.012    0.040   83.504    3.143  145.614
 2966.000    6.529    6.244    6.126    6.262    6.433    6.679    6.051    6.463  154.737   -7.953    8.747   20.296    7.652    2.579    0.015    0.038   81.163    3.095  145.614
 2966.500    6.929    6.627    6.498    6.651    6.830    7.093    6.526    6.981  143.241  -32.232    8.741   18.802    7.001    2.590    0.017    0.034   80.862    3.206  145.618
 2967.000    6.925    6.672    6.564    6.715    6.891    7.154    6.630    7.108  140.691  -36.630    8.728   17.935    6.909    2.592    0.015    0.034   79.683    3.257  145.673
 2967.500    6.949    6.758    6.679    6.829    7.007    7.278    6.541    7.033  142.183  -37.265    8.718   17.938    6.915    2.592    0.012    0.034   76.793    3.200  145.880
 2968.000    6.643    6.538    6.492    6.628    6.798    7.061    6.338    6.836  146.294  -49.327    8.716   18.214    6.588    2.597    0.012    0.030   75.145    3.136  146.222
 2968.500    6.124    6.078    6.053    6.165    6.319    6.565    6.050    6.534  153.040  -59.543    8.716   18.379    6.268    2.603    0.013    0.026   75.185    3.134  146.442
 2969.000    5.821    5.792    5.772    5.870    6.019    6.254    5.756    6.213  160.954  -57.870    8.713   18.816    6.474    2.599    0.012    0.026   76.325    3.270  146.377
 2969.500    5.628    5.591    5.568    5.655    5.802    6.029    5.509    5.936  168.459  -46.093    8.705   19.857    7.218    2.587    0.008    0.031   78.538    3.514  146.216
 2970.000    5.266    5.218    5.190    5.263    5.396    5.604    5.349    5.753  173.828  -26.909    8.696   21.300    7.780    2.577    0.007    0.035   79.941    3.656  146.166
 2970.500    5.315    5.252    5.218    5.290    5.428    5.638    5.327    5.723  174.746  -13.663    8.689   21.768    7.475    2.582    0.012    0.032   78.825    3.558  146.119
 2971.000    5.492    5.425    5.386    5.463    5.610    5.829    5.411    5.812  172.049  -30.222    8.688   20.999    6.685    2.596    0.018    0.026   77.873    3.392  146.061
 2971.500    5.668    5.609    5.566    5.651    5.809    6.035    5.458    5.868  170.414  -53.936    8.702   20.346    6.616    2.597    0.019    0.026   80.024    3.405  146.154
 2972.000    5.499    5.454    5.416    5.499    5.652    5.871    5.393    5.804  172.308  -45.419    8.725   20.743    7.645    2.579    0.012    0.034   82.781    3.593  146.356
 2972.500    5.270    5.234    5.200    5.281    5.424    5.635    5.303    5.712  175.079  -25.971    8.737   21.664    8.835    2.559    0.005    0.045   82.618    3.731  146.424
 2973.000    5.266    5.227    5.192    5.276    5.418    5.629    5.285    5.695  175.605  -21.152    8.735   21.923    9.146    2.554    0.002    0.048   82.024    3.647  146.344
 2973.500    5.372    5.317    5.275    5.363    5.508    5.723    5.339    5.748  173.967   -5.870    8.731   21.255    8.413    2.566    0.005    0.041   82.626    3.429  146.277
 2974.000    5.405    5.324    5.273    5.362    5.501    5.715    5.439    5.845  171.084   13.998    8.726   20.662    7.547    2.581    0.007    0.033   82.078    3.330  146.294
 2974.500    5.663    5.543    5.475    5.571    5.715    5.940    5.611    6.017  166.194    4.986    8.718   20.346    7.479    2.582    0.004    0.034   80.640    3.401  146.310
 2975.000    5.841    5.693    5.612    5.712    5.855    6.082    5.921    6.340  157.718  -17.931    8.712   19.454    7.751    2.577    0.001    0.038   79.586    3.457  146.310
 2975.500    6.441    6.252    6.149    6.266    6.432    6.690    6.374    6.828  146.453  -25.987    8.707   18.110    7.384    2.584    0.004    0.037   77.618    3.382  146.326
 2976.000    7.297    7.066    6.937    7.083    7.288    7.593    6.768    7.259  137.751  -24.106    8.699   17.330    6.525    2.598    0.009    0.031   75.082    3.309  146.347
 2976.500    7.293    7.089    6.970    7.114    7.316    7.624    6.870    7.381  135.491  -24.607    8.705   17.236    6.176    2.604    0.011    0.028   74.191    3.409  146.326
 2977.000    6.858    6.693    6.599    6.724    6.906    7.200    6.765    7.281  137.335  -26.938    8.715   17.441    6.772    2.594    0.008    0.033   74.416    3.648  146.310
