~Version Information
 VERS.                2.00:   CWLS log ASCII Standard -VERSION 2.00
 WRAP.                  NO:   One line per frame      
~Well Information Block
#MNEM.UNIT                  Well Data                    Data Description
#----.----   -----------------------------------------   -------------------------------
 STRT.FT                                      1290.000 : Starting Depth
 STOP.FT                                      6345.000 : Ending Depth
 STEP.FT                                         0.500 : Level Spacing
 NULL.                                       -999.2500 : Absent Value
 COMP.        NEWFIELD EXPLORATION COMPANY             : Company
 WELL.        MORO CREEK #3409H                        : Well
 FLD .        BRISCOE RANCH (EAGLEFORD)                : Field
 LOC .        1642' FNEL & 2015' FSEL OF SURVEY        : Location
 CNTY.        DIMMIT                                   : County
 STAT.        TEXAS                                    : State
 CTRY.        USA                                      : Country
 SRVC.        Baker Hughes                             : Service Company
 DATE.        12-OCT-2014                              : Log Date
 API .        42-127-36592                             : API Number
 UWI .        42-127-36592                             : Unique Well ID
~Curve Information Block
#MNEM    .UNIT        API Codes     Curve Description
#--------.--------   ------------   -------------------------------
 DEPT    .FT         99 995 99  1 : Depth
 M1R1    .OHMM        8 120 10  1 : Vertical 1-foot resolution matched resistivity, 10-inch DOI
 M1R2    .OHMM        8 120 20  1 : Vertical 1-foot resolution matched resistivity, 20-inch DOI
 M1R3    .OHMM        8 120 30  1 : Vertical 1-foot resolution matched resistivity, 30-inch DOI
 M1R6    .OHMM        8 120 60  1 : Vertical 1-foot resolution matched resistivity, 60-inch DOI
 M1R9    .OHMM        8 120 90  1 : Vertical 1-foot resolution matched resistivity, 90-inch DOI
 M1RX    .OHMM        8 120 90  1 : Vertical 1-foot resolution matched resistivity, 120-inch DOI
 M2R2    .OHMM        8 120 20  1 : Vertical 2-foot resolution matched resistivity, 20-inch DOI
 M2RX    .OHMM        8 120 99  1 : Vertical 2-foot resolution matched resistivity, 120-inch DOI
 M2CCX   .MMHO        8 110 99  1 : HDIL 2-foot resolution compressed conductivity, 120-inch DOI
 TEN     .LBF        99 635 99  1 : Differential tension
 CAL     .IN         70 280 99  1 : Caliper
 CNCF    .PU         42 995 99  1 : Field normalized compensated neutron porosity
 PORZC   .PU         99 995 99  1 : Corrected porosity
 ZDNC    .G/C3       94 995 99  1 : Borehole size/mud weight corrected density
 ZCOR    .G/C3       45 356 99  1 : Density correction
 RWAZC   .OHMM       94 935  7  1 : Apparent formation water resistivity (corrected)
 GR      .GAPI       30 310  1  1 : Gamma ray
 PE      .B/E        45 358  1  1 : Photo electric cross-section
 WTBH    .DEGF       99 995 99  1 : Temperature of borehole
~Parameter Information Block
#MNEM.UNIT             Parameter Value                  Parameter Description
#----.----   ----------------------------------------   -------------------------------
 HIDE.       HIGH DEFINITION INDUCTION LOG^S          : Header Identifer
 HID1.       COMPENSATED Z-DENSILOG^S                 : Header Identifer
 HID2.       COMPENSATED NEUTRON LOG                  : Header Identifer
 HID3.       GAMMA RAY LOG                            : Header Identifer
 FILE.       11135                                    : File Number
 CMT1.       FINAL PRINT                              : Comment 1  
 CMT4.       H&P 389                                  : Comment 4  
 FL1 .       1883' FSWL & 7767' FSEL OF LEASE         : Field Location 1
 FL2 .       H&GN RR CO / RICHARDSON, H E             : Field Location 2
 FL3 .       SEC. 34  /  A - 1037                     : Field Location 3
 OS1 .       NONE                                     : Other Services Line 1
 PDAT.       GL                                       : Permanent Datum
 EPD .FT     588                                      : Elevation Of Perm. Datum
 LMF .       KB                                       : Log Measured From
 APD .FT     25                                       : Above Permanent Datum
 DMF .       KB                                       : Drilling Measured From
 EKB .FT     613                                      : Elevation Of Kelly Bushing
 EDF .FT     612                                      : Elevation Of Derrick Floor
 EGL .FT     588                                      : Elevation Of Ground Level
 RUN .       1                                        : Run Number
 TRIP.       1                                        : Trip Number
 SON .       US090769                                 : Service Order Number
 TDD .FT     6326                                     : Total Depth - Driller
 TDL .FT     6334                                     : Total Depth - Logger
 BLI .FT     6326                                     : Bottom Log Interval
 TLI .FT     1299                                     : Top Log Interval
 CSIZ.IN     9.625                                    : Casing Size
 CBDR.FT     1305                                     : Casing Bottom - Driller
 CBLO.FT     1299                                     : Casing Bottom - Logger
 BS  .IN     8.750                                    : Bit Size
 DFT .       OBM                                      : Drilling Fluid Type
 DFD .LB/G   10.7                                     : Drilling Fluid Density
 DFV .S      50                                       : Drilling Fluid Viscosity
 MSS .       PITS                                     : Mud Sample Source
 MFSS.       ---                                      : Mud Filtrate Sample Source
 MCSS.       ---                                      : Mud Cake Sample Source
 TSC .       9 HR                                     : Time Since Circulation
 MRT .DEGF   188                                      : Maximum Recorded Temperature
 LUN .       HL-6678                                  : Logging Unit Number
 LUL .       ALICE, TX                                : Logging Unit Location
 ENGI.       R. MARTIN                                : Engineer's Name
 WITN.       J. MARMION                               : Witness' Name
 TSTR.       HDIL/ZDL/CN/GR                           : Title Service Mnemonic
 TSTG.       NA                                       : Title Service Mnemonic
 STUS.       FINAL                                    : Status
 LCNM.       BAKER ATLAS                              : Logging Company Name
 LCC .       150                                      : Logging Company Code
 OPMD.       OH.WIRE                                  : Operation Mode
 PANA.       R. MARTIN                                : Processing Analyst
 PCON.       BAKER ATLAS                              : Processing Contractor
~Other information
 BVOL = TOTAL BOREHOLE VOLUME                                                    
 CVOL = TOTAL CEMENT VOLUME, BASED ON 5.5" CSG                                   
 DENSITY MATRIX = LIMESTONE, 2.71 G/CC                                           
 NEUTRON MATRIX = LIMESTONE, 51100 PPM SALINITY                                  
 HL-6678 CREW:  R. MARTIN, A. GONZALES, L. SALAZAR, H. RUIZ                      
#  Curve Data
~A DEPT     M1R1     M1R2     M1R3     M1R6     M1R9     M1RX     M2R2     M2RX     M2CCX    TEN      CAL      CNCF     PORZC    ZDNC     ZCOR     RWAZC    GR       PE       WTBH    
# ...
 4620.000    7.307    6.737    6.400    6.366    6.386    6.615    7.800    7.637  130.948   61.036    8.721   21.550   10.589    2.529    0.022    0.086   93.147    3.201  169.925
 4620.500   14.359   12.528   11.412   11.261   11.307   11.974   10.847   10.428   95.893   36.956    8.714   18.349    8.986    2.556    0.029    0.084   85.389    3.384  170.005
 4621.000   17.984   15.413   13.760   13.437   13.482   14.347   14.071   13.177   75.889    2.138    8.704   17.305    7.697    2.578    0.033    0.078   80.462    3.618  170.080
 4621.500   16.814   14.450   13.012   12.602   12.631   13.324   15.513   14.222   70.312   82.432    8.704   17.303    7.323    2.585    0.029    0.076   76.988    3.715  170.262
 4622.000   17.904   15.637   13.991   13.347   13.368   14.122   15.434   13.956   71.653  255.918    8.705   16.844    7.638    2.579    0.022    0.081   74.936    3.560  170.461
 4622.500   17.150   15.329   13.692   12.914   12.923   13.578   15.108   13.404   74.602  338.758    8.702   16.259    8.126    2.571    0.019    0.089   73.851    3.272  170.376
 4623.000   14.617   13.390   12.040   11.306   11.305   11.752   14.758   12.792   78.174  266.520    8.701   16.096    8.426    2.566    0.019    0.091   73.063    3.058  170.107
 4623.500   15.243   13.841   12.293   11.397   11.391   11.795   14.463   12.244   81.673  152.838    8.717   16.339    8.448    2.566    0.021    0.087   72.005    2.985  169.971
 4624.000   17.388   15.319   13.299   12.142   12.135   12.541   14.487   11.978   83.487   85.625    8.736   16.738    8.504    2.565    0.021    0.087   69.230    2.969  169.967
 4624.500   17.311   15.002   12.946   11.779   11.778   12.112   14.819   11.992   83.387   62.397    8.743   17.266    9.206    2.553    0.017    0.102   66.989    2.979  170.056
 4625.000   16.668   14.280   12.351   11.259   11.268   11.531   15.263   12.163   82.214   57.476    8.739   17.738   10.655    2.528    0.012    0.138   67.755    3.082  170.266
 4625.500   18.250   15.416   13.187   11.953   11.978   12.234   15.691   12.407   80.601   60.987    8.735   17.749   11.901    2.506    0.010    0.176   68.592    3.300  170.445
 4626.000   18.617   15.683   13.426   12.176   12.224   12.452   15.871   12.570   79.553   60.711    8.733   17.147   12.084    2.503    0.012    0.184   65.151    3.502  170.436
 4626.500   17.509   14.903   12.927   11.802   11.869   12.056   15.452   12.413   80.558   26.836    8.733   16.407   11.605    2.512    0.015    0.167   60.714    3.478  170.356
 4627.000   17.752   15.391   13.414   12.256   12.356   12.537   14.254   11.772   84.950  -55.233    8.735   16.098   11.347    2.516    0.015    0.152   62.227    3.209  170.405
 4627.500   15.211   13.578   12.138   11.227   11.336   11.476   12.559   10.740   93.112 -140.089    8.736   16.214   11.100    2.520    0.016    0.132   70.592    2.912  170.445
 4628.000   12.616   11.614   10.643    9.977   10.084   10.191   10.829    9.582  104.367 -164.456    8.736   16.653   10.412    2.532    0.022    0.104   78.968    2.751  170.302
 4628.500   10.444    9.844    9.204    8.736    8.835    8.918    9.348    8.509  117.527 -129.340    8.735   17.675    9.709    2.544    0.031    0.080   83.984    2.712  170.073
 4629.000    8.286    7.938    7.549    7.259    7.338    7.398    8.436    7.829  127.724  -98.701    8.746   19.376    9.415    2.549    0.036    0.069   87.897    2.707  169.979
 4629.500    7.648    7.346    7.027    6.798    6.876    6.933    8.378    7.845  127.468 -101.441    8.766   20.220    9.439    2.549    0.037    0.070   89.827    2.702  170.090
 4630.000    9.564    9.068    8.593    8.289    8.415    8.508    9.242    8.662  115.453  -93.539    8.773   19.185    9.794    2.543    0.034    0.083   86.232    2.721  170.389
 4630.500   11.295   10.609    9.996    9.611    9.792    9.929   10.803   10.099   99.020  -36.652    8.761   17.343   10.359    2.533    0.027    0.108   78.805    2.755  170.769
 4631.000   12.430   11.672   10.954   10.545   10.772   10.952   12.590   11.755   85.067   11.665    8.745   15.916   10.613    2.529    0.021    0.132   72.333    2.759  170.992
 4631.500   16.992   16.014   14.759   14.104   14.532   14.873   13.976   13.099   76.339  -27.013    8.735   15.020   10.382    2.532    0.018    0.141   68.598    2.743  170.974
 4632.000   15.320   14.733   13.755   13.248   13.651   13.935   14.183   13.441   74.402 -111.258    8.731   14.853    9.978    2.539    0.016    0.134   67.546    2.749  170.886
 4632.500   12.139   11.872   11.303   10.999   11.299   11.499   13.625   13.135   76.134 -103.078    8.731   15.525    9.512    2.547    0.012    0.119   68.521    2.790  170.886
 4633.000   15.405   15.135   14.359   13.931   14.458   14.821   12.973   12.741   78.485   23.476    8.734   16.255    8.869    2.558    0.011    0.100   71.244    2.865  170.861
 4633.500   13.942   13.861   13.385   13.071   13.592   13.916   11.903   11.949   83.692  118.318    8.745   16.779    8.452    2.565    0.011    0.085   75.614    2.930  170.714
 4634.000   10.242   10.255   10.076    9.935   10.271   10.488   10.465   10.703   93.430   81.479    8.748   17.877    8.889    2.558    0.011    0.085   80.143    2.914  170.647
 4634.500    9.727    9.824    9.745    9.671    9.978   10.197    8.857    9.194  108.764   -8.220    8.740   19.682    9.959    2.540    0.012    0.091   86.023    2.838  170.734
 4635.000    8.591    8.667    8.653    8.635    8.919    9.122    7.037    7.408  134.998  -54.050    8.745   21.084   10.719    2.527    0.017    0.085   96.389    2.811  170.845
 4635.500    5.538    5.545    5.549    5.560    5.759    5.894    5.510    5.856  170.754  -67.177    8.767   22.315   10.894    2.524    0.024    0.070  107.386    2.859  170.916
 4636.000    4.413    4.386    4.389    4.412    4.565    4.670    4.668    4.991  200.352  -80.880    8.773   24.429   11.026    2.521    0.029    0.061  112.332    2.923  170.895
 4636.500    4.427    4.371    4.370    4.410    4.575    4.690    4.390    4.712  212.227  -84.633    8.761   26.747   11.426    2.515    0.029    0.062  111.969    2.921  170.744
 4637.000    4.552    4.471    4.463    4.520    4.692    4.815    4.446    4.786  208.927  -59.958    8.755   27.653   11.662    2.511    0.028    0.065  110.864    2.850  170.614
 4637.500    4.667    4.561    4.545    4.620    4.791    4.918    4.626    4.993  200.283  -25.787    8.762   26.915   11.447    2.514    0.027    0.065  109.960    2.777  170.585
 4638.000    4.883    4.740    4.717    4.812    4.987    5.125    4.786    5.178  193.120  -20.091    8.764   25.573   11.026    2.521    0.027    0.063  108.747    2.751  170.563
 4638.500    5.135    4.949    4.919    5.035    5.218    5.367    4.884    5.292  188.966  -48.415    8.756   24.906   10.744    2.526    0.025    0.061  107.570    2.771  170.630
 4639.000    5.205    5.000    4.967    5.094    5.273    5.428    4.924    5.340  187.256  -76.753    8.742   25.006   10.718    2.527    0.024    0.061  107.565    2.788  170.849
 4639.500    5.195    4.986    4.952    5.082    5.252    5.411    4.929    5.344  187.138  -78.747    8.730   24.979   10.799    2.525    0.022    0.062  109.250    2.792  171.097
 4640.000    5.112    4.911    4.876    5.001    5.157    5.315    4.948    5.357  186.675  -63.194    8.726   24.698   10.828    2.525    0.022    0.063  111.188    2.853  171.217
 4640.500    5.093    4.892    4.851    4.969    5.116    5.274    5.030    5.435  184.008  -49.197    8.729   24.593   10.900    2.524    0.021    0.065  110.786    2.974  171.116
 4641.000    5.430    5.192    5.135    5.258    5.418    5.596    5.146    5.544  180.384  -47.651    8.730   24.690   11.094    2.520    0.018    0.068  108.672    3.056  170.917
 4641.500    5.465    5.214    5.145    5.260    5.415    5.597    5.228    5.614  178.133  -61.332    8.734   24.385   11.268    2.517    0.014    0.071  106.116    3.101  170.868
 4642.000    5.496    5.241    5.164    5.271    5.423    5.607    5.311    5.688  175.794  -85.976    8.750   23.572   11.290    2.517    0.011    0.073  103.579    3.173  170.850
