~Version Information
 VERS.                2.00:   CWLS log ASCII Standard -VERSION 2.00
 WRAP.                  NO:   One line per frame      
~Well Information Block
#MNEM.UNIT                  Well Data                    Data Description
#----.----   -----------------------------------------   -------------------------------
 STRT.FT                                      1290.000 : Starting Depth
 STOP.FT                                      6345.000 : Ending Depth
 STEP.FT                                         0.500 : Level Spacing
 NULL.                                       -999.2500 : Absent Value
 COMP.        NEWFIELD EXPLORATION COMPANY             : Company
 WELL.        MORO CREEK #3409H                        : Well
 FLD .        BRISCOE RANCH (EAGLEFORD)                : Field
 LOC .        1642' FNEL & 2015' FSEL OF SURVEY        : Location
 CNTY.        DIMMIT                                   : County
 STAT.        TEXAS                                    : State
 CTRY.        USA                                      : Country
 SRVC.        Baker Hughes                             : Service Company
 DATE.        12-OCT-2014                              : Log Date
 API .        42-127-36592                             : API Number
 UWI .        42-127-36592                             : Unique Well ID
~Curve Information Block
#MNEM    .UNIT        API Codes     Curve Description
#--------.--------   ------------   -------------------------------
 DEPT    .FT         99 995 99  1 : Depth
 M1R1    .OHMM        8 120 10  1 : Vertical 1-foot resolution matched resistivity, 10-inch DOI
 M1R2    .OHMM        8 120 20  1 : Vertical 1-foot resolution matched resistivity, 20-inch DOI
 M1R3    .OHMM        8 120 30  1 : Vertical 1-foot resolution matched resistivity, 30-inch DOI
 M1R6    .OHMM        8 120 60  1 : Vertical 1-foot resolution matched resistivity, 60-inch DOI
 M1R9    .OHMM        8 120 90  1 : Vertical 1-foot resolution matched resistivity, 90-inch DOI
 M1RX    .OHMM        8 120 90  1 : Vertical 1-foot resolution matched resistivity, 120-inch DOI
 M2R2    .OHMM        8 120 20  1 : Vertical 2-foot resolution matched resistivity, 20-inch DOI
 M2RX    .OHMM        8 120 99  1 : Vertical 2-foot resolution matched resistivity, 120-inch DOI
 M2CCX   .MMHO        8 110 99  1 : HDIL 2-foot resolution compressed conductivity, 120-inch DOI
 TEN     .LBF        99 635 99  1 : Differential tension
 CAL     .IN         70 280 99  1 : Caliper
 CNCF    .PU         42 995 99  1 : Field normalized compensated neutron porosity
 PORZC   .PU         99 995 99  1 : Corrected porosity
 ZDNC    .G/C3       94 995 99  1 : Borehole size/mud weight corrected density
 ZCOR    .G/C3       45 356 99  1 : Density correction
 RWAZC   .OHMM       94 935  7  1 : Apparent formation water resistivity (corrected)
 GR      .GAPI       30 310  1  1 : Gamma ray
 PE      .B/E        45 358  1  1 : Photo electric cross-section
 WTBH    .DEGF       99 995 99  1 : Temperature of borehole
~Parameter Information Block
#MNEM.UNIT             Parameter Value                  Parameter Description
#----.----   ----------------------------------------   -------------------------------
 HIDE.       HIGH DEFINITION INDUCTION LOG^S          : Header Identifer
 HID1.       COMPENSATED Z-DENSILOG^S                 : Header Identifer
 HID2.       COMPENSATED NEUTRON LOG                  : Header Identifer
 HID3.       GAMMA RAY LOG                            : Header Identifer
 FILE.       11135                                    : File Number
 CMT1.       FINAL PRINT                              : Comment 1  
 CMT4.       H&P 389                                  : Comment 4  
 FL1 .       1883' FSWL & 7767' FSEL OF LEASE         : Field Location 1
 FL2 .       H&GN RR CO / RICHARDSON, H E             : Field Location 2
 FL3 .       SEC. 34  /  A - 1037                     : Field Location 3
 OS1 .       NONE                                     : Other Services Line 1
 PDAT.       GL                                       : Permanent Datum
 EPD .FT     588                                      : Elevation Of Perm. Datum
 LMF .       KB                                       : Log Measured From
 APD .FT     25                                       : Above Permanent Datum
 DMF .       KB                                       : Drilling Measured From
 EKB .FT     613                                      : Elevation Of Kelly Bushing
 EDF .FT     612                                      : Elevation Of Derrick Floor
 EGL .FT     588                                      : Elevation Of Ground Level
 RUN .       1                                        : Run Number
 TRIP.       1                                        : Trip Number
 SON .       US090769                                 : Service Order Number
 TDD .FT     6326                                     : Total Depth - Driller
 TDL .FT     6334                                     : Total Depth - Logger
 BLI .FT     6326                                     : Bottom Log Interval
 TLI .FT     1299                                     : Top Log Interval
 CSIZ.IN     9.625                                    : Casing Size
 CBDR.FT     1305                                     : Casing Bottom - Driller
 CBLO.FT     1299                                     : Casing Bottom - Logger
 BS  .IN     8.750                                    : Bit Size
 DFT .       OBM                                      : Drilling Fluid Type
 DFD .LB/G   10.7                                     : Drilling Fluid Density
 DFV .S      50                                       : Drilling Fluid Viscosity
 MSS .       PITS                                     : Mud Sample Source
 MFSS.       ---                                      : Mud Filtrate Sample Source
 MCSS.       ---                                      : Mud Cake Sample Source
 TSC .       9 HR                                     : Time Since Circulation
 MRT .DEGF   188                                      : Maximum Recorded Temperature
 LUN .       HL-6678                                  : Logging Unit Number
 LUL .       ALICE, TX                                : Logging Unit Location
 ENGI.       R. MARTIN                                : Engineer's Name
 WITN.       J. MARMION                               : Witness' Name
 TSTR.       HDIL/ZDL/CN/GR                           : Title Service Mnemonic
 TSTG.       NA                                       : Title Service Mnemonic
 STUS.       FINAL                                    : Status
 LCNM.       BAKER ATLAS                              : Logging Company Name
 LCC .       150                                      : Logging Company Code
 OPMD.       OH.WIRE                                  : Operation Mode
 PANA.       R. MARTIN                                : Processing Analyst
 PCON.       BAKER ATLAS                              : Processing Contractor
~Other information
 BVOL = TOTAL BOREHOLE VOLUME                                                    
 CVOL = TOTAL CEMENT VOLUME, BASED ON 5.5" CSG                                   
 DENSITY MATRIX = LIMESTONE, 2.71 G/CC                                           
 NEUTRON MATRIX = LIMESTONE, 51100 PPM SALINITY                                  
 HL-6678 CREW:  R. MARTIN, A. GONZALES, L. SALAZAR, H. RUIZ                      
#  Curve Data
~A DEPT     M1R1     M1R2     M1R3     M1R6     M1R9     M1RX     M2R2     M2RX     M2CCX    TEN      CAL      CNCF     PORZC    ZDNC     ZCOR     RWAZC    GR       PE       WTBH    
# ...
 1965.000    8.493    7.338    6.829    6.775    6.966    7.268    6.522    6.466  154.645  -43.799    8.830   27.581   24.268    2.295    0.016    0.381   61.977    2.637  133.788
 1965.500    6.663    6.030    5.702    5.666    5.795    6.002    6.310    6.280  159.243  -36.498    8.822   28.173   23.756    2.304    0.021    0.354   66.232    2.754  133.767
 1966.000    6.177    5.689    5.403    5.368    5.482    5.668    6.210    6.185  161.675  -22.392    8.816   27.820   23.834    2.302    0.022    0.351   69.278    2.716  133.699
 1966.500    7.031    6.394    6.023    5.973    6.113    6.345    6.192    6.147  162.693   -4.854    8.818   26.418   24.174    2.297    0.023    0.359   70.169    2.524  133.657
 1967.000    6.973    6.240    5.855    5.797    5.926    6.145    6.087    5.997  166.745    5.664    8.817   25.292   24.444    2.292    0.025    0.358   70.488    2.443  133.699
 1967.500    6.519    5.735    5.369    5.307    5.414    5.596    6.026    5.873  170.280    5.755    8.795   24.758   24.724    2.287    0.027    0.359   69.409    2.580  133.746
 1968.000    6.764    5.773    5.358    5.283    5.387    5.566    6.316    6.070  164.756   16.134    8.771   24.271   24.719    2.287    0.025    0.371   66.085    2.804  133.695
 1968.500    8.543    6.854    6.225    6.104    6.243    6.481    7.168    6.761  147.906   44.265    8.768   22.803   23.308    2.311    0.025    0.367   61.886    2.988  133.606
 1969.000   11.605    8.548    7.537    7.330    7.529    7.878    8.424    7.772  128.662   56.531    8.770   20.307   20.444    2.360    0.031    0.325   58.631    3.103  133.577
 1969.500   15.208   10.396    8.892    8.563    8.834    9.319    9.148    8.304  120.422   28.101    8.765   18.410   18.942    2.386    0.034    0.298   56.625    3.011  133.593
 1970.000   13.750    9.694    8.360    8.034    8.272    8.702    8.585    7.797  128.253  -23.290    8.761   18.600   21.082    2.349    0.028    0.347   55.588    2.709  133.542
 1970.500    9.744    7.448    6.629    6.400    6.550    6.823    7.325    6.719  148.833  -57.913    8.767   20.605   24.653    2.288    0.021    0.408   55.818    2.437  133.382
 1971.000    7.603    6.102    5.528    5.353    5.457    5.650    6.300    5.819  171.838  -51.588    8.778   22.773   27.174    2.245    0.021    0.430   56.081    2.274  133.205
 1971.500    6.920    5.626    5.117    4.955    5.044    5.212    5.757    5.324  187.846  -34.081    8.785   23.506   28.404    2.224    0.021    0.429   55.530    2.128  133.117
 1972.000    6.946    5.614    5.083    4.916    5.003    5.170    5.581    5.141  194.500  -45.364    8.794   23.293   28.700    2.219    0.022    0.423   54.490    1.973  133.143
 1972.500    6.954    5.588    5.039    4.869    4.954    5.119    5.621    5.147  194.292  -66.436    8.811   22.770   28.248    2.227    0.024    0.411   53.674    1.896  133.210
 1973.000    7.020    5.591    5.025    4.855    4.940    5.102    5.771    5.252  190.404  -72.133    8.833   22.649   27.534    2.239    0.027    0.398   51.991    1.940  133.210
 1973.500    7.864    6.065    5.396    5.203    5.301    5.486    5.947    5.390  185.543  -72.259    8.852   22.883   27.244    2.244    0.027    0.400   49.430    2.065  133.143
 1974.000    7.805    5.996    5.343    5.158    5.255    5.434    6.064    5.490  182.142  -74.264    8.858   22.757   27.415    2.241    0.024    0.413   48.110    2.161  133.096
 1974.500    8.194    6.213    5.523    5.331    5.434    5.623    6.093    5.525  181.012  -70.264    8.839   22.171   27.500    2.240    0.023    0.418   48.710    2.177  133.092
 1975.000    7.877    6.043    5.398    5.218    5.317    5.495    6.057    5.507  181.593  -73.122    8.804   21.790   27.446    2.241    0.024    0.415   50.659    2.210  133.092
 1975.500    7.890    6.075    5.430    5.251    5.351    5.529    6.015    5.479  182.521  -83.233    8.773   22.098   27.593    2.238    0.025    0.417   53.425    2.308  133.092
 1976.000    7.708    5.990    5.363    5.189    5.288    5.461    6.018    5.484  182.343  -64.703    8.757   22.645   27.622    2.238    0.028    0.418   55.372    2.379  133.092
 1976.500    7.746    6.027    5.392    5.216    5.316    5.490    6.075    5.530  180.828  -29.201    8.755   22.735   27.044    2.248    0.031    0.404   55.751    2.348  133.092
 1977.000    7.965    6.157    5.491    5.309    5.414    5.595    6.122    5.566  179.670  -29.087    8.763   22.320   26.250    2.261    0.033    0.384   54.967    2.211  133.092
 1977.500    7.846    6.065    5.413    5.236    5.340    5.518    6.105    5.551  180.163  -59.128    8.766   22.431   26.112    2.263    0.030    0.378   52.466    2.002  133.092
 1978.000    7.885    6.055    5.401    5.226    5.332    5.511    6.035    5.494  182.016  -78.233    8.758   23.307   26.620    2.255    0.026    0.389   49.239    1.829  133.092
 1978.500    7.870    6.008    5.360    5.190    5.298    5.478    5.918    5.403  185.096  -87.079    8.746   23.805   27.037    2.248    0.026    0.395   49.229    1.798  133.092
 1979.000    7.522    5.767    5.165    5.011    5.115    5.286    5.771    5.289  189.087  -93.302    8.740   23.410   27.209    2.245    0.029    0.392   50.938    1.920  133.092
 1979.500    7.417    5.672    5.089    4.944    5.048    5.218    5.621    5.175  193.229  -93.030    8.740   23.035   27.545    2.239    0.031    0.393   51.213    2.104  133.092
 1980.000    7.192    5.515    4.965    4.832    4.935    5.101    5.476    5.067  197.344  -88.867    8.737   22.940   28.053    2.230    0.031    0.399   50.578    2.201  133.092
 1980.500    6.894    5.332    4.820    4.701    4.802    4.962    5.360    4.987  200.538  -86.553    8.736   22.814   28.312    2.226    0.031    0.400   49.952    2.152  133.092
 1981.000    6.730    5.244    4.756    4.645    4.747    4.906    5.305    4.959  201.651  -86.364    8.741   23.252   28.161    2.228    0.034    0.393   47.888    2.039  133.092
 1981.500    6.796    5.309    4.817    4.710    4.818    4.985    5.296    4.973  201.094  -85.312    8.749   24.669   27.950    2.232    0.038    0.388   45.023    1.960  133.092
 1982.000    6.803    5.340    4.850    4.748    4.862    5.032    5.305    5.002  199.932  -84.062    8.753   25.396   28.007    2.231    0.040    0.392   44.133    1.934  133.092
 1982.500    6.861    5.393    4.901    4.803    4.922    5.097    5.309    5.022  199.118  -91.103    8.753   24.239   28.220    2.227    0.039    0.400   44.430    1.946  133.092
 1983.000    6.665    5.275    4.807    4.719    4.835    5.006    5.284    5.013  199.468  -88.796    8.748   22.588   28.487    2.223    0.035    0.407   43.731    2.014  133.092
 1983.500    6.630    5.243    4.781    4.699    4.815    4.986    5.219    4.965  201.420  -57.340    8.744   21.480   28.915    2.216    0.030    0.415   43.251    2.132  133.092
 1984.000    6.491    5.136    4.691    4.615    4.727    4.894    5.133    4.892  204.428  -25.200    8.748   21.104   29.353    2.208    0.027    0.421   44.585    2.225  133.071
 1984.500    6.449    5.086    4.646    4.574    4.685    4.850    5.056    4.823  207.361  -22.682    8.751   21.749   29.440    2.207    0.028    0.418   45.772    2.224  132.983
 1985.000    6.333    4.993    4.565    4.497    4.604    4.764    4.999    4.770  209.648  -38.974    8.739   23.013   29.136    2.212    0.033    0.405   45.719    2.161  132.873
 1985.500    6.282    4.950    4.527    4.462    4.566    4.725    4.978    4.750  210.527  -58.239    8.724   24.182   28.761    2.218    0.038    0.393   45.611    2.093  132.873
 1986.000    6.374    5.010    4.576    4.510    4.615    4.778    5.017    4.784  209.014  -73.550    8.732   25.126   28.689    2.219    0.038    0.394   45.742    2.020  132.983
 1986.500    6.475    5.085    4.638    4.572    4.679    4.848    5.106    4.867  205.476  -76.546    8.764   25.270   28.957    2.215    0.035    0.408   45.455    1.964  133.071
 1987.000    6.608    5.180    4.719    4.652    4.762    4.938    5.197    4.953  201.908  -78.052    8.798   24.302   29.070    2.213    0.032    0.419   45.458    2.006  133.092
