~Version Information
 VERS.                2.00:   CWLS log ASCII Standard -VERSION 2.00
 WRAP.                  NO:   One line per frame      
~Well Information Block
#MNEM.UNIT                  Well Data                    Data Description
#----.----   -----------------------------------------   -------------------------------
 STRT.FT                                      1290.000 : Starting Depth
 STOP.FT                                      6345.000 : Ending Depth
 STEP.FT                                         0.500 : Level Spacing
 NULL.                                       -999.2500 : Absent Value
 COMP.        NEWFIELD EXPLORATION COMPANY             : Company
 WELL.        MORO CREEK #3409H                        : Well
 FLD .        BRISCOE RANCH (EAGLEFORD)                : Field
 LOC .        1642' FNEL & 2015' FSEL OF SURVEY        : Location
 CNTY.        DIMMIT                                   : County
 STAT.        TEXAS                                    : State
 CTRY.        USA                                      : Country
 SRVC.        Baker Hughes                             : Service Company
 DATE.        12-OCT-2014                              : Log Date
 API .        42-127-36592                             : API Number
 UWI .        42-127-36592                             : Unique Well ID
~Curve Information Block
#MNEM    .UNIT        API Codes     Curve Description
#--------.--------   ------------   -------------------------------
 DEPT    .FT         99 995 99  1 : Depth
 M1R1    .OHMM        8 120 10  1 : Vertical 1-foot resolution matched resistivity, 10-inch DOI
 M1R2    .OHMM        8 120 20  1 : Vertical 1-foot resolution matched resistivity, 20-inch DOI
 M1R3    .OHMM        8 120 30  1 : Vertical 1-foot resolution matched resistivity, 30-inch DOI
 M1R6    .OHMM        8 120 60  1 : Vertical 1-foot resolution matched resistivity, 60-inch DOI
 M1R9    .OHMM        8 120 90  1 : Vertical 1-foot resolution matched resistivity, 90-inch DOI
 M1RX    .OHMM        8 120 90  1 : Vertical 1-foot resolution matched resistivity, 120-inch DOI
 M2R2    .OHMM        8 120 20  1 : Vertical 2-foot resolution matched resistivity, 20-inch DOI
 M2RX    .OHMM        8 120 99  1 : Vertical 2-foot resolution matched resistivity, 120-inch DOI
 M2CCX   .MMHO        8 110 99  1 : HDIL 2-foot resolution compressed conductivity, 120-inch DOI
 TEN     .LBF        99 635 99  1 : Differential tension
 CAL     .IN         70 280 99  1 : Caliper
 CNCF    .PU         42 995 99  1 : Field normalized compensated neutron porosity
 PORZC   .PU         99 995 99  1 : Corrected porosity
 ZDNC    .G/C3       94 995 99  1 : Borehole size/mud weight corrected density
 ZCOR    .G/C3       45 356 99  1 : Density correction
 RWAZC   .OHMM       94 935  7  1 : Apparent formation water resistivity (corrected)
 GR      .GAPI       30 310  1  1 : Gamma ray
 PE      .B/E        45 358  1  1 : Photo electric cross-section
 WTBH    .DEGF       99 995 99  1 : Temperature of borehole
~Parameter Information Block
#MNEM.UNIT             Parameter Value                  Parameter Description
#----.----   ----------------------------------------   -------------------------------
 HIDE.       HIGH DEFINITION INDUCTION LOG^S          : Header Identifer
 HID1.       COMPENSATED Z-DENSILOG^S                 : Header Identifer
 HID2.       COMPENSATED NEUTRON LOG                  : Header Identifer
 HID3.       GAMMA RAY LOG                            : Header Identifer
 FILE.       11135                                    : File Number
 CMT1.       FINAL PRINT                              : Comment 1  
 CMT4.       H&P 389                                  : Comment 4  
 FL1 .       1883' FSWL & 7767' FSEL OF LEASE         : Field Location 1
 FL2 .       H&GN RR CO / RICHARDSON, H E             : Field Location 2
 FL3 .       SEC. 34  /  A - 1037                     : Field Location 3
 OS1 .       NONE                                     : Other Services Line 1
 PDAT.       GL                                       : Permanent Datum
 EPD .FT     588                                      : Elevation Of Perm. Datum
 LMF .       KB                                       : Log Measured From
 APD .FT     25                                       : Above Permanent Datum
 DMF .       KB                                       : Drilling Measured From
 EKB .FT     613                                      : Elevation Of Kelly Bushing
 EDF .FT     612                                      : Elevation Of Derrick Floor
 EGL .FT     588                                      : Elevation Of Ground Level
 RUN .       1                                        : Run Number
 TRIP.       1                                        : Trip Number
 SON .       US090769                                 : Service Order Number
 TDD .FT     6326                                     : Total Depth - Driller
 TDL .FT     6334                                     : Total Depth - Logger
 BLI .FT     6326                                     : Bottom Log Interval
 TLI .FT     1299                                     : Top Log Interval
 CSIZ.IN     9.625                                    : Casing Size
 CBDR.FT     1305                                     : Casing Bottom - Driller
 CBLO.FT     1299                                     : Casing Bottom - Logger
 BS  .IN     8.750                                    : Bit Size
 DFT .       OBM                                      : Drilling Fluid Type
 DFD .LB/G   10.7                                     : Drilling Fluid Density
 DFV .S      50                                       : Drilling Fluid Viscosity
 MSS .       PITS                                     : Mud Sample Source
 MFSS.       ---                                      : Mud Filtrate Sample Source
 MCSS.       ---                                      : Mud Cake Sample Source
 TSC .       9 HR                                     : Time Since Circulation
 MRT .DEGF   188                                      : Maximum Recorded Temperature
 LUN .       HL-6678                                  : Logging Unit Number
 LUL .       ALICE, TX                                : Logging Unit Location
 ENGI.       R. MARTIN                                : Engineer's Name
 WITN.       J. MARMION                               : Witness' Name
 TSTR.       HDIL/ZDL/CN/GR                           : Title Service Mnemonic
 TSTG.       NA                                       : Title Service Mnemonic
 STUS.       FINAL                                    : Status
 LCNM.       BAKER ATLAS                              : Logging Company Name
 LCC .       150                                      : Logging Company Code
 OPMD.       OH.WIRE                                  : Operation Mode
 PANA.       R. MARTIN                                : Processing Analyst
 PCON.       BAKER ATLAS                              : Processing Contractor
~Other information
 BVOL = TOTAL BOREHOLE VOLUME                                                    
 CVOL = TOTAL CEMENT VOLUME, BASED ON 5.5" CSG                                   
 DENSITY MATRIX = LIMESTONE, 2.71 G/CC                                           
 NEUTRON MATRIX = LIMESTONE, 51100 PPM SALINITY                                  
 HL-6678 CREW:  R. MARTIN, A. GONZALES, L. SALAZAR, H. RUIZ                      
#  Curve Data
~A DEPT     M1R1     M1R2     M1R3     M1R6     M1R9     M1RX     M2R2     M2RX     M2CCX    TEN      CAL      CNCF     PORZC    ZDNC     ZCOR     RWAZC    GR       PE       WTBH    
# ...
 5610.000    5.210    4.921    4.768    4.742    4.815    4.952    4.878    4.908  203.734  -45.229    8.766   16.707    8.359    2.567    0.020    0.034  101.771    2.896  183.877
 5610.500    5.184    4.896    4.745    4.721    4.794    4.929    4.892    4.926  203.010  -81.788    8.764   16.761    7.706    2.578    0.025    0.029  104.963    2.885  183.881
 5611.000    5.127    4.842    4.695    4.672    4.745    4.877    4.932    4.969  201.253  -28.825    8.761   16.760    7.539    2.581    0.025    0.028  106.439    3.036  183.953
 5611.500    5.299    4.989    4.833    4.809    4.888    5.028    4.985    5.025  199.017   38.204    8.757   16.954    7.962    2.574    0.021    0.032  103.785    3.221  184.139
 5612.000    5.377    5.051    4.890    4.866    4.950    5.093    5.015    5.056  197.799   43.630    8.760   17.785    8.433    2.566    0.017    0.036   98.519    3.285  184.320
 5612.500    5.334    5.012    4.851    4.828    4.912    5.053    5.008    5.049  198.071  -29.508    8.762   18.838    8.604    2.563    0.015    0.037   94.526    3.246  184.413
 5613.000    5.260    4.952    4.794    4.771    4.855    4.991    5.012    5.052  197.950 -118.663    8.759   19.023    8.628    2.562    0.014    0.038   94.440    3.156  184.408
 5613.500    5.358    5.051    4.886    4.861    4.948    5.088    5.074    5.111  195.663 -125.211    8.763   18.527    8.680    2.562    0.013    0.039   94.409    3.038  184.269
 5614.000    5.490    5.183    5.008    4.980    5.071    5.215    5.162    5.194  192.536  -41.824    8.773   18.047    8.771    2.560    0.014    0.040   91.871    2.981  184.061
 5614.500    5.459    5.165    4.988    4.956    5.045    5.184    5.232    5.252  190.413   34.117    8.767   17.387    8.927    2.557    0.014    0.042   91.923    3.051  183.990
 5615.000    5.556    5.254    5.067    5.030    5.118    5.258    5.292    5.296  188.836   15.617    8.756   16.763    9.277    2.551    0.013    0.046   95.371    3.127  184.028
 5615.500    5.679    5.361    5.160    5.117    5.205    5.346    5.346    5.331  187.577  -76.046    8.757   16.726    9.577    2.546    0.011    0.049   96.714    3.031  184.078
 5616.000    5.743    5.410    5.204    5.156    5.241    5.381    5.379    5.351  186.895 -134.559    8.772   16.732    9.368    2.550    0.013    0.047   95.519    2.822  184.188
 5616.500    5.598    5.273    5.080    5.035    5.112    5.243    5.462    5.429  184.185 -103.143    8.789   16.388    8.774    2.560    0.018    0.042   95.054    2.715  184.306
 5617.000    5.771    5.415    5.219    5.173    5.253    5.390    5.622    5.595  178.716  -55.433    8.801   16.211    8.439    2.566    0.023    0.040   95.588    2.750  184.286
 5617.500    6.417    5.949    5.722    5.673    5.768    5.936    5.502    5.490  182.133  -91.509    8.796   16.564    8.547    2.564    0.024    0.040  101.962    2.757  184.155
 5618.000    6.554    6.002    5.772    5.732    5.831    6.006    4.810    4.813  207.779 -177.637    8.774   17.762    8.721    2.561    0.023    0.037  118.388    2.634  184.024
 5618.500    4.346    4.052    3.942    3.928    3.977    4.060    4.091    4.099  243.933 -183.264    8.760   20.082    8.722    2.561    0.020    0.031  134.410    2.537  184.004
 5619.000    3.495    3.279    3.202    3.197    3.231    3.288    3.845    3.857  259.252  -66.581    8.769   21.588    8.672    2.562    0.017    0.029  136.104    2.650  184.163
 5619.500    4.525    4.155    4.027    4.024    4.080    4.174    3.991    4.009  249.421   50.921    8.787   20.147    8.712    2.561    0.014    0.030  124.424    2.940  184.384
 5620.000    4.753    4.361    4.223    4.223    4.288    4.394    4.225    4.256  234.948   46.129    8.797   18.240    8.850    2.559    0.012    0.033  111.575    3.241  184.384
 5620.500    4.659    4.310    4.182    4.186    4.251    4.356    4.319    4.366  229.050  -47.589    8.789   17.885    9.101    2.554    0.010    0.036  105.086    3.409  184.159
 5621.000    4.594    4.286    4.170    4.175    4.240    4.345    4.367    4.428  225.844 -105.374    8.766   18.589    9.205    2.553    0.008    0.038  104.064    3.369  183.957
 5621.500    4.727    4.431    4.316    4.322    4.390    4.502    4.471    4.543  220.100  -84.010    8.746   19.328    8.728    2.561    0.010    0.035  104.773    3.208  183.932
 5622.000    5.004    4.700    4.576    4.579    4.653    4.779    4.602    4.678  213.758  -49.529    8.739   19.624    7.802    2.577    0.014    0.028  104.258    3.159  184.020
 5622.500    4.970    4.692    4.567    4.567    4.637    4.761    4.756    4.826  207.195  -56.714    8.738   19.399    7.185    2.587    0.015    0.025  101.479    3.340  184.134
 5623.000    4.910    4.664    4.537    4.530    4.596    4.716    5.002    5.063  197.529  -78.414    8.742   18.776    7.366    2.584    0.012    0.027   98.419    3.570  184.198
 5623.500    5.809    5.502    5.320    5.302    5.388    5.553    5.331    5.380  185.888  -92.857    8.758   17.838    7.912    2.575    0.007    0.034   96.818    3.584  184.176
 5624.000    6.144    5.825    5.614    5.583    5.677    5.860    5.558    5.590  178.876 -108.154    8.772   17.173    8.014    2.573    0.007    0.036   96.821    3.401  184.079
 5624.500    5.743    5.444    5.251    5.215    5.298    5.458    5.547    5.561  179.808 -114.185    8.771   17.244    7.476    2.582    0.011    0.031   96.395    3.257  183.969
 5625.000    5.614    5.309    5.116    5.074    5.155    5.309    5.416    5.416  184.634 -109.840    8.774   17.398    6.764    2.594    0.015    0.025   93.565    3.245  183.897
 5625.500    5.621    5.299    5.097    5.050    5.136    5.291    5.309    5.300  188.666 -130.820    8.787   16.991    6.269    2.603    0.018    0.021   90.515    3.331  183.877
 5626.000    5.904    5.545    5.320    5.265    5.366    5.538    5.207    5.201  192.273 -174.703    8.791   16.517    6.225    2.604    0.016    0.020   90.150    3.460  183.881
 5626.500    5.354    5.060    4.873    4.827    4.918    5.065    5.072    5.078  196.946 -184.059    8.781   16.736    6.682    2.596    0.013    0.023   92.516    3.503  183.932
 5627.000    5.070    4.802    4.638    4.598    4.688    4.823    4.948    4.971  201.171 -137.506    8.767   17.718    7.239    2.586    0.012    0.026   95.397    3.412  184.046
 5627.500    5.177    4.882    4.717    4.681    4.780    4.924    4.843    4.884  204.751  -95.130    8.753   18.543    7.444    2.583    0.013    0.027   97.842    3.303  184.114
 5628.000    5.189    4.872    4.714    4.683    4.786    4.934    4.661    4.717  211.998 -113.631    8.745   18.296    7.328    2.585    0.014    0.025   99.648    3.248  184.067
 5628.500    4.746    4.475    4.346    4.325    4.415    4.542    4.408    4.474  223.533 -152.575    8.753   17.817    7.284    2.585    0.013    0.024   99.412    3.150  184.020
 5629.000    4.367    4.149    4.044    4.029    4.107    4.218    4.229    4.300  232.549 -136.406    8.763   18.116    7.462    2.582    0.010    0.024   96.531    2.978  184.036
 5629.500    4.333    4.141    4.041    4.030    4.106    4.216    4.190    4.266  234.410  -89.344    8.762   18.840    7.650    2.579    0.007    0.025   93.228    2.863  184.125
 5630.000    4.484    4.297    4.192    4.182    4.260    4.376    4.258    4.336  230.634  -95.717    8.759   19.151    7.678    2.579    0.007    0.026   91.739    2.864  184.235
 5630.500    4.520    4.332    4.224    4.214    4.288    4.403    4.382    4.455  224.482 -158.531    8.764   18.902    7.513    2.582    0.009    0.025   91.596    2.883  184.214
 5631.000    4.557    4.352    4.237    4.226    4.295    4.408    4.510    4.570  218.812 -182.101    8.768   18.721    7.093    2.589    0.013    0.023   93.172    2.873  184.061
 5631.500    4.995    4.727    4.582    4.567    4.641    4.771    4.599    4.641  215.482 -114.708    8.772   18.738    6.537    2.598    0.017    0.020   95.316    2.946  184.066
 5632.000    4.981    4.691    4.540    4.523    4.591    4.716    4.616    4.640  215.527  -30.384    8.781   18.606    6.375    2.601    0.018    0.019   96.298    3.112  184.265
