~Version Information
 VERS.                2.00:   CWLS log ASCII Standard -VERSION 2.00
 WRAP.                  NO:   One line per frame      
~Well Information Block
#MNEM.UNIT                  Well Data                    Data Description
#----.----   -----------------------------------------   -------------------------------
 STRT.FT                                      1290.000 : Starting Depth
 STOP.FT                                      6345.000 : Ending Depth
 STEP.FT                                         0.500 : Level Spacing
 NULL.                                       -999.2500 : Absent Value
 COMP.        NEWFIELD EXPLORATION COMPANY             : Company
 WELL.        MORO CREEK #3409H                        : Well
 FLD .        BRISCOE RANCH (EAGLEFORD)                : Field
 LOC .        1642' FNEL & 2015' FSEL OF SURVEY        : Location
 CNTY.        DIMMIT                                   : County
 STAT.        TEXAS                                    : State
 CTRY.        USA                                      : Country
 SRVC.        Baker Hughes                             : Service Company
 DATE.        12-OCT-2014                              : Log Date
 API .        42-127-36592                             : API Number
 UWI .        42-127-36592                             : Unique Well ID
~Curve Information Block
#MNEM    .UNIT        API Codes     Curve Description
#--------.--------   ------------   -------------------------------
 DEPT    .FT         99 995 99  1 : Depth
 M1R1    .OHMM        8 120 10  1 : Vertical 1-foot resolution matched resistivity, 10-inch DOI
 M1R2    .OHMM        8 120 20  1 : Vertical 1-foot resolution matched resistivity, 20-inch DOI
 M1R3    .OHMM        8 120 30  1 : Vertical 1-foot resolution matched resistivity, 30-inch DOI
 M1R6    .OHMM        8 120 60  1 : Vertical 1-foot resolution matched resistivity, 60-inch DOI
 M1R9    .OHMM        8 120 90  1 : Vertical 1-foot resolution matched resistivity, 90-inch DOI
 M1RX    .OHMM        8 120 90  1 : Vertical 1-foot resolution matched resistivity, 120-inch DOI
 M2R2    .OHMM        8 120 20  1 : Vertical 2-foot resolution matched resistivity, 20-inch DOI
 M2RX    .OHMM        8 120 99  1 : Vertical 2-foot resolution matched resistivity, 120-inch DOI
 M2CCX   .MMHO        8 110 99  1 : HDIL 2-foot resolution compressed conductivity, 120-inch DOI
 TEN     .LBF        99 635 99  1 : Differential tension
 CAL     .IN         70 280 99  1 : Caliper
 CNCF    .PU         42 995 99  1 : Field normalized compensated neutron porosity
 PORZC   .PU         99 995 99  1 : Corrected porosity
 ZDNC    .G/C3       94 995 99  1 : Borehole size/mud weight corrected density
 ZCOR    .G/C3       45 356 99  1 : Density correction
 RWAZC   .OHMM       94 935  7  1 : Apparent formation water resistivity (corrected)
 GR      .GAPI       30 310  1  1 : Gamma ray
 PE      .B/E        45 358  1  1 : Photo electric cross-section
 WTBH    .DEGF       99 995 99  1 : Temperature of borehole
~Parameter Information Block
#MNEM.UNIT             Parameter Value                  Parameter Description
#----.----   ----------------------------------------   -------------------------------
 HIDE.       HIGH DEFINITION INDUCTION LOG^S          : Header Identifer
 HID1.       COMPENSATED Z-DENSILOG^S                 : Header Identifer
 HID2.       COMPENSATED NEUTRON LOG                  : Header Identifer
 HID3.       GAMMA RAY LOG                            : Header Identifer
 FILE.       11135                                    : File Number
 CMT1.       FINAL PRINT                              : Comment 1  
 CMT4.       H&P 389                                  : Comment 4  
 FL1 .       1883' FSWL & 7767' FSEL OF LEASE         : Field Location 1
 FL2 .       H&GN RR CO / RICHARDSON, H E             : Field Location 2
 FL3 .       SEC. 34  /  A - 1037                     : Field Location 3
 OS1 .       NONE                                     : Other Services Line 1
 PDAT.       GL                                       : Permanent Datum
 EPD .FT     588                                      : Elevation Of Perm. Datum
 LMF .       KB                                       : Log Measured From
 APD .FT     25                                       : Above Permanent Datum
 DMF .       KB                                       : Drilling Measured From
 EKB .FT     613                                      : Elevation Of Kelly Bushing
 EDF .FT     612                                      : Elevation Of Derrick Floor
 EGL .FT     588                                      : Elevation Of Ground Level
 RUN .       1                                        : Run Number
 TRIP.       1                                        : Trip Number
 SON .       US090769                                 : Service Order Number
 TDD .FT     6326                                     : Total Depth - Driller
 TDL .FT     6334                                     : Total Depth - Logger
 BLI .FT     6326                                     : Bottom Log Interval
 TLI .FT     1299                                     : Top Log Interval
 CSIZ.IN     9.625                                    : Casing Size
 CBDR.FT     1305                                     : Casing Bottom - Driller
 CBLO.FT     1299                                     : Casing Bottom - Logger
 BS  .IN     8.750                                    : Bit Size
 DFT .       OBM                                      : Drilling Fluid Type
 DFD .LB/G   10.7                                     : Drilling Fluid Density
 DFV .S      50                                       : Drilling Fluid Viscosity
 MSS .       PITS                                     : Mud Sample Source
 MFSS.       ---                                      : Mud Filtrate Sample Source
 MCSS.       ---                                      : Mud Cake Sample Source
 TSC .       9 HR                                     : Time Since Circulation
 MRT .DEGF   188                                      : Maximum Recorded Temperature
 LUN .       HL-6678                                  : Logging Unit Number
 LUL .       ALICE, TX                                : Logging Unit Location
 ENGI.       R. MARTIN                                : Engineer's Name
 WITN.       J. MARMION                               : Witness' Name
 TSTR.       HDIL/ZDL/CN/GR                           : Title Service Mnemonic
 TSTG.       NA                                       : Title Service Mnemonic
 STUS.       FINAL                                    : Status
 LCNM.       BAKER ATLAS                              : Logging Company Name
 LCC .       150                                      : Logging Company Code
 OPMD.       OH.WIRE                                  : Operation Mode
 PANA.       R. MARTIN                                : Processing Analyst
 PCON.       BAKER ATLAS                              : Processing Contractor
~Other information
 BVOL = TOTAL BOREHOLE VOLUME                                                    
 CVOL = TOTAL CEMENT VOLUME, BASED ON 5.5" CSG                                   
 DENSITY MATRIX = LIMESTONE, 2.71 G/CC                                           
 NEUTRON MATRIX = LIMESTONE, 51100 PPM SALINITY                                  
 HL-6678 CREW:  R. MARTIN, A. GONZALES, L. SALAZAR, H. RUIZ                      
#  Curve Data
~A DEPT     M1R1     M1R2     M1R3     M1R6     M1R9     M1RX     M2R2     M2RX     M2CCX    TEN      CAL      CNCF     PORZC    ZDNC     ZCOR     RWAZC    GR       PE       WTBH    
# ...
 5947.500   28.131   26.471   25.957   26.501   27.885   29.036   25.252   27.575   36.264 -162.013    8.737    6.666    4.808    2.628   -0.001    0.064   47.986    5.432  186.393
 5948.000   25.856   24.741   24.505   24.975   26.473   27.681   21.651   23.870   41.894 -120.713    8.739    7.346    4.679    2.630   -0.000    0.052   50.003    5.185  186.279
 5948.500   22.291   22.244   22.151   22.529   24.171   25.357   17.482   19.414   51.509   30.064    8.738    7.657    3.602    2.648    0.009    0.025   52.131    4.860  186.241
 5949.000   13.111   13.393   13.339   13.466   14.207   14.786   14.543   16.164   61.867  136.484    8.731    7.648    2.365    2.670    0.020    0.009   53.512    4.731  186.377
 5949.500   12.511   12.897   12.768   12.850   13.580   14.165   13.766   15.177   65.888  102.606    8.727    7.927    2.036    2.675    0.025    0.006   52.968    4.845  186.491
 5950.000   13.097   13.392   13.141   13.191   13.927   14.539   15.072   16.383   61.038  -20.550    8.733    8.153    3.046    2.658    0.020    0.015   49.273    4.925  186.474
 5950.500   16.221   16.326   15.774   15.828   16.746   17.490   17.853   19.116   52.312 -128.750    8.744    7.755    4.564    2.632    0.010    0.040   44.585    4.764  186.453
 5951.000   26.194   26.112   24.907   25.019   26.471   27.659   19.530   20.734   48.231 -127.355    8.757    7.212    5.515    2.616    0.000    0.063   43.324    4.540  186.520
 5951.500   19.068   18.763   17.893   18.034   19.015   19.868   18.620   19.718   50.716  -14.606    8.765    7.103    5.660    2.613   -0.004    0.063   46.077    4.440  186.608
 5952.000   16.315   16.062   15.458   15.630   16.317   17.034   16.836   17.869   55.962   74.559    8.756    7.594    5.470    2.616   -0.005    0.053   50.584    4.392  186.655
 5952.500   16.936   16.645   16.072   16.340   17.054   17.852   15.442   16.480   60.679   34.880    8.743    8.335    5.221    2.621   -0.004    0.045   55.572    4.350  186.659
 5953.000   13.886   13.607   13.261   13.489   13.955   14.513   14.541   15.581   64.181  -67.281    8.742    8.366    5.103    2.623   -0.003    0.041   59.326    4.435  186.680
 5953.500   13.891   13.462   13.132   13.380   13.823   14.362   14.440   15.481   64.596 -102.901    8.742    7.743    5.046    2.624   -0.001    0.039   61.242    4.667  186.747
 5954.000   16.845   15.995   15.510   15.852   16.462   17.199   15.097   16.165   61.861  -53.993    8.728    7.478    4.725    2.629    0.003    0.036   59.961    4.961  186.790
 5954.500   16.948   15.942   15.434   15.737   16.331   17.051   15.665   16.734   59.758  -22.301    8.714    7.704    4.280    2.637    0.009    0.031   55.932    5.189  186.747
 5955.000   17.329   16.253   15.727   15.984   16.600   17.346   15.529   16.523   60.521  -83.843    8.721    7.976    4.109    2.640    0.011    0.028   54.397    5.135  186.676
 5955.500   16.712   15.796   15.347   15.537   16.126   16.832   14.901   15.819   63.216 -171.391    8.746    8.292    4.078    2.640    0.011    0.026   57.641    4.836  186.608
 5956.000   14.261   13.704   13.440   13.560   14.011   14.548   14.260   15.177   65.889 -154.559    8.769    8.733    3.842    2.644    0.011    0.022   61.144    4.714  186.541
 5956.500   12.760   12.419   12.285   12.384   12.759   13.209   14.034   15.050   66.445  -28.574    8.783    9.070    3.565    2.649    0.011    0.019   61.249    4.942  186.541
 5957.000   15.170   14.728   14.652   14.826   15.357   15.995   14.233   15.413   64.882   64.010    8.783    9.169    3.700    2.647    0.009    0.021   59.665    5.201  186.608
 5957.500   15.199   14.893   14.890   15.126   15.652   16.294   14.503   15.827   63.182   23.170    8.769    9.008    4.196    2.638    0.006    0.028   56.410    5.203  186.655
 5958.000   14.894   14.668   14.663   14.956   15.445   16.062   14.562   15.935   62.754  -70.246    8.752    8.757    4.542    2.632    0.002    0.033   51.679    5.017  186.659
 5958.500   16.596   16.232   16.125   16.542   17.117   17.881   14.486   15.786   63.349  -78.519    8.732    8.697    4.393    2.635    0.003    0.030   50.209    4.794  186.659
 5959.000   13.358   13.033   12.851   13.138   13.458   13.918   14.815   15.970   62.618   -1.852    8.712    8.952    4.051    2.641    0.005    0.026   53.915    4.629  186.659
 5959.500   16.747   15.846   15.389   15.806   16.232   16.861   16.024   17.062   58.610   39.058    8.702    9.410    4.164    2.639    0.004    0.030   57.295    4.664  186.659
 5960.000   22.082   20.038   19.075   19.680   20.324   21.282   17.625   18.581   53.819  -18.960    8.708    9.838    4.936    2.626   -0.002    0.045   54.844    4.910  186.655
 5960.500   19.452   17.503   16.679   17.083   17.614   18.283   18.172   18.990   52.660  -96.281    8.720    9.671    5.828    2.610   -0.008    0.064   48.542    5.028  186.612
 5961.000   19.339   17.587   16.795   17.133   17.678   18.321   17.597   18.332   54.549  -89.263    8.736    8.812    6.122    2.605   -0.011    0.069   42.627    4.831  186.592
 5961.500   16.768   15.797   15.275   15.495   15.918   16.481   17.407   18.240   54.825  -24.787    8.743    7.943    5.495    2.616   -0.008    0.055   39.426    4.682  186.659
 5962.000   18.480   17.959   17.485   17.704   18.292   19.043   18.246   19.365   51.638  -18.769    8.734    7.512    4.543    2.632   -0.003    0.040   37.946    4.819  186.727
 5962.500   25.310   25.060   24.440   24.756   26.032   27.173   18.961   20.357   49.123 -111.815    8.731    7.443    4.091    2.640    0.001    0.034   36.837    4.934  186.706
 5963.000   18.949   19.140   18.855   18.982   19.815   20.709   18.377   19.890   50.276 -221.490    8.741    7.497    3.975    2.642    0.003    0.031   37.009    4.786  186.664
 5963.500   16.407   16.635   16.375   16.452   17.286   18.098   17.578   19.116   52.312 -228.627    8.744    7.578    3.670    2.647    0.007    0.026   39.177    4.604  186.659
 5964.000   16.060   16.324   16.036   16.086   16.998   17.829   17.995   19.640   50.917  -89.539    8.739    7.364    3.518    2.650    0.009    0.024   41.056    4.659  186.659
 5964.500   15.349   15.795   15.518   15.551   16.526   17.359   20.260   22.222   45.000   75.336    8.738    6.741    4.155    2.639    0.005    0.038   41.656    4.880  186.659
 5965.000   27.649   29.136   28.706   28.733   30.509   32.097   24.348   26.881   37.200  109.840    8.734    6.294    4.995    2.625   -0.000    0.067   42.208    5.027  186.659
 5965.500   32.130   34.723   34.384   34.408   36.537   38.448   27.583   30.648   32.628    8.815    8.722    6.215    5.097    2.623   -0.001    0.080   42.017    5.051  186.659
 5966.000   23.560   25.646   25.515   25.568   27.282   28.663   27.144   30.313   32.989 -122.668    8.717    6.151    4.716    2.629    0.000    0.067   40.716    5.075  186.659
 5966.500   22.543   24.293   24.167   24.251   25.894   27.137   25.287   28.234   35.419 -168.463    8.721    6.049    4.585    2.632    0.001    0.059   40.448    5.117  186.659
 5967.000   22.532   23.894   23.719   23.845   25.423   26.547   24.554   27.288   36.646  -66.434    8.726    6.139    4.942    2.625   -0.001    0.067   40.570    5.099  186.659
 5967.500   21.895   22.855   22.669   22.835   24.220   25.174   25.007   27.630   36.192   92.969    8.733    6.412    5.359    2.618   -0.003    0.079   38.722    4.982  186.659
 5968.000   26.251   27.469   27.256   27.563   29.308   30.308   25.731   28.288   35.350  152.040    8.744    6.791    5.300    2.619   -0.003    0.079   36.872    4.830  186.659
 5968.500   24.337   25.469   25.401   25.712   27.095   27.855   25.924   28.388   35.226   76.033    8.758    7.070    4.710    2.629    0.002    0.063   37.843    4.727  186.659
 5969.000   22.269   23.376   23.430   23.689   24.712   25.202   26.090   28.385   35.230  -53.934    8.761    6.995    4.151    2.639    0.007    0.049   40.743    4.647  186.659
 5969.500   25.645   27.271   27.415   27.678   28.829   29.322   27.079   29.100   34.365 -130.247    8.743    6.693    3.948    2.642    0.009    0.045   42.065    4.550  186.664
