~Version Information
 VERS.                2.00:   CWLS log ASCII Standard -VERSION 2.00
 WRAP.                  NO:   One line per frame      
~Well Information Block
#MNEM.UNIT                  Well Data                    Data Description
#----.----   -----------------------------------------   -------------------------------
 STRT.FT                                      1290.000 : Starting Depth
 STOP.FT                                      6345.000 : Ending Depth
 STEP.FT                                         0.500 : Level Spacing
 NULL.                                       -999.2500 : Absent Value
 COMP.        NEWFIELD EXPLORATION COMPANY             : Company
 WELL.        MORO CREEK #3409H                        : Well
 FLD .        BRISCOE RANCH (EAGLEFORD)                : Field
 LOC .        1642' FNEL & 2015' FSEL OF SURVEY        : Location
 CNTY.        DIMMIT                                   : County
 STAT.        TEXAS                                    : State
 CTRY.        USA                                      : Country
 SRVC.        Baker Hughes                             : Service Company
 DATE.        12-OCT-2014                              : Log Date
 API .        42-127-36592                             : API Number
 UWI .        42-127-36592                             : Unique Well ID
~Curve Information Block
#MNEM    .UNIT        API Codes     Curve Description
#--------.--------   ------------   -------------------------------
 DEPT    .FT         99 995 99  1 : Depth
 M1R1    .OHMM        8 120 10  1 : Vertical 1-foot resolution matched resistivity, 10-inch DOI
 M1R2    .OHMM        8 120 20  1 : Vertical 1-foot resolution matched resistivity, 20-inch DOI
 M1R3    .OHMM        8 120 30  1 : Vertical 1-foot resolution matched resistivity, 30-inch DOI
 M1R6    .OHMM        8 120 60  1 : Vertical 1-foot resolution matched resistivity, 60-inch DOI
 M1R9    .OHMM        8 120 90  1 : Vertical 1-foot resolution matched resistivity, 90-inch DOI
 M1RX    .OHMM        8 120 90  1 : Vertical 1-foot resolution matched resistivity, 120-inch DOI
 M2R2    .OHMM        8 120 20  1 : Vertical 2-foot resolution matched resistivity, 20-inch DOI
 M2RX    .OHMM        8 120 99  1 : Vertical 2-foot resolution matched resistivity, 120-inch DOI
 M2CCX   .MMHO        8 110 99  1 : HDIL 2-foot resolution compressed conductivity, 120-inch DOI
 TEN     .LBF        99 635 99  1 : Differential tension
 CAL     .IN         70 280 99  1 : Caliper
 CNCF    .PU         42 995 99  1 : Field normalized compensated neutron porosity
 PORZC   .PU         99 995 99  1 : Corrected porosity
 ZDNC    .G/C3       94 995 99  1 : Borehole size/mud weight corrected density
 ZCOR    .G/C3       45 356 99  1 : Density correction
 RWAZC   .OHMM       94 935  7  1 : Apparent formation water resistivity (corrected)
 GR      .GAPI       30 310  1  1 : Gamma ray
 PE      .B/E        45 358  1  1 : Photo electric cross-section
 WTBH    .DEGF       99 995 99  1 : Temperature of borehole
~Parameter Information Block
#MNEM.UNIT             Parameter Value                  Parameter Description
#----.----   ----------------------------------------   -------------------------------
 HIDE.       HIGH DEFINITION INDUCTION LOG^S          : Header Identifer
 HID1.       COMPENSATED Z-DENSILOG^S                 : Header Identifer
 HID2.       COMPENSATED NEUTRON LOG                  : Header Identifer
 HID3.       GAMMA RAY LOG                            : Header Identifer
 FILE.       11135                                    : File Number
 CMT1.       FINAL PRINT                              : Comment 1  
 CMT4.       H&P 389                                  : Comment 4  
 FL1 .       1883' FSWL & 7767' FSEL OF LEASE         : Field Location 1
 FL2 .       H&GN RR CO / RICHARDSON, H E             : Field Location 2
 FL3 .       SEC. 34  /  A - 1037                     : Field Location 3
 OS1 .       NONE                                     : Other Services Line 1
 PDAT.       GL                                       : Permanent Datum
 EPD .FT     588                                      : Elevation Of Perm. Datum
 LMF .       KB                                       : Log Measured From
 APD .FT     25                                       : Above Permanent Datum
 DMF .       KB                                       : Drilling Measured From
 EKB .FT     613                                      : Elevation Of Kelly Bushing
 EDF .FT     612                                      : Elevation Of Derrick Floor
 EGL .FT     588                                      : Elevation Of Ground Level
 RUN .       1                                        : Run Number
 TRIP.       1                                        : Trip Number
 SON .       US090769                                 : Service Order Number
 TDD .FT     6326                                     : Total Depth - Driller
 TDL .FT     6334                                     : Total Depth - Logger
 BLI .FT     6326                                     : Bottom Log Interval
 TLI .FT     1299                                     : Top Log Interval
 CSIZ.IN     9.625                                    : Casing Size
 CBDR.FT     1305                                     : Casing Bottom - Driller
 CBLO.FT     1299                                     : Casing Bottom - Logger
 BS  .IN     8.750                                    : Bit Size
 DFT .       OBM                                      : Drilling Fluid Type
 DFD .LB/G   10.7                                     : Drilling Fluid Density
 DFV .S      50                                       : Drilling Fluid Viscosity
 MSS .       PITS                                     : Mud Sample Source
 MFSS.       ---                                      : Mud Filtrate Sample Source
 MCSS.       ---                                      : Mud Cake Sample Source
 TSC .       9 HR                                     : Time Since Circulation
 MRT .DEGF   188                                      : Maximum Recorded Temperature
 LUN .       HL-6678                                  : Logging Unit Number
 LUL .       ALICE, TX                                : Logging Unit Location
 ENGI.       R. MARTIN                                : Engineer's Name
 WITN.       J. MARMION                               : Witness' Name
 TSTR.       HDIL/ZDL/CN/GR                           : Title Service Mnemonic
 TSTG.       NA                                       : Title Service Mnemonic
 STUS.       FINAL                                    : Status
 LCNM.       BAKER ATLAS                              : Logging Company Name
 LCC .       150                                      : Logging Company Code
 OPMD.       OH.WIRE                                  : Operation Mode
 PANA.       R. MARTIN                                : Processing Analyst
 PCON.       BAKER ATLAS                              : Processing Contractor
~Other information
 BVOL = TOTAL BOREHOLE VOLUME                                                    
 CVOL = TOTAL CEMENT VOLUME, BASED ON 5.5" CSG                                   
 DENSITY MATRIX = LIMESTONE, 2.71 G/CC                                           
 NEUTRON MATRIX = LIMESTONE, 51100 PPM SALINITY                                  
 HL-6678 CREW:  R. MARTIN, A. GONZALES, L. SALAZAR, H. RUIZ                      
#  Curve Data
~A DEPT     M1R1     M1R2     M1R3     M1R6     M1R9     M1RX     M2R2     M2RX     M2CCX    TEN      CAL      CNCF     PORZC    ZDNC     ZCOR     RWAZC    GR       PE       WTBH    
# ...
 3945.000    5.024    4.860    4.780    4.763    4.852    4.951    4.498    4.576  218.552    4.636    8.814   26.284   13.174    2.485    0.001    0.079  105.088    2.695  160.542
 3945.500    4.635    4.443    4.374    4.365    4.439    4.525    4.111    4.181  239.184  -76.094    8.814   26.367   13.379    2.481    0.005    0.075  106.386    2.611  160.702
 3946.000    3.966    3.800    3.756    3.757    3.814    3.878    3.779    3.856  259.330 -101.454    8.802   28.820   13.512    2.479    0.006    0.070  108.554    2.818  160.614
 3946.500    3.710    3.577    3.552    3.565    3.620    3.677    3.611    3.713  269.347  -92.075    8.784   31.627   13.856    2.473    0.004    0.071  113.108    3.096  160.461
 3947.000    3.638    3.551    3.547    3.575    3.639    3.695    3.504    3.644  274.407 -105.550    8.761   30.722   13.786    2.474    0.004    0.069  115.489    3.163  160.473
 3947.500    3.327    3.300    3.318    3.360    3.430    3.477    3.398    3.585  278.942 -127.516    8.737   27.084   12.943    2.489    0.008    0.060  112.700    3.048  160.600
 3948.000    3.347    3.373    3.414    3.476    3.565    3.610    3.442    3.689  271.058 -125.417    8.729   23.916   11.819    2.508    0.013    0.052  106.885    2.928  160.595
 3948.500    3.450    3.525    3.579    3.656    3.768    3.814    3.829    4.163  240.196 -106.314    8.738   22.998   11.031    2.521    0.014    0.051   99.080    2.870  160.414
 3949.000    3.940    4.045    4.108    4.221    4.391    4.440    4.779    5.255  190.290  -78.458    8.744   23.844   10.723    2.527    0.014    0.060   90.142    2.889  160.281
 3949.500    6.533    6.607    6.684    6.887    7.220    7.300    6.467    7.145  139.959  -64.087    8.740   23.652   10.745    2.526    0.014    0.082   82.825    3.012  160.422
 3950.000    9.566    8.900    8.881    9.228    9.817    9.927    7.888    8.798  113.656 -105.052    8.738   20.961   10.945    2.523    0.014    0.105   76.351    3.147  160.697
 3950.500    9.574    7.887    7.701    8.023    8.660    8.782    7.715    8.573  116.645 -178.795    8.747   17.977   11.158    2.519    0.015    0.107   70.163    3.149  160.887
 3951.000    8.954    6.768    6.516    6.762    7.302    7.404    6.799    7.441  134.390 -197.208    8.755   16.587   11.354    2.516    0.013    0.096   67.796    3.106  161.022
 3951.500    8.254    6.019    5.754    5.947    6.442    6.538    5.932    6.435  155.407 -135.682    8.757   16.588   11.691    2.510    0.008    0.088   71.414    3.182  161.127
 3952.000    8.973    6.284    5.965    6.175    6.777    6.905    5.162    5.574  179.393  -89.275    8.760   17.597   12.200    2.501    0.001    0.083   78.279    3.253  160.978
 3952.500    6.067    4.781    4.597    4.723    5.083    5.166    4.532    4.877  205.059 -129.235    8.768   19.697   12.384    2.498   -0.004    0.075   86.463    3.141  160.644
 3953.000    4.980    4.224    4.096    4.197    4.471    4.541    4.258    4.581  218.310 -162.585    8.775   21.732   11.971    2.505   -0.007    0.066   92.788    2.986  160.551
 3953.500    4.742    4.234    4.131    4.236    4.493    4.570    4.396    4.747  210.644  -83.439    8.778   21.484   10.993    2.522   -0.005    0.057   94.768    3.023  160.826
 3954.000    4.991    4.695    4.610    4.744    5.008    5.098    4.694    5.097  196.194   24.532    8.783   20.385    9.843    2.542    0.002    0.049   94.374    3.214  161.168
 3954.500    4.984    4.908    4.865    5.012    5.235    5.329    4.732    5.139  194.605   21.158    8.786   20.840    9.153    2.553    0.012    0.043   94.286    3.380  161.309
 3955.000    4.419    4.471    4.474    4.610    4.769    4.854    4.434    4.814  207.719  -57.024    8.787   22.797    9.438    2.549    0.018    0.043   96.159    3.488  161.105
 3955.500    3.785    3.869    3.902    4.025    4.125    4.199    4.162    4.517  221.396 -115.192    8.778   25.163   10.175    2.536    0.018    0.047  100.622    3.584  160.701
 3956.000    3.895    3.984    4.036    4.159    4.230    4.305    4.151    4.491  222.674 -174.775    8.758   25.877   10.550    2.530    0.015    0.050  102.894    3.629  160.406
 3956.500    4.471    4.564    4.631    4.780    4.831    4.918    4.330    4.653  214.934 -250.413    8.749   24.766   10.305    2.534    0.014    0.049   99.545    3.607  160.329
 3957.000    4.437    4.465    4.501    4.628    4.655    4.740    4.449    4.722  211.767 -233.988    8.757   23.233    9.826    2.542    0.015    0.046   95.875    3.570  160.275
 3957.500    4.355    4.263    4.247    4.338    4.349    4.429    4.440    4.621  216.426  -94.060    8.764   22.029    9.816    2.542    0.017    0.045   94.759    3.513  160.228
 3958.000    4.157    3.922    3.855    3.909    3.916    3.977    4.751    4.832  206.965   15.917    8.755   21.420   10.331    2.533    0.017    0.052   93.513    3.446  160.215
 3958.500    6.627    5.712    5.467    5.533    5.552    5.678    5.937    5.901  169.473  -33.725    8.743   21.447   10.495    2.531    0.018    0.065   88.722    3.463  160.096
 3959.000   13.913   10.073    9.094    9.165    9.253    9.635    7.867    7.597  131.624 -210.272    8.746   21.083    9.698    2.544    0.020    0.071   80.402    3.524  159.851
 3959.500   13.295    9.594    8.607    8.590    8.707    9.068    8.710    8.274  120.856 -387.222    8.766   20.006    8.517    2.564    0.019    0.060   73.639    3.396  159.747
 3960.000   10.334    8.167    7.486    7.436    7.559    7.848    8.132    7.816  127.950 -327.622    8.783   19.033    7.851    2.576    0.013    0.048   71.720    3.087  159.845
 3960.500    7.762    6.791    6.402    6.356    6.470    6.701    7.943    7.820  127.878   65.073    8.780   18.619    7.893    2.575    0.006    0.049   74.521    2.867  160.027
 3961.000    9.398    8.708    8.274    8.215    8.444    8.872    7.981    8.119  123.172  489.381    8.762   18.278    8.488    2.565    0.001    0.058   81.221    2.858  160.162
 3961.500   11.726   11.465   11.048   11.032   11.520   12.186    6.723    7.029  142.260  611.775    8.745   18.016    9.928    2.540   -0.002    0.069   89.928    2.892  160.127
 3962.000    4.857    4.868    4.833    4.856    4.977    5.198    4.993    5.341  187.226  478.169    8.748   18.891   12.090    2.503   -0.003    0.078   97.340    2.827  159.982
 3962.500    3.566    3.559    3.547    3.581    3.665    3.811    4.232    4.593  217.709  289.332    8.757   22.317   13.814    2.474    0.002    0.088  103.431    2.726  159.787
 3963.000    4.120    4.043    4.015    4.077    4.184    4.378    4.364    4.756  210.243  126.821    8.755   26.855   14.268    2.466    0.012    0.097  104.980    2.676  159.585
 3963.500    4.797    4.583    4.520    4.619    4.747    4.962    5.172    5.660  176.679   22.503    8.746   28.093   14.014    2.470    0.022    0.111   95.385    2.672  159.455
 3964.000    7.166    6.511    6.356    6.575    6.824    7.237    6.220    6.879  145.360  -21.888    8.743   27.733   13.729    2.475    0.027    0.130   77.299    2.654  159.528
 3964.500    8.197    7.275    7.097    7.367    7.659    8.154    6.787    7.546  132.521  -62.271    8.751   26.647   13.510    2.479    0.027    0.138   60.976    2.610  159.642
 3965.000    8.012    7.277    7.168    7.412    7.682    8.135    6.761    7.495  133.416 -162.066    8.762   23.116   13.418    2.481    0.026    0.135   54.002    2.582  159.646
 3965.500    7.873    7.460    7.436    7.643    7.901    8.349    6.643    7.339  136.260 -237.981    8.755   20.919   13.660    2.476    0.022    0.137   55.242    2.629  159.579
 3966.000    6.293    6.212    6.231    6.328    6.482    6.792    6.518    7.142  140.008 -129.068    8.730   21.961   13.996    2.471    0.018    0.140   59.868    2.775  159.532
 3966.500    5.953    5.970    5.977    6.014    6.145    6.424    6.205    6.679  149.721   90.258    8.712   23.744   13.741    2.475    0.017    0.126   64.540    2.944  159.573
 3967.000    6.510    6.557    6.503    6.472    6.616    6.901    5.565    5.844  171.123  174.163    8.716   23.842   12.717    2.493    0.022    0.094   70.121    2.984  159.776
