~Version Information
 VERS.                2.00:   CWLS log ASCII Standard -VERSION 2.00
 WRAP.                  NO:   One line per frame      
~Well Information Block
#MNEM.UNIT                  Well Data                    Data Description
#----.----   -----------------------------------------   -------------------------------
 STRT.FT                                      1290.000 : Starting Depth
 STOP.FT                                      6345.000 : Ending Depth
 STEP.FT                                         0.500 : Level Spacing
 NULL.                                       -999.2500 : Absent Value
 COMP.        NEWFIELD EXPLORATION COMPANY             : Company
 WELL.        MORO CREEK #3409H                        : Well
 FLD .        BRISCOE RANCH (EAGLEFORD)                : Field
 LOC .        1642' FNEL & 2015' FSEL OF SURVEY        : Location
 CNTY.        DIMMIT                                   : County
 STAT.        TEXAS                                    : State
 CTRY.        USA                                      : Country
 SRVC.        Baker Hughes                             : Service Company
 DATE.        12-OCT-2014                              : Log Date
 API .        42-127-36592                             : API Number
 UWI .        42-127-36592                             : Unique Well ID
~Curve Information Block
#MNEM    .UNIT        API Codes     Curve Description
#--------.--------   ------------   -------------------------------
 DEPT    .FT         99 995 99  1 : Depth
 M1R1    .OHMM        8 120 10  1 : Vertical 1-foot resolution matched resistivity, 10-inch DOI
 M1R2    .OHMM        8 120 20  1 : Vertical 1-foot resolution matched resistivity, 20-inch DOI
 M1R3    .OHMM        8 120 30  1 : Vertical 1-foot resolution matched resistivity, 30-inch DOI
 M1R6    .OHMM        8 120 60  1 : Vertical 1-foot resolution matched resistivity, 60-inch DOI
 M1R9    .OHMM        8 120 90  1 : Vertical 1-foot resolution matched resistivity, 90-inch DOI
 M1RX    .OHMM        8 120 90  1 : Vertical 1-foot resolution matched resistivity, 120-inch DOI
 M2R2    .OHMM        8 120 20  1 : Vertical 2-foot resolution matched resistivity, 20-inch DOI
 M2RX    .OHMM        8 120 99  1 : Vertical 2-foot resolution matched resistivity, 120-inch DOI
 M2CCX   .MMHO        8 110 99  1 : HDIL 2-foot resolution compressed conductivity, 120-inch DOI
 TEN     .LBF        99 635 99  1 : Differential tension
 CAL     .IN         70 280 99  1 : Caliper
 CNCF    .PU         42 995 99  1 : Field normalized compensated neutron porosity
 PORZC   .PU         99 995 99  1 : Corrected porosity
 ZDNC    .G/C3       94 995 99  1 : Borehole size/mud weight corrected density
 ZCOR    .G/C3       45 356 99  1 : Density correction
 RWAZC   .OHMM       94 935  7  1 : Apparent formation water resistivity (corrected)
 GR      .GAPI       30 310  1  1 : Gamma ray
 PE      .B/E        45 358  1  1 : Photo electric cross-section
 WTBH    .DEGF       99 995 99  1 : Temperature of borehole
~Parameter Information Block
#MNEM.UNIT             Parameter Value                  Parameter Description
#----.----   ----------------------------------------   -------------------------------
 HIDE.       HIGH DEFINITION INDUCTION LOG^S          : Header Identifer
 HID1.       COMPENSATED Z-DENSILOG^S                 : Header Identifer
 HID2.       COMPENSATED NEUTRON LOG                  : Header Identifer
 HID3.       GAMMA RAY LOG                            : Header Identifer
 FILE.       11135                                    : File Number
 CMT1.       FINAL PRINT                              : Comment 1  
 CMT4.       H&P 389                                  : Comment 4  
 FL1 .       1883' FSWL & 7767' FSEL OF LEASE         : Field Location 1
 FL2 .       H&GN RR CO / RICHARDSON, H E             : Field Location 2
 FL3 .       SEC. 34  /  A - 1037                     : Field Location 3
 OS1 .       NONE                                     : Other Services Line 1
 PDAT.       GL                                       : Permanent Datum
 EPD .FT     588                                      : Elevation Of Perm. Datum
 LMF .       KB                                       : Log Measured From
 APD .FT     25                                       : Above Permanent Datum
 DMF .       KB                                       : Drilling Measured From
 EKB .FT     613                                      : Elevation Of Kelly Bushing
 EDF .FT     612                                      : Elevation Of Derrick Floor
 EGL .FT     588                                      : Elevation Of Ground Level
 RUN .       1                                        : Run Number
 TRIP.       1                                        : Trip Number
 SON .       US090769                                 : Service Order Number
 TDD .FT     6326                                     : Total Depth - Driller
 TDL .FT     6334                                     : Total Depth - Logger
 BLI .FT     6326                                     : Bottom Log Interval
 TLI .FT     1299                                     : Top Log Interval
 CSIZ.IN     9.625                                    : Casing Size
 CBDR.FT     1305                                     : Casing Bottom - Driller
 CBLO.FT     1299                                     : Casing Bottom - Logger
 BS  .IN     8.750                                    : Bit Size
 DFT .       OBM                                      : Drilling Fluid Type
 DFD .LB/G   10.7                                     : Drilling Fluid Density
 DFV .S      50                                       : Drilling Fluid Viscosity
 MSS .       PITS                                     : Mud Sample Source
 MFSS.       ---                                      : Mud Filtrate Sample Source
 MCSS.       ---                                      : Mud Cake Sample Source
 TSC .       9 HR                                     : Time Since Circulation
 MRT .DEGF   188                                      : Maximum Recorded Temperature
 LUN .       HL-6678                                  : Logging Unit Number
 LUL .       ALICE, TX                                : Logging Unit Location
 ENGI.       R. MARTIN                                : Engineer's Name
 WITN.       J. MARMION                               : Witness' Name
 TSTR.       HDIL/ZDL/CN/GR                           : Title Service Mnemonic
 TSTG.       NA                                       : Title Service Mnemonic
 STUS.       FINAL                                    : Status
 LCNM.       BAKER ATLAS                              : Logging Company Name
 LCC .       150                                      : Logging Company Code
 OPMD.       OH.WIRE                                  : Operation Mode
 PANA.       R. MARTIN                                : Processing Analyst
 PCON.       BAKER ATLAS                              : Processing Contractor
~Other information
 BVOL = TOTAL BOREHOLE VOLUME                                                    
 CVOL = TOTAL CEMENT VOLUME, BASED ON 5.5" CSG                                   
 DENSITY MATRIX = LIMESTONE, 2.71 G/CC                                           
 NEUTRON MATRIX = LIMESTONE, 51100 PPM SALINITY                                  
 HL-6678 CREW:  R. MARTIN, A. GONZALES, L. SALAZAR, H. RUIZ                      
#  Curve Data
~A DEPT     M1R1     M1R2     M1R3     M1R6     M1R9     M1RX     M2R2     M2RX     M2CCX    TEN      CAL      CNCF     PORZC    ZDNC     ZCOR     RWAZC    GR       PE       WTBH    
# ...
 4957.500    5.893    5.719    5.584    5.591    5.711    5.902    5.764    5.950  168.054    3.805    8.755   20.418    8.911    2.558    0.006    0.047  121.256    3.019  174.833
 4958.000    5.924    5.758    5.629    5.644    5.774    5.975    5.792    6.012  166.333   42.707    8.752   19.761    8.238    2.569    0.011    0.041  120.832    2.932  174.833
 4958.500    5.995    5.832    5.706    5.727    5.870    6.085    5.736    5.981  167.204   12.440    8.754   19.350    7.932    2.574    0.015    0.038  121.563    2.946  174.833
 4959.000    5.961    5.806    5.684    5.710    5.861    6.085    5.533    5.787  172.796  -74.408    8.753   19.497    8.181    2.570    0.017    0.039  123.353    2.940  174.833
 4959.500    5.493    5.359    5.256    5.280    5.416    5.620    5.242    5.492  182.076 -100.705    8.745   20.483    8.579    2.563    0.018    0.040  125.856    2.912  174.854
 4960.000    4.983    4.857    4.772    4.795    4.911    5.087    5.004    5.248  190.541  -13.921    8.739   21.893    8.737    2.561    0.020    0.040  129.680    2.981  174.921
 4960.500    5.007    4.850    4.763    4.790    4.911    5.091    4.859    5.101  196.042   91.325    8.741   22.635    8.795    2.560    0.020    0.039  133.524    3.071  174.963
 4961.000    5.046    4.853    4.767    4.800    4.924    5.109    4.742    4.986  200.556   99.463    8.747   22.442    8.929    2.557    0.019    0.040  135.798    3.015  174.921
 4961.500    4.940    4.735    4.657    4.696    4.818    4.999    4.589    4.837  206.751   16.260    8.757   22.234    9.003    2.556    0.019    0.039  137.955    2.891  174.854
 4962.000    4.712    4.523    4.458    4.504    4.618    4.789    4.346    4.591  217.814  -52.584    8.766   22.721    9.099    2.554    0.019    0.038  144.572    2.822  174.833
 4962.500    4.373    4.204    4.153    4.202    4.304    4.458    3.959    4.184  239.024  -31.185    8.768   23.274    9.526    2.547    0.019    0.038  162.154    2.781  174.833
 4963.000    3.926    3.766    3.726    3.773    3.856    3.986    3.555    3.750  266.665   37.147    8.764   22.756   10.030    2.538    0.019    0.038  183.307    2.743  174.854
 4963.500    2.915    2.805    2.780    2.808    2.854    2.920    3.464    3.641  274.641   50.014    8.766   21.646    9.833    2.542    0.021    0.035  185.190    2.760  174.929
 4964.000    3.770    3.554    3.504    3.551    3.619    3.718    3.889    4.085  244.790   -4.422    8.774   21.138    8.991    2.556    0.024    0.033  163.139    2.810  175.066
 4964.500    6.077    5.519    5.377    5.483    5.634    5.852    4.724    4.966  201.376  -39.248    8.766   21.120    8.415    2.566    0.022    0.035  136.731    2.802  175.208
 4965.000    5.995    5.488    5.334    5.426    5.562    5.752    5.305    5.552  180.111   -8.783    8.745   20.294    8.340    2.567    0.017    0.039  120.264    2.809  175.373
 4965.500    5.974    5.549    5.391    5.467    5.597    5.775    5.423    5.639  177.337   30.486    8.740   19.084    8.322    2.568    0.013    0.039  113.966    2.941  175.505
 4966.000    5.872    5.544    5.394    5.448    5.571    5.739    5.418    5.604  178.435   18.823    8.754   18.714    8.445    2.566    0.009    0.040  115.670    3.128  175.469
 4966.500    5.591    5.345    5.209    5.236    5.347    5.501    5.322    5.477  182.578  -20.933    8.763   19.198    8.870    2.558    0.005    0.043  118.860    3.229  175.328
 4967.000    5.386    5.157    5.028    5.034    5.134    5.279    5.072    5.190  192.679  -32.573    8.756   20.119    9.194    2.553    0.003    0.044  119.857    3.188  175.217
 4967.500    5.119    4.880    4.752    4.741    4.828    4.961    4.728    4.804  208.180  -11.628    8.744   21.346    9.175    2.553    0.004    0.040  122.743    3.062  175.095
 4968.000    4.637    4.412    4.296    4.276    4.347    4.456    4.380    4.424  226.038    8.144    8.741   22.575    9.146    2.554    0.007    0.037  128.792    2.980  174.935
 4968.500    4.266    4.069    3.966    3.943    4.003    4.095    4.163    4.190  238.662   11.907    8.751   23.142    9.402    2.549    0.009    0.037  133.133    2.977  174.841
 4969.000    4.269    4.089    3.985    3.961    4.021    4.112    4.144    4.168  239.913   18.637    8.761   22.951    9.699    2.544    0.010    0.039  133.231    3.009  174.858
 4969.500    4.339    4.180    4.078    4.052    4.115    4.208    4.300    4.330  230.970   42.598    8.758   21.763    9.770    2.543    0.011    0.041  132.503    3.078  175.018
 4970.000    4.583    4.432    4.324    4.298    4.369    4.471    4.530    4.571  218.785   52.222    8.749   20.650    9.708    2.544    0.012    0.043  132.011    3.115  175.330
 4970.500    4.995    4.828    4.707    4.680    4.765    4.882    4.683    4.734  211.258   14.059    8.743   20.589    9.676    2.545    0.010    0.044  130.697    3.047  175.536
 4971.000    4.995    4.825    4.710    4.686    4.771    4.885    4.677    4.733  211.266  -36.485    8.734   21.371    9.805    2.542    0.006    0.046  128.533    2.973  175.562
 4971.500    4.734    4.577    4.477    4.457    4.533    4.634    4.571    4.628  216.067  -36.605    8.725   22.062   10.100    2.537    0.002    0.047  126.725    2.963  175.565
 4972.000    4.633    4.481    4.387    4.366    4.439    4.535    4.459    4.512  221.617    0.047    8.723   22.390   10.377    2.533    0.000    0.049  127.024    2.953  175.536
 4972.500    4.523    4.375    4.284    4.259    4.327    4.420    4.365    4.409  226.786    3.484    8.734   22.197   10.572    2.529    0.001    0.049  132.197    2.903  175.447
 4973.000    4.451    4.297    4.202    4.172    4.237    4.326    4.280    4.308  232.104  -29.188    8.761   21.444   10.678    2.527    0.002    0.049  140.352    2.785  175.371
 4973.500    4.403    4.230    4.126    4.090    4.150    4.237    4.217    4.225  236.706  -30.327    8.783   21.004   10.470    2.531    0.005    0.046  146.717    2.607  175.279
 4974.000    4.326    4.128    4.015    3.974    4.030    4.113    4.196    4.180  239.252    6.892    8.772   21.650   10.043    2.538    0.009    0.042  149.950    2.507  175.097
 4974.500    4.446    4.203    4.071    4.022    4.078    4.165    4.194    4.155  240.648    9.380    8.741   22.869    9.824    2.542    0.011    0.040  150.605    2.598  174.950
 4975.000    4.508    4.231    4.083    4.030    4.084    4.173    4.169    4.113  243.113  -46.057    8.728   23.827    9.985    2.539    0.012    0.041  149.387    2.813  174.985
 4975.500    4.455    4.168    4.016    3.962    4.013    4.102    4.124    4.059  246.374  -85.734    8.741   24.127   10.275    2.534    0.012    0.043  149.660    3.003  175.260
 4976.000    4.344    4.067    3.920    3.867    3.916    4.002    4.091    4.026  248.412  -43.663    8.752   23.646   10.451    2.531    0.011    0.044  152.532    3.119  175.458
 4976.500    4.295    4.027    3.884    3.833    3.881    3.968    4.093    4.031  248.081   31.324    8.746   22.630   10.436    2.532    0.009    0.044  153.609    3.208  175.348
 4977.000    4.371    4.101    3.955    3.904    3.955    4.047    4.135    4.081  245.060   37.962    8.733   21.375   10.146    2.537    0.008    0.042  148.536    3.307  175.095
 4977.500    4.448    4.175    4.027    3.977    4.031    4.129    4.208    4.162  240.279  -28.243    8.739   20.749    9.482    2.548    0.007    0.037  136.728    3.301  174.929
 4978.000    4.653    4.361    4.203    4.152    4.212    4.323    4.263    4.227  236.552  -76.720    8.759   21.412    8.558    2.564    0.008    0.031  123.648    3.118  174.862
 4978.500    4.549    4.273    4.125    4.079    4.139    4.249    4.260    4.236  236.080  -55.618    8.777   22.681    7.986    2.573    0.008    0.027  115.223    2.939  174.935
 4979.000    4.480    4.216    4.074    4.033    4.093    4.204    4.220    4.208  237.659   -0.680    8.780   23.058    8.197    2.570    0.007    0.028  112.012    2.877  175.070
 4979.500    4.513    4.249    4.107    4.069    4.132    4.249    4.179    4.179  239.301   30.387    8.771   23.120    8.525    2.564    0.006    0.030  110.568    2.846  175.070
