~Version Information
 VERS.                2.00:   CWLS log ASCII Standard -VERSION 2.00
 WRAP.                  NO:   One line per frame      
~Well Information Block
#MNEM.UNIT                  Well Data                    Data Description
#----.----   -----------------------------------------   -------------------------------
 STRT.FT                                      1290.000 : Starting Depth
 STOP.FT                                      6345.000 : Ending Depth
 STEP.FT                                         0.500 : Level Spacing
 NULL.                                       -999.2500 : Absent Value
 COMP.        NEWFIELD EXPLORATION COMPANY             : Company
 WELL.        MORO CREEK #3409H                        : Well
 FLD .        BRISCOE RANCH (EAGLEFORD)                : Field
 LOC .        1642' FNEL & 2015' FSEL OF SURVEY        : Location
 CNTY.        DIMMIT                                   : County
 STAT.        TEXAS                                    : State
 CTRY.        USA                                      : Country
 SRVC.        Baker Hughes                             : Service Company
 DATE.        12-OCT-2014                              : Log Date
 API .        42-127-36592                             : API Number
 UWI .        42-127-36592                             : Unique Well ID
~Curve Information Block
#MNEM    .UNIT        API Codes     Curve Description
#--------.--------   ------------   -------------------------------
 DEPT    .FT         99 995 99  1 : Depth
 M1R1    .OHMM        8 120 10  1 : Vertical 1-foot resolution matched resistivity, 10-inch DOI
 M1R2    .OHMM        8 120 20  1 : Vertical 1-foot resolution matched resistivity, 20-inch DOI
 M1R3    .OHMM        8 120 30  1 : Vertical 1-foot resolution matched resistivity, 30-inch DOI
 M1R6    .OHMM        8 120 60  1 : Vertical 1-foot resolution matched resistivity, 60-inch DOI
 M1R9    .OHMM        8 120 90  1 : Vertical 1-foot resolution matched resistivity, 90-inch DOI
 M1RX    .OHMM        8 120 90  1 : Vertical 1-foot resolution matched resistivity, 120-inch DOI
 M2R2    .OHMM        8 120 20  1 : Vertical 2-foot resolution matched resistivity, 20-inch DOI
 M2RX    .OHMM        8 120 99  1 : Vertical 2-foot resolution matched resistivity, 120-inch DOI
 M2CCX   .MMHO        8 110 99  1 : HDIL 2-foot resolution compressed conductivity, 120-inch DOI
 TEN     .LBF        99 635 99  1 : Differential tension
 CAL     .IN         70 280 99  1 : Caliper
 CNCF    .PU         42 995 99  1 : Field normalized compensated neutron porosity
 PORZC   .PU         99 995 99  1 : Corrected porosity
 ZDNC    .G/C3       94 995 99  1 : Borehole size/mud weight corrected density
 ZCOR    .G/C3       45 356 99  1 : Density correction
 RWAZC   .OHMM       94 935  7  1 : Apparent formation water resistivity (corrected)
 GR      .GAPI       30 310  1  1 : Gamma ray
 PE      .B/E        45 358  1  1 : Photo electric cross-section
 WTBH    .DEGF       99 995 99  1 : Temperature of borehole
~Parameter Information Block
#MNEM.UNIT             Parameter Value                  Parameter Description
#----.----   ----------------------------------------   -------------------------------
 HIDE.       HIGH DEFINITION INDUCTION LOG^S          : Header Identifer
 HID1.       COMPENSATED Z-DENSILOG^S                 : Header Identifer
 HID2.       COMPENSATED NEUTRON LOG                  : Header Identifer
 HID3.       GAMMA RAY LOG                            : Header Identifer
 FILE.       11135                                    : File Number
 CMT1.       FINAL PRINT                              : Comment 1  
 CMT4.       H&P 389                                  : Comment 4  
 FL1 .       1883' FSWL & 7767' FSEL OF LEASE         : Field Location 1
 FL2 .       H&GN RR CO / RICHARDSON, H E             : Field Location 2
 FL3 .       SEC. 34  /  A - 1037                     : Field Location 3
 OS1 .       NONE                                     : Other Services Line 1
 PDAT.       GL                                       : Permanent Datum
 EPD .FT     588                                      : Elevation Of Perm. Datum
 LMF .       KB                                       : Log Measured From
 APD .FT     25                                       : Above Permanent Datum
 DMF .       KB                                       : Drilling Measured From
 EKB .FT     613                                      : Elevation Of Kelly Bushing
 EDF .FT     612                                      : Elevation Of Derrick Floor
 EGL .FT     588                                      : Elevation Of Ground Level
 RUN .       1                                        : Run Number
 TRIP.       1                                        : Trip Number
 SON .       US090769                                 : Service Order Number
 TDD .FT     6326                                     : Total Depth - Driller
 TDL .FT     6334                                     : Total Depth - Logger
 BLI .FT     6326                                     : Bottom Log Interval
 TLI .FT     1299                                     : Top Log Interval
 CSIZ.IN     9.625                                    : Casing Size
 CBDR.FT     1305                                     : Casing Bottom - Driller
 CBLO.FT     1299                                     : Casing Bottom - Logger
 BS  .IN     8.750                                    : Bit Size
 DFT .       OBM                                      : Drilling Fluid Type
 DFD .LB/G   10.7                                     : Drilling Fluid Density
 DFV .S      50                                       : Drilling Fluid Viscosity
 MSS .       PITS                                     : Mud Sample Source
 MFSS.       ---                                      : Mud Filtrate Sample Source
 MCSS.       ---                                      : Mud Cake Sample Source
 TSC .       9 HR                                     : Time Since Circulation
 MRT .DEGF   188                                      : Maximum Recorded Temperature
 LUN .       HL-6678                                  : Logging Unit Number
 LUL .       ALICE, TX                                : Logging Unit Location
 ENGI.       R. MARTIN                                : Engineer's Name
 WITN.       J. MARMION                               : Witness' Name
 TSTR.       HDIL/ZDL/CN/GR                           : Title Service Mnemonic
 TSTG.       NA                                       : Title Service Mnemonic
 STUS.       FINAL                                    : Status
 LCNM.       BAKER ATLAS                              : Logging Company Name
 LCC .       150                                      : Logging Company Code
 OPMD.       OH.WIRE                                  : Operation Mode
 PANA.       R. MARTIN                                : Processing Analyst
 PCON.       BAKER ATLAS                              : Processing Contractor
~Other information
 BVOL = TOTAL BOREHOLE VOLUME                                                    
 CVOL = TOTAL CEMENT VOLUME, BASED ON 5.5" CSG                                   
 DENSITY MATRIX = LIMESTONE, 2.71 G/CC                                           
 NEUTRON MATRIX = LIMESTONE, 51100 PPM SALINITY                                  
 HL-6678 CREW:  R. MARTIN, A. GONZALES, L. SALAZAR, H. RUIZ                      
#  Curve Data
~A DEPT     M1R1     M1R2     M1R3     M1R6     M1R9     M1RX     M2R2     M2RX     M2CCX    TEN      CAL      CNCF     PORZC    ZDNC     ZCOR     RWAZC    GR       PE       WTBH    
# ...
 1627.500    4.643    4.769    4.890    5.051    5.340    5.642    4.457    5.273  189.631  -38.997    8.753   27.877   16.695    2.425    0.021    0.147   85.359    3.216  130.545
 1628.000    3.553    3.643    3.744    3.863    4.078    4.287    3.681    4.333  230.788  -41.931    8.773   30.075   16.144    2.434    0.021    0.113   89.271    2.975  130.722
 1628.500    3.179    3.256    3.349    3.454    3.639    3.806    3.247    3.795  263.478  -41.064    8.793   31.095   16.377    2.430    0.018    0.102   97.121    2.786  130.857
 1629.000    3.033    3.103    3.193    3.293    3.463    3.604    2.985    3.463  288.777  -41.776    8.796   30.472   16.639    2.425    0.015    0.096  103.815    2.848  130.902
 1629.500    2.788    2.847    2.925    3.017    3.166    3.280    2.776    3.196  312.879  -40.538    8.785   30.762   16.674    2.425    0.014    0.089  105.473    3.092  130.861
 1630.000    2.527    2.573    2.638    2.723    2.851    2.939    2.615    2.989  334.595  -36.463    8.785   33.089   16.785    2.423    0.014    0.084  106.096    3.231  130.794
 1630.500    2.485    2.528    2.591    2.677    2.796    2.869    2.527    2.869  348.558  -34.919    8.792   35.157   17.029    2.419    0.014    0.083  106.216    3.226  130.751
 1631.000    2.425    2.465    2.526    2.609    2.719    2.779    2.505    2.826  353.832  -38.243    8.788   35.902   17.244    2.415    0.015    0.084  104.464    3.218  130.681
 1631.500    2.465    2.507    2.570    2.656    2.760    2.810    2.533    2.840  352.064  -41.989    8.781   36.378   17.235    2.415    0.016    0.084  103.347    3.173  130.575
 1632.000    2.569    2.618    2.687    2.776    2.877    2.919    2.584    2.880  347.229  -41.627    8.781   36.149   16.796    2.423    0.017    0.081  103.675    3.069  130.504
 1632.500    2.568    2.620    2.690    2.777    2.871    2.904    2.626    2.910  343.691  -38.177    8.771   35.578   16.162    2.434    0.016    0.076  103.633    2.986  130.499
 1633.000    2.599    2.655    2.729    2.813    2.901    2.926    2.648    2.918  342.678  -37.374    8.757   34.618   15.768    2.440    0.015    0.073  103.111    2.880  130.524
 1633.500    2.646    2.711    2.789    2.870    2.954    2.972    2.630    2.883  346.913  -41.134    8.759   33.413   15.555    2.444    0.014    0.070  101.301    2.776  130.567
 1634.000    2.590    2.661    2.740    2.814    2.890    2.904    2.536    2.767  361.457  -47.127    8.767   33.318   15.577    2.444    0.015    0.067   99.975    2.790  130.659
 1634.500    2.395    2.466    2.541    2.605    2.670    2.680    2.374    2.579  387.763  -50.459    8.766   34.225   16.125    2.434    0.014    0.067  102.612    2.844  130.718
 1635.000    2.173    2.240    2.308    2.362    2.417    2.425    2.197    2.378  420.538  -50.121    8.769   34.451   16.842    2.422    0.013    0.067  107.076    2.843  130.676
 1635.500    2.023    2.086    2.148    2.195    2.244    2.251    2.054    2.216  451.336  -48.336    8.782   35.354   17.193    2.416    0.014    0.065  108.791    2.843  130.608
 1636.000    1.904    1.961    2.017    2.060    2.104    2.110    1.958    2.107  474.647  -47.258    8.788   38.581   17.236    2.415    0.017    0.063  108.625    2.862  130.583
 1636.500    1.837    1.889    1.940    1.982    2.022    2.029    1.901    2.042  489.804  -48.906    8.782   40.423   17.216    2.416    0.020    0.061  108.226    2.866  130.536
 1637.000    1.836    1.885    1.934    1.977    2.015    2.022    1.874    2.010  497.602  -47.421    8.768   38.709   17.131    2.417    0.023    0.059  106.896    2.888  130.448
 1637.500    1.815    1.860    1.906    1.950    1.985    1.994    1.869    2.004  499.086  -38.715    8.754   36.703   17.052    2.418    0.026    0.058  105.910    2.932  130.360
 1638.000    1.838    1.880    1.926    1.972    2.006    2.016    1.876    2.013  496.766  -33.144    8.746   36.500   17.236    2.415    0.026    0.060  105.949    2.946  130.338
 1638.500    1.865    1.903    1.950    2.000    2.033    2.045    1.886    2.025  493.768  -26.805    8.746   37.802   17.742    2.407    0.022    0.064  106.425    2.941  130.452
 1639.000    1.854    1.889    1.934    1.986    2.017    2.031    1.899    2.042  489.680  -16.011    8.753   38.976   18.238    2.398    0.017    0.068  106.749    3.006  130.613
 1639.500    1.884    1.916    1.962    2.017    2.047    2.064    1.927    2.077  481.442  -14.130    8.759   38.248   18.473    2.394    0.013    0.071  106.923    3.086  130.689
 1640.000    1.944    1.974    2.022    2.083    2.112    2.135    1.971    2.131  469.318  -28.839    8.761   35.706   18.464    2.394    0.012    0.073  106.421    3.054  130.669
 1640.500    1.999    2.030    2.080    2.145    2.173    2.203    2.016    2.187  457.213  -43.899    8.773   35.156   18.237    2.398    0.013    0.073  106.584    3.023  130.601
 1641.000    2.042    2.075    2.127    2.197    2.225    2.261    2.053    2.237  447.006  -53.564    8.787   37.349   17.827    2.405    0.016    0.071  106.483    3.141  130.483
 1641.500    2.022    2.055    2.106    2.179    2.205    2.249    2.092    2.291  436.496  -56.040    8.784   38.651   17.408    2.412    0.019    0.069  106.015    3.244  130.364
 1642.000    2.090    2.126    2.180    2.259    2.285    2.339    2.145    2.361  423.525  -56.915    8.767   37.417   17.145    2.417    0.021    0.069  106.967    3.139  130.317
 1642.500    2.165    2.202    2.258    2.345    2.371    2.437    2.209    2.444  409.180  -53.969    8.753   35.685   17.058    2.418    0.022    0.071  109.163    2.923  130.381
 1643.000    2.164    2.196    2.246    2.335    2.359    2.435    2.298    2.555  391.315  -41.055    8.748   34.233   16.959    2.420    0.022    0.073  110.497    2.740  130.520
 1643.500    2.325    2.349    2.396    2.495    2.519    2.610    2.482    2.772  360.688  -34.499    8.752   32.586   16.704    2.424    0.022    0.077  110.338    2.653  130.609
 1644.000    2.528    2.532    2.571    2.673    2.696    2.795    2.911    3.263  306.496  -38.372    8.768   31.234   16.563    2.427    0.020    0.090  107.553    2.722  130.592
 1644.500    3.482    3.450    3.489    3.638    3.670    3.829    3.867    4.348  229.966  -34.688    8.782   29.623   16.979    2.420    0.015    0.125  101.353    2.848  130.592
 1645.000    6.425    6.183    6.231    6.612    6.680    7.056    5.585    6.315  158.355  -32.598    8.778   28.328   17.817    2.405    0.011    0.200   92.655    2.847  130.613
 1645.500    9.114    8.469    8.447    9.063    9.160    9.719    7.463    8.513  117.465  -35.779    8.762   28.148   18.602    2.392    0.010    0.295   84.916    2.785  130.571
 1646.000    9.143    8.428    8.340    8.872    8.989    9.629    8.228    9.392  106.471  -26.733    8.750   27.985   19.187    2.382    0.012    0.346   79.420    2.831  130.499
 1646.500    8.631    7.997    7.881    8.304    8.426    9.062    7.965    9.024  110.811  -18.321    8.746   26.836   19.583    2.375    0.013    0.346   75.836    2.948  130.457
 1647.000    7.898    7.394    7.255    7.573    7.688    8.291    7.662    8.613  116.104  -13.858    8.743   26.054   19.661    2.374    0.014    0.333   75.241    3.015  130.499
 1647.500    7.589    7.145    6.975    7.233    7.357    7.961    7.647    8.558  116.852    2.514    8.735   25.613   19.312    2.380    0.016    0.319   77.598    3.040  130.583
 1648.000    7.992    7.485    7.248    7.493    7.654    8.330    7.840    8.752  114.266    8.121    8.725   24.372   18.644    2.391    0.019    0.304   79.641    3.079  130.624
 1648.500    8.487    7.876    7.561    7.795    8.005    8.769    8.051    8.978  111.383   -1.918    8.722   23.495   17.937    2.403    0.021    0.289   80.200    3.129  130.600
 1649.000    9.438    8.670    8.248    8.504    8.800    9.720    8.007    8.930  111.987   -0.747    8.730   23.667   17.618    2.409    0.019    0.277   80.018    3.120  130.552
 1649.500    8.197    7.604    7.268    7.460    7.721    8.485    7.664    8.556  116.883    2.748    8.738   24.710   17.966    2.403    0.014    0.276   79.557    2.989  130.510
