~Version Information
 VERS.                2.00:   CWLS log ASCII Standard -VERSION 2.00
 WRAP.                  NO:   One line per frame      
~Well Information Block
#MNEM.UNIT                  Well Data                    Data Description
#----.----   -----------------------------------------   -------------------------------
 STRT.FT                                      1290.000 : Starting Depth
 STOP.FT                                      6345.000 : Ending Depth
 STEP.FT                                         0.500 : Level Spacing
 NULL.                                       -999.2500 : Absent Value
 COMP.        NEWFIELD EXPLORATION COMPANY             : Company
 WELL.        MORO CREEK #3409H                        : Well
 FLD .        BRISCOE RANCH (EAGLEFORD)                : Field
 LOC .        1642' FNEL & 2015' FSEL OF SURVEY        : Location
 CNTY.        DIMMIT                                   : County
 STAT.        TEXAS                                    : State
 CTRY.        USA                                      : Country
 SRVC.        Baker Hughes                             : Service Company
 DATE.        12-OCT-2014                              : Log Date
 API .        42-127-36592                             : API Number
 UWI .        42-127-36592                             : Unique Well ID
~Curve Information Block
#MNEM    .UNIT        API Codes     Curve Description
#--------.--------   ------------   -------------------------------
 DEPT    .FT         99 995 99  1 : Depth
 M1R1    .OHMM        8 120 10  1 : Vertical 1-foot resolution matched resistivity, 10-inch DOI
 M1R2    .OHMM        8 120 20  1 : Vertical 1-foot resolution matched resistivity, 20-inch DOI
 M1R3    .OHMM        8 120 30  1 : Vertical 1-foot resolution matched resistivity, 30-inch DOI
 M1R6    .OHMM        8 120 60  1 : Vertical 1-foot resolution matched resistivity, 60-inch DOI
 M1R9    .OHMM        8 120 90  1 : Vertical 1-foot resolution matched resistivity, 90-inch DOI
 M1RX    .OHMM        8 120 90  1 : Vertical 1-foot resolution matched resistivity, 120-inch DOI
 M2R2    .OHMM        8 120 20  1 : Vertical 2-foot resolution matched resistivity, 20-inch DOI
 M2RX    .OHMM        8 120 99  1 : Vertical 2-foot resolution matched resistivity, 120-inch DOI
 M2CCX   .MMHO        8 110 99  1 : HDIL 2-foot resolution compressed conductivity, 120-inch DOI
 TEN     .LBF        99 635 99  1 : Differential tension
 CAL     .IN         70 280 99  1 : Caliper
 CNCF    .PU         42 995 99  1 : Field normalized compensated neutron porosity
 PORZC   .PU         99 995 99  1 : Corrected porosity
 ZDNC    .G/C3       94 995 99  1 : Borehole size/mud weight corrected density
 ZCOR    .G/C3       45 356 99  1 : Density correction
 RWAZC   .OHMM       94 935  7  1 : Apparent formation water resistivity (corrected)
 GR      .GAPI       30 310  1  1 : Gamma ray
 PE      .B/E        45 358  1  1 : Photo electric cross-section
 WTBH    .DEGF       99 995 99  1 : Temperature of borehole
~Parameter Information Block
#MNEM.UNIT             Parameter Value                  Parameter Description
#----.----   ----------------------------------------   -------------------------------
 HIDE.       HIGH DEFINITION INDUCTION LOG^S          : Header Identifer
 HID1.       COMPENSATED Z-DENSILOG^S                 : Header Identifer
 HID2.       COMPENSATED NEUTRON LOG                  : Header Identifer
 HID3.       GAMMA RAY LOG                            : Header Identifer
 FILE.       11135                                    : File Number
 CMT1.       FINAL PRINT                              : Comment 1  
 CMT4.       H&P 389                                  : Comment 4  
 FL1 .       1883' FSWL & 7767' FSEL OF LEASE         : Field Location 1
 FL2 .       H&GN RR CO / RICHARDSON, H E             : Field Location 2
 FL3 .       SEC. 34  /  A - 1037                     : Field Location 3
 OS1 .       NONE                                     : Other Services Line 1
 PDAT.       GL                                       : Permanent Datum
 EPD .FT     588                                      : Elevation Of Perm. Datum
 LMF .       KB                                       : Log Measured From
 APD .FT     25                                       : Above Permanent Datum
 DMF .       KB                                       : Drilling Measured From
 EKB .FT     613                                      : Elevation Of Kelly Bushing
 EDF .FT     612                                      : Elevation Of Derrick Floor
 EGL .FT     588                                      : Elevation Of Ground Level
 RUN .       1                                        : Run Number
 TRIP.       1                                        : Trip Number
 SON .       US090769                                 : Service Order Number
 TDD .FT     6326                                     : Total Depth - Driller
 TDL .FT     6334                                     : Total Depth - Logger
 BLI .FT     6326                                     : Bottom Log Interval
 TLI .FT     1299                                     : Top Log Interval
 CSIZ.IN     9.625                                    : Casing Size
 CBDR.FT     1305                                     : Casing Bottom - Driller
 CBLO.FT     1299                                     : Casing Bottom - Logger
 BS  .IN     8.750                                    : Bit Size
 DFT .       OBM                                      : Drilling Fluid Type
 DFD .LB/G   10.7                                     : Drilling Fluid Density
 DFV .S      50                                       : Drilling Fluid Viscosity
 MSS .       PITS                                     : Mud Sample Source
 MFSS.       ---                                      : Mud Filtrate Sample Source
 MCSS.       ---                                      : Mud Cake Sample Source
 TSC .       9 HR                                     : Time Since Circulation
 MRT .DEGF   188                                      : Maximum Recorded Temperature
 LUN .       HL-6678                                  : Logging Unit Number
 LUL .       ALICE, TX                                : Logging Unit Location
 ENGI.       R. MARTIN                                : Engineer's Name
 WITN.       J. MARMION                               : Witness' Name
 TSTR.       HDIL/ZDL/CN/GR                           : Title Service Mnemonic
 TSTG.       NA                                       : Title Service Mnemonic
 STUS.       FINAL                                    : Status
 LCNM.       BAKER ATLAS                              : Logging Company Name
 LCC .       150                                      : Logging Company Code
 OPMD.       OH.WIRE                                  : Operation Mode
 PANA.       R. MARTIN                                : Processing Analyst
 PCON.       BAKER ATLAS                              : Processing Contractor
~Other information
 BVOL = TOTAL BOREHOLE VOLUME                                                    
 CVOL = TOTAL CEMENT VOLUME, BASED ON 5.5" CSG                                   
 DENSITY MATRIX = LIMESTONE, 2.71 G/CC                                           
 NEUTRON MATRIX = LIMESTONE, 51100 PPM SALINITY                                  
 HL-6678 CREW:  R. MARTIN, A. GONZALES, L. SALAZAR, H. RUIZ                      
#  Curve Data
~A DEPT     M1R1     M1R2     M1R3     M1R6     M1R9     M1RX     M2R2     M2RX     M2CCX    TEN      CAL      CNCF     PORZC    ZDNC     ZCOR     RWAZC    GR       PE       WTBH    
# ...
 3630.000    2.704    2.606    2.568    2.575    2.613    2.673    2.613    2.680  373.074 -113.046    8.762   25.773   10.938    2.523    0.008    0.032  101.528    2.769  155.358
 3630.500    2.757    2.653    2.613    2.620    2.658    2.720    2.680    2.749  363.814  -94.757    8.760   26.172    9.768    2.543    0.016    0.026  103.399    2.708  155.426
 3631.000    2.835    2.722    2.680    2.689    2.728    2.793    2.746    2.818  354.924  -71.653    8.762   26.893    8.947    2.557    0.022    0.023  105.056    2.743  155.560
 3631.500    2.977    2.853    2.808    2.818    2.860    2.932    2.793    2.869  348.613  -80.763    8.763   26.806    8.819    2.559    0.022    0.022  106.385    2.850  155.603
 3632.000    2.937    2.820    2.778    2.789    2.829    2.901    2.795    2.874  347.933  -88.207    8.771   26.081    9.223    2.552    0.019    0.024  106.030    2.963  155.493
 3632.500    2.887    2.781    2.743    2.752    2.791    2.863    2.758    2.839  352.294  -55.377    8.776   26.219    9.814    2.542    0.017    0.027  104.266    3.017  155.378
 3633.000    2.832    2.735    2.699    2.708    2.745    2.816    2.709    2.789  358.574  -35.615    8.763   27.465   10.497    2.531    0.015    0.031  104.622    3.055  155.354
 3633.500    2.744    2.656    2.621    2.629    2.664    2.733    2.673    2.751  363.478  -69.093    8.751   28.682   11.339    2.516    0.012    0.035  106.469    3.171  155.395
 3634.000    2.717    2.629    2.593    2.601    2.635    2.704    2.677    2.754  363.110 -101.102    8.764   29.124   12.118    2.503    0.007    0.040  105.095    3.253  155.538
 3634.500    2.772    2.677    2.637    2.644    2.680    2.752    2.730    2.808  356.135  -85.019    8.777   29.494   12.316    2.499    0.005    0.043  101.831    3.114  155.758
 3635.000    2.937    2.824    2.777    2.785    2.824    2.905    2.799    2.878  347.480  -61.455    8.765   29.875   11.719    2.510    0.007    0.040  101.428    2.914  155.922
 3635.500    2.983    2.860    2.808    2.817    2.857    2.941    2.833    2.913  343.302  -76.575    8.740   29.435   10.864    2.524    0.013    0.034  103.803    2.958  155.801
 3636.000    2.934    2.809    2.758    2.768    2.806    2.887    2.841    2.921  342.406  -99.253    8.729   28.618   10.488    2.531    0.015    0.032  107.584    3.182  155.446
 3636.500    2.957    2.827    2.775    2.786    2.825    2.907    2.877    2.960  337.869  -86.539    8.746   27.713   10.360    2.533    0.016    0.032  109.538    3.284  155.150
 3637.000    3.037    2.901    2.848    2.861    2.902    2.987    2.976    3.067  326.074  -61.905    8.767   26.259    9.801    2.542    0.019    0.029  106.116    3.228  155.147
 3637.500    3.273    3.120    3.062    3.078    3.125    3.222    3.104    3.205  311.992  -62.795    8.763   25.488    9.146    2.554    0.021    0.027  101.252    3.238  155.311
 3638.000    3.438    3.275    3.213    3.232    3.283    3.390    3.156    3.263  306.472  -70.441    8.743   25.551    9.214    2.552    0.020    0.028  100.756    3.321  155.540
 3638.500    3.292    3.144    3.089    3.108    3.155    3.253    3.077    3.181  314.339  -52.399    8.733   24.683    9.746    2.543    0.016    0.030  103.605    3.288  155.726
 3639.000    3.045    2.916    2.871    2.887    2.927    3.011    2.968    3.066  326.185  -24.116    8.732   22.750    9.928    2.540    0.015    0.030  105.280    3.152  155.725
 3639.500    2.941    2.819    2.777    2.792    2.829    2.905    2.963    3.059  326.919  -21.730    8.735   21.204    9.524    2.547    0.016    0.028  103.827    3.090  155.544
 3640.000    3.098    2.964    2.917    2.934    2.975    3.055    3.112    3.213  311.251  -48.435    8.741   20.389    8.661    2.562    0.019    0.024   98.366    3.136  155.391
 3640.500    3.522    3.358    3.299    3.321    3.372    3.469    3.374    3.486  286.875  -69.302    8.746   20.228    7.671    2.579    0.024    0.021   90.951    3.200  155.464
 3641.000    3.929    3.745    3.673    3.701    3.764    3.877    3.625    3.749  266.738  -61.170    8.745   21.024    7.208    2.587    0.025    0.019   85.875    3.263  155.718
 3641.500    3.878    3.723    3.657    3.683    3.745    3.852    3.756    3.887  257.253  -42.861    8.733   22.817    7.625    2.580    0.021    0.023   86.116    3.344  155.992
 3642.000    4.162    4.008    3.941    3.968    4.042    4.163    3.696    3.827  261.282  -52.077    8.730   25.045    8.442    2.566    0.017    0.027   89.963    3.383  156.081
 3642.500    3.679    3.570    3.523    3.542    3.603    3.698    3.470    3.591  278.498  -82.621    8.746   26.523    9.068    2.555    0.015    0.030   94.545    3.330  155.920
 3643.000    3.238    3.154    3.120    3.133    3.182    3.257    3.249    3.358  297.821  -91.388    8.759   26.810    9.432    2.549    0.016    0.030   97.142    3.190  155.640
 3643.500    3.197    3.114    3.081    3.091    3.140    3.214    3.137    3.238  308.834  -68.123    8.759   26.034    9.516    2.547    0.016    0.029   97.677    3.062  155.434
 3644.000    3.215    3.127    3.092    3.099    3.150    3.224    3.091    3.186  313.884  -56.761    8.757   25.502    9.067    2.555    0.019    0.026   98.034    3.063  155.409
 3644.500    3.177    3.087    3.049    3.055    3.104    3.176    3.050    3.136  318.889  -78.145    8.763   25.971    8.421    2.566    0.023    0.022   98.092    3.197  155.472
 3645.000    3.061    2.970    2.930    2.936    2.981    3.046    3.011    3.090  323.631  -94.869    8.759   26.504    8.529    2.564    0.021    0.022   96.967    3.343  155.476
 3645.500    3.049    2.949    2.908    2.913    2.957    3.020    3.012    3.086  324.019  -89.312    8.743   26.207    9.415    2.549    0.015    0.027   96.746    3.387  155.464
 3646.000    3.188    3.073    3.027    3.034    3.080    3.147    3.062    3.136  318.879  -93.669    8.737   26.287    9.867    2.541    0.011    0.031   98.075    3.281  155.579
 3646.500    3.283    3.162    3.115    3.122    3.169    3.239    3.120    3.195  312.995 -114.942    8.750   26.835    9.290    2.551    0.014    0.028   98.347    3.144  155.709
 3647.000    3.333    3.215    3.169    3.177    3.223    3.296    3.131    3.207  311.773 -112.912    8.757   27.511    8.626    2.562    0.019    0.024   98.214    3.149  155.642
 3647.500    3.175    3.073    3.034    3.043    3.082    3.149    3.109    3.187  313.754  -79.149    8.744   28.740    8.810    2.559    0.020    0.025   98.523    3.209  155.460
 3648.000    3.197    3.098    3.060    3.071    3.108    3.178    3.111    3.192  313.264  -58.307    8.732   29.037    9.155    2.553    0.020    0.027   99.658    3.151  155.370
 3648.500    3.258    3.155    3.117    3.131    3.167    3.243    3.150    3.238  308.833  -73.391    8.737   27.562    8.783    2.560    0.023    0.025  103.243    3.084  155.456
 3649.000    3.312    3.205    3.165    3.183    3.217    3.300    3.194    3.289  304.069  -96.056    8.749   26.790    8.328    2.568    0.025    0.023  109.483    3.169  155.611
 3649.500    3.382    3.268    3.223    3.246    3.280    3.372    3.208    3.307  302.386 -101.159    8.751   27.218    8.802    2.559    0.023    0.026  113.129    3.353  155.708
 3650.000    3.270    3.159    3.112    3.139    3.168    3.259    3.210    3.313  301.853  -91.663    8.737   26.412    9.861    2.541    0.018    0.032  109.761    3.523  155.785
 3650.500    3.220    3.107    3.058    3.086    3.113    3.204    3.310    3.420  292.414  -72.184    8.724   23.845   10.472    2.531    0.013    0.038  100.578    3.641  155.924
 3651.000    3.347    3.214    3.156    3.189    3.214    3.312    3.676    3.806  262.777  -54.644    8.729   21.404   10.191    2.536    0.011    0.040   91.095    3.626  155.996
 3651.500    4.446    4.189    4.084    4.141    4.182    4.343    4.465    4.639  215.543  -59.068    8.746   20.547    9.054    2.555    0.010    0.038   85.418    3.411  155.935
 3652.000    6.547    5.969    5.753    5.863    5.939    6.249    5.604    5.850  170.939  -81.329    8.758   19.999    7.482    2.582    0.012    0.033   82.512    3.129  155.824
