~Version Information
 VERS.                2.00:   CWLS log ASCII Standard -VERSION 2.00
 WRAP.                  NO:   One line per frame      
~Well Information Block
#MNEM.UNIT                  Well Data                    Data Description
#----.----   -----------------------------------------   -------------------------------
 STRT.FT                                      1290.000 : Starting Depth
 STOP.FT                                      6345.000 : Ending Depth
 STEP.FT                                         0.500 : Level Spacing
 NULL.                                       -999.2500 : Absent Value
 COMP.        NEWFIELD EXPLORATION COMPANY             : Company
 WELL.        MORO CREEK #3409H                        : Well
 FLD .        BRISCOE RANCH (EAGLEFORD)                : Field
 LOC .        1642' FNEL & 2015' FSEL OF SURVEY        : Location
 CNTY.        DIMMIT                                   : County
 STAT.        TEXAS                                    : State
 CTRY.        USA                                      : Country
 SRVC.        Baker Hughes                             : Service Company
 DATE.        12-OCT-2014                              : Log Date
 API .        42-127-36592                             : API Number
 UWI .        42-127-36592                             : Unique Well ID
~Curve Information Block
#MNEM    .UNIT        API Codes     Curve Description
#--------.--------   ------------   -------------------------------
 DEPT    .FT         99 995 99  1 : Depth
 M1R1    .OHMM        8 120 10  1 : Vertical 1-foot resolution matched resistivity, 10-inch DOI
 M1R2    .OHMM        8 120 20  1 : Vertical 1-foot resolution matched resistivity, 20-inch DOI
 M1R3    .OHMM        8 120 30  1 : Vertical 1-foot resolution matched resistivity, 30-inch DOI
 M1R6    .OHMM        8 120 60  1 : Vertical 1-foot resolution matched resistivity, 60-inch DOI
 M1R9    .OHMM        8 120 90  1 : Vertical 1-foot resolution matched resistivity, 90-inch DOI
 M1RX    .OHMM        8 120 90  1 : Vertical 1-foot resolution matched resistivity, 120-inch DOI
 M2R2    .OHMM        8 120 20  1 : Vertical 2-foot resolution matched resistivity, 20-inch DOI
 M2RX    .OHMM        8 120 99  1 : Vertical 2-foot resolution matched resistivity, 120-inch DOI
 M2CCX   .MMHO        8 110 99  1 : HDIL 2-foot resolution compressed conductivity, 120-inch DOI
 TEN     .LBF        99 635 99  1 : Differential tension
 CAL     .IN         70 280 99  1 : Caliper
 CNCF    .PU         42 995 99  1 : Field normalized compensated neutron porosity
 PORZC   .PU         99 995 99  1 : Corrected porosity
 ZDNC    .G/C3       94 995 99  1 : Borehole size/mud weight corrected density
 ZCOR    .G/C3       45 356 99  1 : Density correction
 RWAZC   .OHMM       94 935  7  1 : Apparent formation water resistivity (corrected)
 GR      .GAPI       30 310  1  1 : Gamma ray
 PE      .B/E        45 358  1  1 : Photo electric cross-section
 WTBH    .DEGF       99 995 99  1 : Temperature of borehole
~Parameter Information Block
#MNEM.UNIT             Parameter Value                  Parameter Description
#----.----   ----------------------------------------   -------------------------------
 HIDE.       HIGH DEFINITION INDUCTION LOG^S          : Header Identifer
 HID1.       COMPENSATED Z-DENSILOG^S                 : Header Identifer
 HID2.       COMPENSATED NEUTRON LOG                  : Header Identifer
 HID3.       GAMMA RAY LOG                            : Header Identifer
 FILE.       11135                                    : File Number
 CMT1.       FINAL PRINT                              : Comment 1  
 CMT4.       H&P 389                                  : Comment 4  
 FL1 .       1883' FSWL & 7767' FSEL OF LEASE         : Field Location 1
 FL2 .       H&GN RR CO / RICHARDSON, H E             : Field Location 2
 FL3 .       SEC. 34  /  A - 1037                     : Field Location 3
 OS1 .       NONE                                     : Other Services Line 1
 PDAT.       GL                                       : Permanent Datum
 EPD .FT     588                                      : Elevation Of Perm. Datum
 LMF .       KB                                       : Log Measured From
 APD .FT     25                                       : Above Permanent Datum
 DMF .       KB                                       : Drilling Measured From
 EKB .FT     613                                      : Elevation Of Kelly Bushing
 EDF .FT     612                                      : Elevation Of Derrick Floor
 EGL .FT     588                                      : Elevation Of Ground Level
 RUN .       1                                        : Run Number
 TRIP.       1                                        : Trip Number
 SON .       US090769                                 : Service Order Number
 TDD .FT     6326                                     : Total Depth - Driller
 TDL .FT     6334                                     : Total Depth - Logger
 BLI .FT     6326                                     : Bottom Log Interval
 TLI .FT     1299                                     : Top Log Interval
 CSIZ.IN     9.625                                    : Casing Size
 CBDR.FT     1305                                     : Casing Bottom - Driller
 CBLO.FT     1299                                     : Casing Bottom - Logger
 BS  .IN     8.750                                    : Bit Size
 DFT .       OBM                                      : Drilling Fluid Type
 DFD .LB/G   10.7                                     : Drilling Fluid Density
 DFV .S      50                                       : Drilling Fluid Viscosity
 MSS .       PITS                                     : Mud Sample Source
 MFSS.       ---                                      : Mud Filtrate Sample Source
 MCSS.       ---                                      : Mud Cake Sample Source
 TSC .       9 HR                                     : Time Since Circulation
 MRT .DEGF   188                                      : Maximum Recorded Temperature
 LUN .       HL-6678                                  : Logging Unit Number
 LUL .       ALICE, TX                                : Logging Unit Location
 ENGI.       R. MARTIN                                : Engineer's Name
 WITN.       J. MARMION                               : Witness' Name
 TSTR.       HDIL/ZDL/CN/GR                           : Title Service Mnemonic
 TSTG.       NA                                       : Title Service Mnemonic
 STUS.       FINAL                                    : Status
 LCNM.       BAKER ATLAS                              : Logging Company Name
 LCC .       150                                      : Logging Company Code
 OPMD.       OH.WIRE                                  : Operation Mode
 PANA.       R. MARTIN                                : Processing Analyst
 PCON.       BAKER ATLAS                              : Processing Contractor
~Other information
 BVOL = TOTAL BOREHOLE VOLUME                                                    
 CVOL = TOTAL CEMENT VOLUME, BASED ON 5.5" CSG                                   
 DENSITY MATRIX = LIMESTONE, 2.71 G/CC                                           
 NEUTRON MATRIX = LIMESTONE, 51100 PPM SALINITY                                  
 HL-6678 CREW:  R. MARTIN, A. GONZALES, L. SALAZAR, H. RUIZ                      
#  Curve Data
~A DEPT     M1R1     M1R2     M1R3     M1R6     M1R9     M1RX     M2R2     M2RX     M2CCX    TEN      CAL      CNCF     PORZC    ZDNC     ZCOR     RWAZC    GR       PE       WTBH    
# ...
 5295.000    4.977    4.729    4.574    4.527    4.594    4.718    4.853    4.842  206.546 -356.727    8.755   17.529    9.538    2.547    0.010    0.044  105.210    2.694  180.040
 5295.500    5.200    4.907    4.729    4.678    4.749    4.879    5.038    5.009  199.643 -297.151    8.743   17.475    8.697    2.561    0.013    0.038  105.528    2.737  180.036
 5296.000    5.723    5.334    5.110    5.050    5.130    5.281    5.218    5.168  193.494 -231.929    8.741   17.114    8.041    2.572    0.015    0.033  105.359    2.629  180.078
 5296.500    5.747    5.323    5.089    5.028    5.105    5.253    5.287    5.218  191.635 -241.262    8.755   16.926    7.994    2.573    0.016    0.033  103.069    2.495  180.011
 5297.000    5.715    5.281    5.046    4.985    5.059    5.203    5.298    5.219  191.623 -331.389    8.764   16.844    8.369    2.567    0.015    0.037   99.843    2.518  179.901
 5297.500    5.579    5.181    4.956    4.897    4.966    5.103    5.418    5.333  187.503 -394.025    8.756   16.346    8.947    2.557    0.012    0.043   96.309    2.672  179.880
 5298.000    6.029    5.609    5.357    5.286    5.366    5.524    5.714    5.626  177.748 -320.399    8.743   15.501    9.632    2.545    0.007    0.052   92.838    2.864  179.927
 5298.500    6.845    6.368    6.061    5.968    6.069    6.270    5.998    5.911  169.170 -145.708    8.749   15.014   10.188    2.536    0.003    0.061   91.368    2.960  179.995
 5299.000    6.488    6.076    5.806    5.718    5.812    5.996    5.998    5.920  168.928   -6.787    8.775   15.037   10.316    2.534    0.001    0.063   92.010    2.832  179.991
 5299.500    6.164    5.785    5.545    5.463    5.549    5.717    5.774    5.706  175.261   25.799    8.799   15.150   10.015    2.539    0.002    0.057   92.379    2.596  179.876
 5300.000    5.939    5.573    5.348    5.269    5.351    5.509    5.570    5.506  181.621   -1.355    8.803   15.343    9.640    2.545    0.004    0.051   92.412    2.504  179.758
 5300.500    5.809    5.447    5.227    5.152    5.231    5.384    5.456    5.392  185.456   -7.563    8.785   15.657    9.520    2.547    0.006    0.049   92.782    2.569  179.707
 5301.000    5.739    5.375    5.157    5.084    5.163    5.312    5.375    5.312  188.250   38.015    8.769   15.893    9.592    2.546    0.007    0.049   92.761    2.605  179.703
 5301.500    5.625    5.267    5.054    4.986    5.064    5.208    5.304    5.244  190.706   71.725    8.771   16.057    9.505    2.547    0.007    0.047   93.089    2.536  179.703
 5302.000    5.537    5.188    4.983    4.920    4.997    5.136    5.289    5.235  191.022   17.787    8.781   16.385    9.025    2.556    0.010    0.043   94.213    2.526  179.703
 5302.500    5.684    5.324    5.115    5.052    5.135    5.280    5.363    5.319  188.016  -79.454    8.788   16.791    8.570    2.563    0.013    0.039   92.906    2.692  179.703
 5303.000    5.907    5.541    5.325    5.261    5.353    5.508    5.468    5.436  183.943  -84.603    8.790   16.809    8.778    2.560    0.014    0.042   89.323    2.891  179.703
 5303.500    5.984    5.635    5.423    5.362    5.457    5.617    5.493    5.475  182.636   36.383    8.781   16.356    9.381    2.550    0.011    0.048   88.886    2.972  179.703
 5304.000    5.765    5.459    5.268    5.213    5.303    5.452    5.401    5.395  185.358  156.712    8.760   16.086    9.548    2.547    0.010    0.049   91.311    2.940  179.682
 5304.500    5.529    5.250    5.076    5.028    5.112    5.249    5.268    5.267  189.848  154.706    8.746   16.516    9.030    2.556    0.013    0.043   93.870    2.793  179.594
 5305.000    5.425    5.146    4.978    4.933    5.014    5.145    5.181    5.179  193.072   51.575    8.746   16.956    8.270    2.569    0.017    0.035   96.698    2.598  179.463
 5305.500    5.417    5.120    4.950    4.907    4.986    5.115    5.156    5.151  194.126  -22.847    8.757   16.774    7.898    2.575    0.020    0.032   98.877    2.509  179.371
 5306.000    5.440    5.121    4.947    4.906    4.984    5.112    5.173    5.164  193.635   21.877    8.770   16.435    8.084    2.572    0.021    0.034   97.719    2.570  179.303
 5306.500    5.558    5.213    5.032    4.990    5.070    5.202    5.205    5.194  192.520  127.039    8.772   16.223    8.378    2.567    0.021    0.036   94.327    2.727  179.232
 5307.000    5.601    5.248    5.066    5.026    5.106    5.239    5.231    5.223  191.478  174.021    8.758   16.036    8.506    2.565    0.020    0.038   91.070    2.821  179.181
 5307.500    5.563    5.222    5.046    5.008    5.087    5.219    5.259    5.256  190.258  135.038    8.745   15.949    8.629    2.562    0.019    0.039   89.566    2.738  179.130
 5308.000    5.656    5.318    5.142    5.104    5.186    5.323    5.298    5.302  188.607   57.190    8.753   15.800    8.799    2.560    0.017    0.041   90.571    2.641  179.058
 5308.500    5.769    5.433    5.254    5.216    5.302    5.445    5.314    5.326  187.770   -7.375    8.772   15.439    9.086    2.555    0.015    0.044   92.194    2.679  179.032
 5309.000    5.612    5.302    5.135    5.099    5.182    5.319    5.286    5.303  188.584   -8.721    8.777   15.376    9.687    2.544    0.012    0.050   92.946    2.718  179.099
 5309.500    5.499    5.205    5.043    5.009    5.090    5.224    5.238    5.257  190.231   39.040    8.774   15.841   10.334    2.533    0.008    0.056   93.901    2.666  179.189
 5310.000    5.480    5.186    5.025    4.991    5.072    5.206    5.188    5.209  191.993   67.064    8.774   16.601   10.440    2.531    0.007    0.057   95.812    2.626  179.214
 5310.500    5.422    5.129    4.969    4.937    5.017    5.150    5.145    5.166  193.581   44.357    8.776   17.555    9.908    2.541    0.010    0.051   95.911    2.642  179.150
 5311.000    5.335    5.047    4.891    4.861    4.939    5.069    5.138    5.160  193.792    6.733    8.770   18.022    9.201    2.553    0.015    0.044   94.375    2.705  179.134
 5311.500    5.513    5.207    5.043    5.011    5.095    5.234    5.198    5.225  191.403  -10.985    8.752   17.365    8.899    2.558    0.019    0.041   93.090    2.845  179.269
 5312.000    5.593    5.290    5.124    5.093    5.180    5.324    5.311    5.345  187.095  -14.435    8.730   16.540    9.226    2.552    0.018    0.045   92.708    2.967  179.379
 5312.500    5.734    5.437    5.267    5.236    5.328    5.480    5.411    5.454  183.350  -28.880    8.723   16.706    9.805    2.542    0.014    0.052   92.717    2.911  179.316
 5313.000    5.845    5.560    5.389    5.358    5.454    5.614    5.424    5.476  182.610  -53.974    8.737   17.482    9.970    2.540    0.012    0.054   92.889    2.729  179.201
 5313.500    5.594    5.349    5.196    5.167    5.257    5.407    5.347    5.404  185.035  -63.596    8.766   17.959    9.549    2.547    0.014    0.049   93.312    2.637  179.130
 5314.000    5.455    5.231    5.087    5.059    5.146    5.290    5.255    5.315  188.145  -51.112    8.785   18.073    9.046    2.555    0.017    0.043   93.613    2.749  179.062
 5314.500    5.423    5.200    5.058    5.028    5.116    5.260    5.209    5.270  189.767  -42.257    8.773   17.622    8.980    2.556    0.020    0.042   92.273    2.957  179.062
 5315.000    5.428    5.195    5.050    5.019    5.108    5.254    5.201    5.260  190.108  -60.203    8.751   16.647    9.151    2.554    0.021    0.044   90.315    3.031  179.125
 5315.500    5.466    5.215    5.063    5.031    5.123    5.271    5.192    5.248  190.545  -89.434    8.751   16.047    9.130    2.554    0.023    0.044   90.291    2.920  179.121
 5316.000    5.449    5.184    5.030    4.998    5.091    5.240    5.155    5.210  191.945  -93.101    8.771   16.390    8.992    2.556    0.025    0.042   91.928    2.820  179.007
 5316.500    5.366    5.099    4.947    4.917    5.008    5.153    5.114    5.169  193.474  -66.771    8.787   16.843    8.923    2.557    0.025    0.041   93.768    2.808  178.893
 5317.000    5.326    5.057    4.905    4.877    4.969    5.113    5.105    5.161  193.765  -47.798    8.790   16.832    8.916    2.558    0.024    0.041   94.687    2.721  178.888
