~Version Information
 VERS.                2.00:   CWLS log ASCII Standard -VERSION 2.00
 WRAP.                  NO:   One line per frame      
~Well Information Block
#MNEM.UNIT                  Well Data                    Data Description
#----.----   -----------------------------------------   -------------------------------
 STRT.FT                                      1290.000 : Starting Depth
 STOP.FT                                      6345.000 : Ending Depth
 STEP.FT                                         0.500 : Level Spacing
 NULL.                                       -999.2500 : Absent Value
 COMP.        NEWFIELD EXPLORATION COMPANY             : Company
 WELL.        MORO CREEK #3409H                        : Well
 FLD .        BRISCOE RANCH (EAGLEFORD)                : Field
 LOC .        1642' FNEL & 2015' FSEL OF SURVEY        : Location
 CNTY.        DIMMIT                                   : County
 STAT.        TEXAS                                    : State
 CTRY.        USA                                      : Country
 SRVC.        Baker Hughes                             : Service Company
 DATE.        12-OCT-2014                              : Log Date
 API .        42-127-36592                             : API Number
 UWI .        42-127-36592                             : Unique Well ID
~Curve Information Block
#MNEM    .UNIT        API Codes     Curve Description
#--------.--------   ------------   -------------------------------
 DEPT    .FT         99 995 99  1 : Depth
 M1R1    .OHMM        8 120 10  1 : Vertical 1-foot resolution matched resistivity, 10-inch DOI
 M1R2    .OHMM        8 120 20  1 : Vertical 1-foot resolution matched resistivity, 20-inch DOI
 M1R3    .OHMM        8 120 30  1 : Vertical 1-foot resolution matched resistivity, 30-inch DOI
 M1R6    .OHMM        8 120 60  1 : Vertical 1-foot resolution matched resistivity, 60-inch DOI
 M1R9    .OHMM        8 120 90  1 : Vertical 1-foot resolution matched resistivity, 90-inch DOI
 M1RX    .OHMM        8 120 90  1 : Vertical 1-foot resolution matched resistivity, 120-inch DOI
 M2R2    .OHMM        8 120 20  1 : Vertical 2-foot resolution matched resistivity, 20-inch DOI
 M2RX    .OHMM        8 120 99  1 : Vertical 2-foot resolution matched resistivity, 120-inch DOI
 M2CCX   .MMHO        8 110 99  1 : HDIL 2-foot resolution compressed conductivity, 120-inch DOI
 TEN     .LBF        99 635 99  1 : Differential tension
 CAL     .IN         70 280 99  1 : Caliper
 CNCF    .PU         42 995 99  1 : Field normalized compensated neutron porosity
 PORZC   .PU         99 995 99  1 : Corrected porosity
 ZDNC    .G/C3       94 995 99  1 : Borehole size/mud weight corrected density
 ZCOR    .G/C3       45 356 99  1 : Density correction
 RWAZC   .OHMM       94 935  7  1 : Apparent formation water resistivity (corrected)
 GR      .GAPI       30 310  1  1 : Gamma ray
 PE      .B/E        45 358  1  1 : Photo electric cross-section
 WTBH    .DEGF       99 995 99  1 : Temperature of borehole
~Parameter Information Block
#MNEM.UNIT             Parameter Value                  Parameter Description
#----.----   ----------------------------------------   -------------------------------
 HIDE.       HIGH DEFINITION INDUCTION LOG^S          : Header Identifer
 HID1.       COMPENSATED Z-DENSILOG^S                 : Header Identifer
 HID2.       COMPENSATED NEUTRON LOG                  : Header Identifer
 HID3.       GAMMA RAY LOG                            : Header Identifer
 FILE.       11135                                    : File Number
 CMT1.       FINAL PRINT                              : Comment 1  
 CMT4.       H&P 389                                  : Comment 4  
 FL1 .       1883' FSWL & 7767' FSEL OF LEASE         : Field Location 1
 FL2 .       H&GN RR CO / RICHARDSON, H E             : Field Location 2
 FL3 .       SEC. 34  /  A - 1037                     : Field Location 3
 OS1 .       NONE                                     : Other Services Line 1
 PDAT.       GL                                       : Permanent Datum
 EPD .FT     588                                      : Elevation Of Perm. Datum
 LMF .       KB                                       : Log Measured From
 APD .FT     25                                       : Above Permanent Datum
 DMF .       KB                                       : Drilling Measured From
 EKB .FT     613                                      : Elevation Of Kelly Bushing
 EDF .FT     612                                      : Elevation Of Derrick Floor
 EGL .FT     588                                      : Elevation Of Ground Level
 RUN .       1                                        : Run Number
 TRIP.       1                                        : Trip Number
 SON .       US090769                                 : Service Order Number
 TDD .FT     6326                                     : Total Depth - Driller
 TDL .FT     6334                                     : Total Depth - Logger
 BLI .FT     6326                                     : Bottom Log Interval
 TLI .FT     1299                                     : Top Log Interval
 CSIZ.IN     9.625                                    : Casing Size
 CBDR.FT     1305                                     : Casing Bottom - Driller
 CBLO.FT     1299                                     : Casing Bottom - Logger
 BS  .IN     8.750                                    : Bit Size
 DFT .       OBM                                      : Drilling Fluid Type
 DFD .LB/G   10.7                                     : Drilling Fluid Density
 DFV .S      50                                       : Drilling Fluid Viscosity
 MSS .       PITS                                     : Mud Sample Source
 MFSS.       ---                                      : Mud Filtrate Sample Source
 MCSS.       ---                                      : Mud Cake Sample Source
 TSC .       9 HR                                     : Time Since Circulation
 MRT .DEGF   188                                      : Maximum Recorded Temperature
 LUN .       HL-6678                                  : Logging Unit Number
 LUL .       ALICE, TX                                : Logging Unit Location
 ENGI.       R. MARTIN                                : Engineer's Name
 WITN.       J. MARMION                               : Witness' Name
 TSTR.       HDIL/ZDL/CN/GR                           : Title Service Mnemonic
 TSTG.       NA                                       : Title Service Mnemonic
 STUS.       FINAL                                    : Status
 LCNM.       BAKER ATLAS                              : Logging Company Name
 LCC .       150                                      : Logging Company Code
 OPMD.       OH.WIRE                                  : Operation Mode
 PANA.       R. MARTIN                                : Processing Analyst
 PCON.       BAKER ATLAS                              : Processing Contractor
~Other information
 BVOL = TOTAL BOREHOLE VOLUME                                                    
 CVOL = TOTAL CEMENT VOLUME, BASED ON 5.5" CSG                                   
 DENSITY MATRIX = LIMESTONE, 2.71 G/CC                                           
 NEUTRON MATRIX = LIMESTONE, 51100 PPM SALINITY                                  
 HL-6678 CREW:  R. MARTIN, A. GONZALES, L. SALAZAR, H. RUIZ                      
#  Curve Data
~A DEPT     M1R1     M1R2     M1R3     M1R6     M1R9     M1RX     M2R2     M2RX     M2CCX    TEN      CAL      CNCF     PORZC    ZDNC     ZCOR     RWAZC    GR       PE       WTBH    
# ...
 2617.500    8.878    8.781    8.684    8.841    9.178    9.526    8.654    9.382  106.583  -16.520    8.799   13.800   11.176    2.519    0.018    0.117   48.170    3.233  140.382
 2618.000    8.607    8.520    8.435    8.582    8.904    9.241    8.392    9.096  109.942   -3.812    8.788   13.914   12.499    2.496    0.012    0.142   47.568    3.056  140.476
 2618.500    8.232    8.134    8.053    8.185    8.485    8.806    8.030    8.689  115.087  -13.531    8.802   13.963   13.526    2.479    0.008    0.159   49.327    2.817  140.476
 2619.000    8.037    7.911    7.827    7.949    8.242    8.561    7.590    8.194  122.036  -34.097    8.819   14.476   13.958    2.471    0.008    0.160   51.406    2.758  140.362
 2619.500    7.426    7.291    7.211    7.313    7.570    7.863    7.156    7.708  129.739  -19.211    8.828   15.299   13.967    2.471    0.011    0.150   53.209    2.787  140.227
 2620.000    6.874    6.747    6.672    6.760    6.982    7.247    6.873    7.392  135.283   38.824    8.840   15.615   13.733    2.475    0.014    0.139   54.447    2.806  140.180
 2620.500    6.848    6.731    6.650    6.739    6.956    7.223    6.920    7.440  134.400   64.577    8.856   15.202   13.464    2.480    0.016    0.135   53.797    2.889  140.335
 2621.000    7.200    7.092    6.998    7.101    7.330    7.623    7.348    7.908  126.447   42.598    8.857   14.782   13.336    2.482    0.015    0.141   51.011    3.014  140.580
 2621.500    8.484    8.357    8.225    8.373    8.658    9.016    7.851    8.466  118.119   18.617    8.831   14.892   13.257    2.483    0.015    0.149   49.533    3.093  140.724
 2622.000    8.172    8.024    7.899    8.041    8.312    8.665    7.881    8.509  117.523  -13.669    8.802   15.096   13.173    2.485    0.014    0.148   51.221    3.133  140.820
 2622.500    7.432    7.252    7.145    7.265    7.492    7.810    7.532    8.132  122.976  -49.243    8.799   14.914   13.188    2.484    0.014    0.141   53.897    3.116  141.006
 2623.000    7.561    7.330    7.213    7.339    7.566    7.904    7.393    7.978  125.345  -55.120    8.807   14.669   13.185    2.485    0.013    0.139   54.589    3.040  141.188
 2623.500    7.815    7.529    7.397    7.532    7.761    8.111    7.684    8.291  120.609  -44.242    8.800   14.474   13.136    2.485    0.012    0.143   52.826    3.022  141.285
 2624.000    8.044    7.740    7.593    7.736    7.963    8.307    8.462    9.145  109.350  -41.753    8.789   14.147   13.238    2.484    0.009    0.160   50.789    3.125  141.352
 2624.500    9.975    9.566    9.347    9.565    9.885   10.363    9.791   10.628   94.095  -42.751    8.794   13.772   13.269    2.483    0.004    0.187   49.805    3.268  141.407
 2625.000   12.102   11.648   11.355   11.672   12.112   12.751   11.239   12.262   81.554  -52.868    8.798   13.230   12.685    2.493    0.002    0.197   48.180    3.327  141.454
 2625.500   12.783   12.420   12.145   12.494   12.951   13.634   12.196   13.367   74.810  -56.554    8.789   12.339   11.614    2.511    0.003    0.180   45.878    3.222  141.547
 2626.000   13.188   13.003   12.771   13.137   13.619   14.345   12.701   13.993   71.466  -39.846    8.776   11.566   10.864    2.524    0.003    0.165   45.447    2.982  141.589
 2626.500   12.858   12.802   12.631   12.967   13.448   14.172   12.825   14.199   70.427  -44.157    8.772   11.278   10.697    2.527    0.001    0.162   47.566    2.775  141.542
 2627.000   12.336   12.323   12.192   12.489   12.959   13.664   12.808   14.223   70.310  -68.569    8.775   11.207   10.501    2.530   -0.001    0.157   50.340    2.767  141.557
 2627.500   12.408   12.415   12.294   12.577   13.061   13.774   13.219   14.702   68.016  -46.962    8.787   11.124    9.915    2.540    0.001    0.145   52.136    2.999  141.659
 2628.000   13.804   13.871   13.729   14.052   14.631   15.430   14.060   15.647   63.911  -17.371    8.798   11.222    9.143    2.554    0.005    0.131   52.481    3.305  141.663
 2628.500   15.195   15.389   15.231   15.601   16.267   17.149   14.602   16.259   61.504  -64.363    8.791   11.301    8.682    2.562    0.010    0.123   52.104    3.446  141.625
 2629.000   14.876   15.175   15.036   15.386   16.061   16.920   14.341   15.988   62.548  -90.352    8.776   10.922    8.599    2.563    0.013    0.118   51.466    3.398  141.743
 2629.500   13.245   13.531   13.427   13.721   14.344   15.097   13.543   15.111   66.176   -6.467    8.779   10.457    8.744    2.560    0.015    0.116   50.529    3.299  141.972
 2630.000   12.295   12.518   12.426   12.684   13.273   13.954   12.757   14.223   70.310   69.038    8.796   10.734    9.168    2.553    0.016    0.120   49.797    3.209  142.111
 2630.500   12.080   12.220   12.119   12.362   12.943   13.592   12.248   13.624   73.400   57.748    8.816   11.516    9.721    2.544    0.014    0.129   49.225    3.117  142.136
 2631.000   11.879   11.923   11.805   12.029   12.597   13.215   11.938   13.232   75.575   12.107    8.839   11.722   10.021    2.539    0.013    0.133   49.250    3.101  142.136
 2631.500   11.558   11.523   11.390   11.590   12.128   12.710   11.741   12.960   77.160  -31.826    8.855   11.383   10.075    2.538    0.013    0.132   50.360    3.198  142.136
 2632.000   11.649   11.553   11.395   11.588   12.119   12.689   11.771   12.941   77.274  -46.102    8.850   11.331   10.116    2.537    0.014    0.132   51.912    3.285  142.136
 2632.500   11.923   11.766   11.580   11.775   12.305   12.873   12.084   13.240   75.526  -28.757    8.827   11.421   10.238    2.535    0.015    0.139   51.673    3.255  142.136
 2633.000   12.779   12.551   12.320   12.542   13.123   13.726   12.482   13.646   73.283  -44.260    8.805   11.192   10.523    2.530    0.013    0.151   49.510    3.240  142.136
 2633.500   13.654   13.417   13.145   13.399   14.043   14.682   12.580   13.736   72.803  -63.299    8.795   10.967   10.973    2.522    0.009    0.165   48.169    3.382  142.111
 2634.000   13.705   13.650   13.388   13.642   14.243   14.889   12.162   13.271   75.354  -31.977    8.794   11.104   11.329    2.516    0.006    0.170   49.341    3.547  141.996
 2634.500   11.967   12.160   11.972   12.174   12.706   13.282   11.448   12.507   79.958   -1.092    8.802   11.425   11.245    2.518    0.009    0.158   50.238    3.575  141.866
 2635.000    9.201    9.520    9.393    9.547    9.966   10.420   11.043   12.083   82.759  -10.587    8.813   11.754   10.765    2.526    0.016    0.140   50.133    3.594  141.816
 2635.500   11.004   11.438   11.299   11.477   11.972   12.523   11.116   12.172   82.158  -39.502    8.823   12.250   10.490    2.531    0.021    0.134   50.686    3.677  141.794
 2636.000   10.595   10.891   10.754   10.917   11.388   11.919   11.186   12.241   81.690  -55.385    8.834   12.931   10.693    2.527    0.023    0.140   52.083    3.636  141.790
 2636.500   10.987   11.081   10.920   11.080   11.560   12.108   11.027   12.047   83.007   -9.888    8.841   13.619   10.823    2.525    0.023    0.141   53.016    3.414  141.832
 2637.000   11.071   10.963   10.774   10.929   11.398   11.947   11.012   12.004   83.308   93.920    8.839   13.848   10.435    2.532    0.024    0.131   52.982    3.192  141.806
 2637.500   11.379   11.115   10.888   11.050   11.519   12.076   11.310   12.307   81.252  171.485    8.826   13.340    9.846    2.542    0.026    0.119   51.606    3.110  141.764
 2638.000   11.868   11.542   11.273   11.455   11.946   12.530   11.816   12.855   77.791  153.372    8.800   12.179    9.724    2.544    0.025    0.122   49.728    3.117  141.899
 2638.500   12.656   12.249   11.941   12.156   12.690   13.327   12.438   13.551   73.797   68.004    8.770   10.962   10.174    2.536    0.020    0.140   49.206    3.072  142.144
 2639.000   13.731   13.294   12.949   13.214   13.817   14.535   13.176   14.396   69.466   11.802    8.761   10.179   10.531    2.530    0.014    0.160   49.862    2.995  142.186
 2639.500   13.730   13.329   13.017   13.292   13.868   14.569   14.042   15.401   64.933   -1.651    8.766    9.726   10.362    2.533    0.011    0.165   50.466    3.028  141.966
