~Version Information
 VERS.                2.00:   CWLS log ASCII Standard -VERSION 2.00
 WRAP.                  NO:   One line per frame      
~Well Information Block
#MNEM.UNIT                  Well Data                    Data Description
#----.----   -----------------------------------------   -------------------------------
 STRT.FT                                      1290.000 : Starting Depth
 STOP.FT                                      6345.000 : Ending Depth
 STEP.FT                                         0.500 : Level Spacing
 NULL.                                       -999.2500 : Absent Value
 COMP.        NEWFIELD EXPLORATION COMPANY             : Company
 WELL.        MORO CREEK #3409H                        : Well
 FLD .        BRISCOE RANCH (EAGLEFORD)                : Field
 LOC .        1642' FNEL & 2015' FSEL OF SURVEY        : Location
 CNTY.        DIMMIT                                   : County
 STAT.        TEXAS                                    : State
 CTRY.        USA                                      : Country
 SRVC.        Baker Hughes                             : Service Company
 DATE.        12-OCT-2014                              : Log Date
 API .        42-127-36592                             : API Number
 UWI .        42-127-36592                             : Unique Well ID
~Curve Information Block
#MNEM    .UNIT        API Codes     Curve Description
#--------.--------   ------------   -------------------------------
 DEPT    .FT         99 995 99  1 : Depth
 M1R1    .OHMM        8 120 10  1 : Vertical 1-foot resolution matched resistivity, 10-inch DOI
 M1R2    .OHMM        8 120 20  1 : Vertical 1-foot resolution matched resistivity, 20-inch DOI
 M1R3    .OHMM        8 120 30  1 : Vertical 1-foot resolution matched resistivity, 30-inch DOI
 M1R6    .OHMM        8 120 60  1 : Vertical 1-foot resolution matched resistivity, 60-inch DOI
 M1R9    .OHMM        8 120 90  1 : Vertical 1-foot resolution matched resistivity, 90-inch DOI
 M1RX    .OHMM        8 120 90  1 : Vertical 1-foot resolution matched resistivity, 120-inch DOI
 M2R2    .OHMM        8 120 20  1 : Vertical 2-foot resolution matched resistivity, 20-inch DOI
 M2RX    .OHMM        8 120 99  1 : Vertical 2-foot resolution matched resistivity, 120-inch DOI
 M2CCX   .MMHO        8 110 99  1 : HDIL 2-foot resolution compressed conductivity, 120-inch DOI
 TEN     .LBF        99 635 99  1 : Differential tension
 CAL     .IN         70 280 99  1 : Caliper
 CNCF    .PU         42 995 99  1 : Field normalized compensated neutron porosity
 PORZC   .PU         99 995 99  1 : Corrected porosity
 ZDNC    .G/C3       94 995 99  1 : Borehole size/mud weight corrected density
 ZCOR    .G/C3       45 356 99  1 : Density correction
 RWAZC   .OHMM       94 935  7  1 : Apparent formation water resistivity (corrected)
 GR      .GAPI       30 310  1  1 : Gamma ray
 PE      .B/E        45 358  1  1 : Photo electric cross-section
 WTBH    .DEGF       99 995 99  1 : Temperature of borehole
~Parameter Information Block
#MNEM.UNIT             Parameter Value                  Parameter Description
#----.----   ----------------------------------------   -------------------------------
 HIDE.       HIGH DEFINITION INDUCTION LOG^S          : Header Identifer
 HID1.       COMPENSATED Z-DENSILOG^S                 : Header Identifer
 HID2.       COMPENSATED NEUTRON LOG                  : Header Identifer
 HID3.       GAMMA RAY LOG                            : Header Identifer
 FILE.       11135                                    : File Number
 CMT1.       FINAL PRINT                              : Comment 1  
 CMT4.       H&P 389                                  : Comment 4  
 FL1 .       1883' FSWL & 7767' FSEL OF LEASE         : Field Location 1
 FL2 .       H&GN RR CO / RICHARDSON, H E             : Field Location 2
 FL3 .       SEC. 34  /  A - 1037                     : Field Location 3
 OS1 .       NONE                                     : Other Services Line 1
 PDAT.       GL                                       : Permanent Datum
 EPD .FT     588                                      : Elevation Of Perm. Datum
 LMF .       KB                                       : Log Measured From
 APD .FT     25                                       : Above Permanent Datum
 DMF .       KB                                       : Drilling Measured From
 EKB .FT     613                                      : Elevation Of Kelly Bushing
 EDF .FT     612                                      : Elevation Of Derrick Floor
 EGL .FT     588                                      : Elevation Of Ground Level
 RUN .       1                                        : Run Number
 TRIP.       1                                        : Trip Number
 SON .       US090769                                 : Service Order Number
 TDD .FT     6326                                     : Total Depth - Driller
 TDL .FT     6334                                     : Total Depth - Logger
 BLI .FT     6326                                     : Bottom Log Interval
 TLI .FT     1299                                     : Top Log Interval
 CSIZ.IN     9.625                                    : Casing Size
 CBDR.FT     1305                                     : Casing Bottom - Driller
 CBLO.FT     1299                                     : Casing Bottom - Logger
 BS  .IN     8.750                                    : Bit Size
 DFT .       OBM                                      : Drilling Fluid Type
 DFD .LB/G   10.7                                     : Drilling Fluid Density
 DFV .S      50                                       : Drilling Fluid Viscosity
 MSS .       PITS                                     : Mud Sample Source
 MFSS.       ---                                      : Mud Filtrate Sample Source
 MCSS.       ---                                      : Mud Cake Sample Source
 TSC .       9 HR                                     : Time Since Circulation
 MRT .DEGF   188                                      : Maximum Recorded Temperature
 LUN .       HL-6678                                  : Logging Unit Number
 LUL .       ALICE, TX                                : Logging Unit Location
 ENGI.       R. MARTIN                                : Engineer's Name
 WITN.       J. MARMION                               : Witness' Name
 TSTR.       HDIL/ZDL/CN/GR                           : Title Service Mnemonic
 TSTG.       NA                                       : Title Service Mnemonic
 STUS.       FINAL                                    : Status
 LCNM.       BAKER ATLAS                              : Logging Company Name
 LCC .       150                                      : Logging Company Code
 OPMD.       OH.WIRE                                  : Operation Mode
 PANA.       R. MARTIN                                : Processing Analyst
 PCON.       BAKER ATLAS                              : Processing Contractor
~Other information
 BVOL = TOTAL BOREHOLE VOLUME                                                    
 CVOL = TOTAL CEMENT VOLUME, BASED ON 5.5" CSG                                   
 DENSITY MATRIX = LIMESTONE, 2.71 G/CC                                           
 NEUTRON MATRIX = LIMESTONE, 51100 PPM SALINITY                                  
 HL-6678 CREW:  R. MARTIN, A. GONZALES, L. SALAZAR, H. RUIZ                      
#  Curve Data
~A DEPT     M1R1     M1R2     M1R3     M1R6     M1R9     M1RX     M2R2     M2RX     M2CCX    TEN      CAL      CNCF     PORZC    ZDNC     ZCOR     RWAZC    GR       PE       WTBH    
# ...
 4282.500    4.961    4.280    3.994    3.868    3.893    3.929    4.441    4.063  246.103    9.482    8.756   23.059   16.561    2.427    0.042    0.111   61.141    2.227  167.176
 4283.000    5.007    4.278    3.970    3.835    3.854    3.882    4.402    3.984  251.001  -12.924    8.759   22.619   16.822    2.422    0.044    0.113   59.990    2.417  167.180
 4283.500    5.323    4.494    4.136    3.980    3.995    4.020    4.590    4.096  244.112    6.998    8.772   22.161   17.312    2.414    0.037    0.123   60.437    2.598  167.155
 4284.000    5.618    4.734    4.328    4.151    4.161    4.183    5.168    4.518  221.323   22.395    8.767   22.008   17.375    2.413    0.026    0.136   60.358    2.690  167.041
 4284.500    7.493    6.115    5.453    5.175    5.183    5.210    6.319    5.357  186.676   -2.602    8.753   20.665   16.149    2.434    0.018    0.140   60.699    2.728  166.956
 4285.000   12.181    9.454    7.980    7.402    7.401    7.449    7.653    6.283  159.148  -32.424    8.757   18.482   13.924    2.472    0.016    0.122   61.227    2.745  167.113
 4285.500   10.414    8.317    7.173    6.710    6.697    6.734    7.952    6.493  154.020    5.490    8.766   16.679   12.714    2.493    0.017    0.105   60.051    2.704  167.378
 4286.000    8.342    6.822    6.039    5.716    5.698    5.728    7.064    5.897  169.576   87.150    8.759   15.288   13.852    2.473    0.014    0.113   58.660    2.600  167.471
 4286.500    7.452    6.119    5.469    5.205    5.184    5.214    6.270    5.323  187.849   93.851    8.747   14.322   15.727    2.441    0.013    0.132   59.879    2.518  167.387
 4287.000    6.742    5.529    4.980    4.761    4.739    4.771    6.143    5.222  191.501    2.051    8.750   14.111   16.212    2.433    0.019    0.137   63.349    2.562  167.307
 4287.500    8.986    6.856    6.018    5.696    5.662    5.721    6.507    5.476  182.603  -62.806    8.760   14.258   15.019    2.453    0.029    0.124   65.714    2.745  167.307
 4288.000    9.430    7.025    6.137    5.803    5.768    5.846    6.656    5.589  178.921  -25.723    8.761   14.692   13.430    2.480    0.035    0.101   65.936    2.946  167.430
 4288.500    8.751    6.584    5.806    5.511    5.482    5.572    6.116    5.233  191.102   21.853    8.755   16.373   12.982    2.488    0.031    0.088   67.519    3.051  167.545
 4289.000    7.150    5.628    5.069    4.852    4.832    4.919    5.267    4.640  215.497   -0.336    8.755   18.816   13.817    2.474    0.019    0.089   71.717    3.027  167.482
 4289.500    5.436    4.576    4.222    4.080    4.069    4.143    4.599    4.163  240.232  -46.230    8.762   19.828   15.027    2.453    0.010    0.094   73.980    2.888  167.250
 4290.000    4.678    4.133    3.866    3.757    3.751    3.825    4.257    3.931  254.407  -61.591    8.766   19.661   16.502    2.428    0.007    0.107   72.026    2.737  167.017
 4290.500    4.524    4.140    3.896    3.797    3.793    3.880    4.185    3.919  255.142  -45.976    8.760   20.186   18.312    2.397    0.007    0.131   69.047    2.653  166.941
 4291.000    4.725    4.428    4.173    4.071    4.069    4.182    4.331    4.095  244.200  -30.699    8.761   21.473   19.556    2.376    0.013    0.157   67.554    2.643  166.924
 4291.500    4.957    4.706    4.440    4.335    4.336    4.476    4.680    4.453  224.572  -52.760    8.777   22.750   19.513    2.376    0.021    0.170   68.000    2.735  166.792
 4292.000    5.006    4.776    4.518    4.418    4.422    4.578    5.231    4.995  200.203  -95.826    8.790   23.715   18.251    2.398    0.027    0.166   70.257    2.912  166.729
 4292.500    6.381    6.004    5.618    5.474    5.487    5.742    5.944    5.687  175.851  -81.531    8.783   23.405   15.983    2.437    0.031    0.145   73.136    2.981  167.004
 4293.000    7.257    6.733    6.265    6.098    6.125    6.455    6.484    6.222  160.711   -5.400    8.765   21.632   13.442    2.480    0.033    0.112   75.829    2.817  167.220
 4293.500    7.156    6.560    6.117    5.973    6.012    6.338    6.486    6.268  159.528   25.998    8.758   19.970   12.048    2.504    0.029    0.091   78.512    2.614  167.004
 4294.000    6.764    6.173    5.788    5.677    5.727    6.027    6.205    6.057  165.092  -47.716    8.769   19.492   11.960    2.505    0.023    0.087   79.955    2.517  166.688
 4294.500    6.543    5.990    5.645    5.563    5.626    5.919    6.032    5.960  167.778 -124.801    8.780   19.662   12.025    2.504    0.022    0.086   78.246    2.520  166.611
 4295.000    6.423    5.937    5.630    5.576    5.657    5.953    6.031    6.047  165.362  -89.818    8.779   19.326   12.039    2.504    0.023    0.088   75.325    2.584  166.603
 4295.500    6.578    6.148    5.867    5.840    5.947    6.271    6.144    6.267  159.573   -5.162    8.779   18.273   12.395    2.498    0.021    0.096   73.396    2.638  166.577
 4296.000    6.797    6.443    6.199    6.203    6.340    6.697    6.374    6.623  150.997   -2.701    8.788   16.979   12.688    2.493    0.018    0.107   70.814    2.672  166.665
 4296.500    6.454    6.264    6.091    6.120    6.266    6.593    6.806    7.197  138.954  -75.023    8.802   16.073   12.143    2.502    0.017    0.106   67.221    2.804  166.746
 4297.000    7.520    7.444    7.288    7.351    7.568    7.999    7.458    8.015  124.759  -96.310    8.817   15.872   10.713    2.527    0.019    0.092   66.330    3.090  166.702
 4297.500    8.869    8.981    8.856    8.951    9.216    9.743    8.039    8.722  114.651  -18.630    8.821   15.904    9.199    2.553    0.021    0.074   69.067    3.334  166.748
 4298.000    7.593    7.749    7.670    7.737    7.975    8.424    8.098    8.803  113.593   59.872    8.812   15.861    8.407    2.566    0.019    0.062   70.035    3.337  166.994
 4298.500    7.594    7.689    7.583    7.629    7.864    8.298    7.834    8.455  118.279   24.529    8.799   16.328    8.227    2.569    0.015    0.057   68.700    3.271  167.128
 4299.000    7.676    7.646    7.477    7.500    7.734    8.144    7.711    8.215  121.731 -117.912    8.789   17.330    8.078    2.572    0.013    0.054   70.052    3.404  166.993
 4299.500    7.705    7.558    7.325    7.327    7.548    7.939    7.797    8.197  121.993 -218.260    8.786   17.624    7.773    2.577    0.013    0.050   74.002    3.707  166.850
 4300.000    8.378    8.065    7.750    7.737    7.978    8.423    7.768    8.103  123.414 -113.960    8.784   17.538    7.543    2.581    0.015    0.046   76.412    3.886  166.914
 4300.500    8.470    8.054    7.699    7.679    7.910    8.369    7.331    7.592  131.719  145.041    8.769   18.311    7.528    2.581    0.016    0.043   79.721    3.731  167.074
 4301.000    7.095    6.727    6.463    6.452    6.609    6.936    6.663    6.869  145.590  315.164    8.759   19.742    7.641    2.579    0.017    0.040   87.785    3.400  167.032
 4301.500    6.138    5.816    5.615    5.612    5.728    5.976    6.230    6.414  155.900  270.533    8.764   20.414    7.948    2.574    0.015    0.041   96.882    3.170  166.915
 4302.000    5.946    5.610    5.424    5.428    5.536    5.766    6.289    6.486  154.170  120.592    8.774   19.827    8.612    2.563    0.011    0.048   99.432    3.062  167.050
 4302.500    7.310    6.785    6.519    6.537    6.698    7.027    6.898    7.149  139.879   25.442    8.781   18.881    9.224    2.552    0.006    0.061   94.519    2.929  167.224
 4303.000    8.724    7.992    7.629    7.670    7.900    8.343    7.690    8.014  124.776   17.270    8.787   18.061    9.211    2.552    0.006    0.068   88.796    2.739  167.051
 4303.500    9.158    8.380    7.999    8.063    8.335    8.810    7.890    8.270  120.913    0.069    8.791   17.195    8.812    2.559    0.007    0.064   88.749    2.641  166.755
 4304.000    8.237    7.652    7.366    7.436    7.687    8.082    7.477    7.887  126.793 -101.070    8.796   16.616    8.611    2.563    0.006    0.058   92.440    2.797  166.611
 4304.500    7.844    7.412    7.191    7.273    7.533    7.912    6.957    7.396  135.210 -176.611    8.802   16.870    8.626    2.562    0.005    0.055   94.084    3.175  166.536
