~Version Information
 VERS.                2.00:   CWLS log ASCII Standard -VERSION 2.00
 WRAP.                  NO:   One line per frame      
~Well Information Block
#MNEM.UNIT                  Well Data                    Data Description
#----.----   -----------------------------------------   -------------------------------
 STRT.FT                                      1290.000 : Starting Depth
 STOP.FT                                      6345.000 : Ending Depth
 STEP.FT                                         0.500 : Level Spacing
 NULL.                                       -999.2500 : Absent Value
 COMP.        NEWFIELD EXPLORATION COMPANY             : Company
 WELL.        MORO CREEK #3409H                        : Well
 FLD .        BRISCOE RANCH (EAGLEFORD)                : Field
 LOC .        1642' FNEL & 2015' FSEL OF SURVEY        : Location
 CNTY.        DIMMIT                                   : County
 STAT.        TEXAS                                    : State
 CTRY.        USA                                      : Country
 SRVC.        Baker Hughes                             : Service Company
 DATE.        12-OCT-2014                              : Log Date
 API .        42-127-36592                             : API Number
 UWI .        42-127-36592                             : Unique Well ID
~Curve Information Block
#MNEM    .UNIT        API Codes     Curve Description
#--------.--------   ------------   -------------------------------
 DEPT    .FT         99 995 99  1 : Depth
 M1R1    .OHMM        8 120 10  1 : Vertical 1-foot resolution matched resistivity, 10-inch DOI
 M1R2    .OHMM        8 120 20  1 : Vertical 1-foot resolution matched resistivity, 20-inch DOI
 M1R3    .OHMM        8 120 30  1 : Vertical 1-foot resolution matched resistivity, 30-inch DOI
 M1R6    .OHMM        8 120 60  1 : Vertical 1-foot resolution matched resistivity, 60-inch DOI
 M1R9    .OHMM        8 120 90  1 : Vertical 1-foot resolution matched resistivity, 90-inch DOI
 M1RX    .OHMM        8 120 90  1 : Vertical 1-foot resolution matched resistivity, 120-inch DOI
 M2R2    .OHMM        8 120 20  1 : Vertical 2-foot resolution matched resistivity, 20-inch DOI
 M2RX    .OHMM        8 120 99  1 : Vertical 2-foot resolution matched resistivity, 120-inch DOI
 M2CCX   .MMHO        8 110 99  1 : HDIL 2-foot resolution compressed conductivity, 120-inch DOI
 TEN     .LBF        99 635 99  1 : Differential tension
 CAL     .IN         70 280 99  1 : Caliper
 CNCF    .PU         42 995 99  1 : Field normalized compensated neutron porosity
 PORZC   .PU         99 995 99  1 : Corrected porosity
 ZDNC    .G/C3       94 995 99  1 : Borehole size/mud weight corrected density
 ZCOR    .G/C3       45 356 99  1 : Density correction
 RWAZC   .OHMM       94 935  7  1 : Apparent formation water resistivity (corrected)
 GR      .GAPI       30 310  1  1 : Gamma ray
 PE      .B/E        45 358  1  1 : Photo electric cross-section
 WTBH    .DEGF       99 995 99  1 : Temperature of borehole
~Parameter Information Block
#MNEM.UNIT             Parameter Value                  Parameter Description
#----.----   ----------------------------------------   -------------------------------
 HIDE.       HIGH DEFINITION INDUCTION LOG^S          : Header Identifer
 HID1.       COMPENSATED Z-DENSILOG^S                 : Header Identifer
 HID2.       COMPENSATED NEUTRON LOG                  : Header Identifer
 HID3.       GAMMA RAY LOG                            : Header Identifer
 FILE.       11135                                    : File Number
 CMT1.       FINAL PRINT                              : Comment 1  
 CMT4.       H&P 389                                  : Comment 4  
 FL1 .       1883' FSWL & 7767' FSEL OF LEASE         : Field Location 1
 FL2 .       H&GN RR CO / RICHARDSON, H E             : Field Location 2
 FL3 .       SEC. 34  /  A - 1037                     : Field Location 3
 OS1 .       NONE                                     : Other Services Line 1
 PDAT.       GL                                       : Permanent Datum
 EPD .FT     588                                      : Elevation Of Perm. Datum
 LMF .       KB                                       : Log Measured From
 APD .FT     25                                       : Above Permanent Datum
 DMF .       KB                                       : Drilling Measured From
 EKB .FT     613                                      : Elevation Of Kelly Bushing
 EDF .FT     612                                      : Elevation Of Derrick Floor
 EGL .FT     588                                      : Elevation Of Ground Level
 RUN .       1                                        : Run Number
 TRIP.       1                                        : Trip Number
 SON .       US090769                                 : Service Order Number
 TDD .FT     6326                                     : Total Depth - Driller
 TDL .FT     6334                                     : Total Depth - Logger
 BLI .FT     6326                                     : Bottom Log Interval
 TLI .FT     1299                                     : Top Log Interval
 CSIZ.IN     9.625                                    : Casing Size
 CBDR.FT     1305                                     : Casing Bottom - Driller
 CBLO.FT     1299                                     : Casing Bottom - Logger
 BS  .IN     8.750                                    : Bit Size
 DFT .       OBM                                      : Drilling Fluid Type
 DFD .LB/G   10.7                                     : Drilling Fluid Density
 DFV .S      50                                       : Drilling Fluid Viscosity
 MSS .       PITS                                     : Mud Sample Source
 MFSS.       ---                                      : Mud Filtrate Sample Source
 MCSS.       ---                                      : Mud Cake Sample Source
 TSC .       9 HR                                     : Time Since Circulation
 MRT .DEGF   188                                      : Maximum Recorded Temperature
 LUN .       HL-6678                                  : Logging Unit Number
 LUL .       ALICE, TX                                : Logging Unit Location
 ENGI.       R. MARTIN                                : Engineer's Name
 WITN.       J. MARMION                               : Witness' Name
 TSTR.       HDIL/ZDL/CN/GR                           : Title Service Mnemonic
 TSTG.       NA                                       : Title Service Mnemonic
 STUS.       FINAL                                    : Status
 LCNM.       BAKER ATLAS                              : Logging Company Name
 LCC .       150                                      : Logging Company Code
 OPMD.       OH.WIRE                                  : Operation Mode
 PANA.       R. MARTIN                                : Processing Analyst
 PCON.       BAKER ATLAS                              : Processing Contractor
~Other information
 BVOL = TOTAL BOREHOLE VOLUME                                                    
 CVOL = TOTAL CEMENT VOLUME, BASED ON 5.5" CSG                                   
 DENSITY MATRIX = LIMESTONE, 2.71 G/CC                                           
 NEUTRON MATRIX = LIMESTONE, 51100 PPM SALINITY                                  
 HL-6678 CREW:  R. MARTIN, A. GONZALES, L. SALAZAR, H. RUIZ                      
#  Curve Data
~A DEPT     M1R1     M1R2     M1R3     M1R6     M1R9     M1RX     M2R2     M2RX     M2CCX    TEN      CAL      CNCF     PORZC    ZDNC     ZCOR     RWAZC    GR       PE       WTBH    
 1290.000 -999.250 -999.250 -999.250 -999.250 -999.250 -999.250 -999.250 -999.250 -999.250  -33.561    8.979   29.789   27.710    2.236   -0.441 -999.250   59.767   10.775  127.666
 1290.500    0.047    0.157    2.438    6.491    4.556    4.122    0.157    4.132  242.035  -27.957    8.986   32.995   27.948    2.232   -0.443    0.323   60.462   11.155  127.775
 1291.000    0.044    0.149    2.044    4.028    2.902    2.726    0.149    2.731  366.211  -30.515    8.998   38.898   28.446    2.224   -0.447    0.221   60.709   11.176  127.733
 1291.500    0.041    0.140    1.609    2.533    1.896    1.854    0.140    1.857  538.430  -36.503    9.006   41.306   28.902    2.216   -0.449    0.155   60.055   10.800  127.598
 1292.000    0.039    0.133    1.268    1.719    1.344    1.398    0.133    1.400  714.145  -46.621    9.002   40.172   29.172    2.211   -0.448    0.119   60.489   10.401  127.530
 1292.500    0.037    0.125    0.994    1.222    1.007    1.167    0.125    1.169  855.569  -51.962    8.997   39.220   29.417    2.207   -0.444    0.101   62.365   10.394  127.530
 1293.000    0.035    0.118    0.818    0.974    0.857    1.337    0.118    1.340  746.010  -51.574    8.993   41.380   30.052    2.196   -0.442    0.121   64.416   10.575  127.602
 1293.500    0.032    0.111    0.710    0.885    0.871    3.207    0.111    3.226  309.988  -46.060    8.980   45.268   31.322    2.174   -0.443    0.316   64.554   10.604  127.805
 1294.000    0.030    0.105    0.712    1.104    1.675 1976.808    0.105 1985.871    0.504  -38.209    8.974   49.065   32.836    2.149   -0.446  214.118   60.463   10.541  128.007
 1294.500    0.029    0.103    0.912    3.233  584.636 1997.625    0.103 1997.839    0.501  -34.588    8.985   50.679   33.522    2.137   -0.450  224.499   55.486   10.459  128.079
 1295.000    0.027    0.108    3.371  374.382 1974.632 1997.850    0.108 1997.850    0.501  -38.220    8.996   48.866   32.308    2.158   -0.458  208.541   54.132   10.282  128.104
 1295.500    0.027    0.127  147.905 1490.535 1996.426 1997.690    0.127 1997.690    0.501  -44.241    9.002   46.390   29.031    2.214   -0.484  168.363   53.617   10.155  128.171
 1296.000    0.030    0.189 1929.144 1994.810 1996.106 1997.403    0.189 1997.403    0.501  -46.756    9.020   46.364   24.949    2.283   -0.539  124.332   49.424   10.740  128.218
 1296.500    0.038    0.452 1992.166 1993.731 1995.297 1996.863    0.449 1996.863    0.501  -47.428    9.067   47.254   23.127    2.315   -0.601  106.803   44.274   11.924  128.222
 1297.000    0.062   57.446 1989.682 1991.742 1993.803 1995.866   15.418 1995.866    0.501  -46.545    9.192   43.772   25.547    2.273   -0.575  130.265   43.006   11.708  128.222
 1297.500    0.138   75.446 1979.647 1987.488 1990.608 1993.734   23.694 1993.734    0.502  -44.359    9.510   37.017   28.003    2.231   -0.411  156.346   47.277   10.133  128.201
 1298.000    0.360    5.503  335.115 1980.076 1985.039 1990.013    5.531 1990.013    0.503  -41.645   10.104   33.503   28.661    2.220   -0.213  163.470   55.829    8.421  128.130
 1298.500    1.002    2.151   24.216 1811.127 1975.423 1983.598    2.312 1983.598    0.504  -43.485   10.822   34.443   27.722    2.236   -0.065  152.438   66.103    7.097  128.040
 1299.000    2.235    0.835    3.441  335.883 1949.603 1980.363    0.878 1980.363    0.505  -50.718   11.398   35.961   24.510    2.291    0.028  118.965   76.043    6.110  128.015
 1299.500    8.118    0.569    1.049   32.889  501.667 1978.337    0.562 1977.958    0.506  -54.743   11.727   34.257   19.596    2.375    0.078   75.951   85.176    5.209  128.062
 1300.000   16.617    0.617    0.935   12.305   36.169  730.645    0.609  674.241    1.483  -54.673   11.872   32.039   16.222    2.433    0.082   17.742   90.568    4.351  128.083
 1300.500   19.862    0.779    1.048    3.239    6.459  125.300    0.780  125.713    7.955  -55.358   11.925   33.159   15.276    2.449    0.064    2.934   89.435    3.753  128.087
 1301.000    6.975    1.088    1.526    3.484    3.642   11.658    1.093   11.832   84.517  -54.086   11.948   37.870   15.686    2.442    0.044    0.291   85.585    3.465  128.113
 1301.500    4.526    1.449    2.239    4.681    4.486    6.208    1.495    6.714  148.941  -52.157   11.961   41.552   16.540    2.427    0.029    0.184   84.366    3.297  128.113
 1302.000    3.936    1.867    3.230    5.580    5.276    5.861    1.982    6.675  149.810  -52.989   11.970   39.301   17.782    2.406    0.020    0.211   82.541    3.117  128.092
 1302.500    4.972    2.541    5.110    8.215    7.802    7.778    2.534    7.729  129.380  -55.300   11.983   35.962   19.687    2.373    0.015    0.300   76.653    2.968  128.113
 1303.000    5.854    3.237    6.422   10.340   10.077    9.585    3.123    8.858  112.898  -53.756   11.985   38.741   22.081    2.332    0.011    0.432   71.097    2.881  128.109
 1303.500    6.181    3.849    6.791   10.657   10.773    9.876    3.802    9.634  103.795  -51.085   11.967   46.087   23.946    2.301    0.011    0.552   69.403    2.811  128.020
 1304.000    6.459    4.855    7.356   11.234   11.851   10.633    4.825   10.525   95.011  -48.790   11.942   46.737   24.517    2.291    0.015    0.633   68.727    2.753  127.923
 1304.500    6.789    6.244    8.035   11.897   13.052   11.626    6.283   11.724   85.297  -46.697   11.920   40.511   24.097    2.298    0.021    0.681   67.631    2.759  127.880
 1305.000    6.815    7.348    8.543   12.276   13.960   12.497    7.475   12.741   78.486  -47.749   11.896   36.293   23.737    2.304    0.025    0.718   67.566    2.884  127.876
 1305.500    6.907    8.061    8.914   12.442   14.515   13.193    8.259   13.534   73.887  -55.259   11.792   34.025   24.599    2.289    0.025    0.819   67.023    3.198  127.927
 1306.000    7.089    9.004    9.489   12.841   15.247   14.179    8.859   13.951   71.682  -62.280   11.520   30.946   26.870    2.251    0.022    1.007   64.912    3.765  127.995
 1306.500    7.156    9.655    9.786   12.856   15.375   14.704    9.230   14.058   71.136  -59.615   11.109   29.106   28.582    2.221    0.021    1.148   63.090    4.667  128.063
 1307.000    6.335    8.886    8.727   11.136   13.330   13.110    9.672   14.267   70.091  -51.721   10.554   30.251   27.590    2.238    0.029    1.086   64.172    5.803  128.083
 1307.500    6.864   10.297    9.950   12.352   14.715   14.845   10.495   15.131   66.089  -47.501    9.841   32.291   24.350    2.294    0.040    0.897   67.899    6.244  128.079
 1308.000    7.926   12.818   12.323   14.843   17.548   18.037   11.491   16.171   61.838  -50.064    9.195   31.866   21.768    2.338    0.042    0.766   72.441    5.361  128.052
 1308.500    7.257   11.890   11.521   13.467   15.770   16.441   11.811   16.332   61.231  -54.860    8.870   29.144   21.531    2.342    0.031    0.757   77.139    4.228  128.052
 1309.000    6.730   11.223   10.996   12.461   14.433   15.166   11.711   15.825   63.192  -55.138    8.795   26.891   22.169    2.331    0.021    0.778   83.432    3.576  128.079
 1309.500    6.705   11.149   11.108   12.211   13.993   14.753   11.526   15.252   65.567  -51.596    8.795   26.694   22.381    2.327    0.019    0.764   88.997    3.339  128.083
 1310.000    6.827   11.364   11.469   12.273   13.900   14.632   11.610   14.948   66.899  -50.750    8.852   27.329   22.106    2.332    0.022    0.730   90.845    3.363  128.087
 1310.500    7.103   11.668   11.954   12.492   14.004   14.682   11.613   14.614   68.426  -55.194    8.986   26.637   21.397    2.344    0.029    0.669   90.581    3.609  128.134
 1311.000    7.411   12.095   12.538   12.844   14.242   14.834   11.585   14.209   70.377  -56.917    9.152   25.510   20.263    2.363    0.038    0.583   90.924    3.986  128.201
 1311.500    7.163   11.372   11.939   12.037   13.235   13.694   11.029   13.281   75.295  -54.812    9.274   25.807   19.066    2.384    0.044    0.483   92.219    4.180  128.218
 1312.000    6.855   10.636   11.243   11.224   12.234   12.566   10.158   12.002   83.319  -50.988    9.312   26.351   18.338    2.396    0.046    0.404   94.007    3.965  128.171
