~Version Information
 VERS.                2.00:   CWLS log ASCII Standard -VERSION 2.00
 WRAP.                  NO:   One line per frame      
~Well Information Block
#MNEM.UNIT                  Well Data                    Data Description
#----.----   -----------------------------------------   -------------------------------
 STRT.FT                                      1290.000 : Starting Depth
 STOP.FT                                      6345.000 : Ending Depth
 STEP.FT                                         0.500 : Level Spacing
 NULL.                                       -999.2500 : Absent Value
 COMP.        NEWFIELD EXPLORATION COMPANY             : Company
 WELL.        MORO CREEK #3409H                        : Well
 FLD .        BRISCOE RANCH (EAGLEFORD)                : Field
 LOC .        1642' FNEL & 2015' FSEL OF SURVEY        : Location
 CNTY.        DIMMIT                                   : County
 STAT.        TEXAS                                    : State
 CTRY.        USA                                      : Country
 SRVC.        Baker Hughes                             : Service Company
 DATE.        12-OCT-2014                              : Log Date
 API .        42-127-36592                             : API Number
 UWI .        42-127-36592                             : Unique Well ID
~Curve Information Block
#MNEM    .UNIT        API Codes     Curve Description
#--------.--------   ------------   -------------------------------
 DEPT    .FT         99 995 99  1 : Depth
 M1R1    .OHMM        8 120 10  1 : Vertical 1-foot resolution matched resistivity, 10-inch DOI
 M1R2    .OHMM        8 120 20  1 : Vertical 1-foot resolution matched resistivity, 20-inch DOI
 M1R3    .OHMM        8 120 30  1 : Vertical 1-foot resolution matched resistivity, 30-inch DOI
 M1R6    .OHMM        8 120 60  1 : Vertical 1-foot resolution matched resistivity, 60-inch DOI
 M1R9    .OHMM        8 120 90  1 : Vertical 1-foot resolution matched resistivity, 90-inch DOI
 M1RX    .OHMM        8 120 90  1 : Vertical 1-foot resolution matched resistivity, 120-inch DOI
 M2R2    .OHMM        8 120 20  1 : Vertical 2-foot resolution matched resistivity, 20-inch DOI
 M2RX    .OHMM        8 120 99  1 : Vertical 2-foot resolution matched resistivity, 120-inch DOI
 M2CCX   .MMHO        8 110 99  1 : HDIL 2-foot resolution compressed conductivity, 120-inch DOI
 TEN     .LBF        99 635 99  1 : Differential tension
 CAL     .IN         70 280 99  1 : Caliper
 CNCF    .PU         42 995 99  1 : Field normalized compensated neutron porosity
 PORZC   .PU         99 995 99  1 : Corrected porosity
 ZDNC    .G/C3       94 995 99  1 : Borehole size/mud weight corrected density
 ZCOR    .G/C3       45 356 99  1 : Density correction
 RWAZC   .OHMM       94 935  7  1 : Apparent formation water resistivity (corrected)
 GR      .GAPI       30 310  1  1 : Gamma ray
 PE      .B/E        45 358  1  1 : Photo electric cross-section
 WTBH    .DEGF       99 995 99  1 : Temperature of borehole
~Parameter Information Block
#MNEM.UNIT             Parameter Value                  Parameter Description
#----.----   ----------------------------------------   -------------------------------
 HIDE.       HIGH DEFINITION INDUCTION LOG^S          : Header Identifer
 HID1.       COMPENSATED Z-DENSILOG^S                 : Header Identifer
 HID2.       COMPENSATED NEUTRON LOG                  : Header Identifer
 HID3.       GAMMA RAY LOG                            : Header Identifer
 FILE.       11135                                    : File Number
 CMT1.       FINAL PRINT                              : Comment 1  
 CMT4.       H&P 389                                  : Comment 4  
 FL1 .       1883' FSWL & 7767' FSEL OF LEASE         : Field Location 1
 FL2 .       H&GN RR CO / RICHARDSON, H E             : Field Location 2
 FL3 .       SEC. 34  /  A - 1037                     : Field Location 3
 OS1 .       NONE                                     : Other Services Line 1
 PDAT.       GL                                       : Permanent Datum
 EPD .FT     588                                      : Elevation Of Perm. Datum
 LMF .       KB                                       : Log Measured From
 APD .FT     25                                       : Above Permanent Datum
 DMF .       KB                                       : Drilling Measured From
 EKB .FT     613                                      : Elevation Of Kelly Bushing
 EDF .FT     612                                      : Elevation Of Derrick Floor
 EGL .FT     588                                      : Elevation Of Ground Level
 RUN .       1                                        : Run Number
 TRIP.       1                                        : Trip Number
 SON .       US090769                                 : Service Order Number
 TDD .FT     6326                                     : Total Depth - Driller
 TDL .FT     6334                                     : Total Depth - Logger
 BLI .FT     6326                                     : Bottom Log Interval
 TLI .FT     1299                                     : Top Log Interval
 CSIZ.IN     9.625                                    : Casing Size
 CBDR.FT     1305                                     : Casing Bottom - Driller
 CBLO.FT     1299                                     : Casing Bottom - Logger
 BS  .IN     8.750                                    : Bit Size
 DFT .       OBM                                      : Drilling Fluid Type
 DFD .LB/G   10.7                                     : Drilling Fluid Density
 DFV .S      50                                       : Drilling Fluid Viscosity
 MSS .       PITS                                     : Mud Sample Source
 MFSS.       ---                                      : Mud Filtrate Sample Source
 MCSS.       ---                                      : Mud Cake Sample Source
 TSC .       9 HR                                     : Time Since Circulation
 MRT .DEGF   188                                      : Maximum Recorded Temperature
 LUN .       HL-6678                                  : Logging Unit Number
 LUL .       ALICE, TX                                : Logging Unit Location
 ENGI.       R. MARTIN                                : Engineer's Name
 WITN.       J. MARMION                               : Witness' Name
 TSTR.       HDIL/ZDL/CN/GR                           : Title Service Mnemonic
 TSTG.       NA                                       : Title Service Mnemonic
 STUS.       FINAL                                    : Status
 LCNM.       BAKER ATLAS                              : Logging Company Name
 LCC .       150                                      : Logging Company Code
 OPMD.       OH.WIRE                                  : Operation Mode
 PANA.       R. MARTIN                                : Processing Analyst
 PCON.       BAKER ATLAS                              : Processing Contractor
~Other information
 BVOL = TOTAL BOREHOLE VOLUME                                                    
 CVOL = TOTAL CEMENT VOLUME, BASED ON 5.5" CSG                                   
 DENSITY MATRIX = LIMESTONE, 2.71 G/CC                                           
 NEUTRON MATRIX = LIMESTONE, 51100 PPM SALINITY                                  
 HL-6678 CREW:  R. MARTIN, A. GONZALES, L. SALAZAR, H. RUIZ                      
#  Curve Data
~A DEPT     M1R1     M1R2     M1R3     M1R6     M1R9     M1RX     M2R2     M2RX     M2CCX    TEN      CAL      CNCF     PORZC    ZDNC     ZCOR     RWAZC    GR       PE       WTBH    
# ...
 2280.000    2.620    2.615    2.629    2.678    2.734    2.820    2.592    2.793  357.994  -33.464    8.825   30.034   14.248    2.466    0.006    0.057  115.387    2.948  137.962
 2280.500    2.710    2.705    2.721    2.775    2.834    2.923    2.697    2.913  343.245  -19.631    8.835   30.462   14.255    2.466    0.002    0.059  115.171    3.077  137.962
 2281.000    2.737    2.734    2.754    2.812    2.872    2.963    2.756    2.988  334.681  -22.710    8.830   28.900   14.239    2.467    0.000    0.061  111.256    3.261  137.962
 2281.500    2.851    2.855    2.884    2.949    3.014    3.109    2.782    3.028  330.276  -10.370    8.823   27.205   14.222    2.467   -0.000    0.061  106.702    3.407  137.962
 2282.000    2.877    2.894    2.932    3.000    3.067    3.165    2.741    2.995  333.867    0.772    8.825   27.813   14.128    2.468    0.002    0.060  105.796    3.443  137.962
 2282.500    2.667    2.691    2.730    2.795    2.858    2.951    2.605    2.855  350.209  -13.801    8.823   30.516   14.071    2.469    0.005    0.057  109.914    3.433  137.962
 2283.000    2.422    2.440    2.476    2.536    2.594    2.679    2.437    2.676  373.688  -33.921    8.815   32.380   14.343    2.465    0.007    0.055  115.152    3.422  137.962
 2283.500    2.213    2.217    2.246    2.298    2.350    2.428    2.348    2.579  387.818  -45.456    8.811   31.656   14.479    2.462    0.010    0.054  115.958    3.397  137.962
 2284.000    2.281    2.272    2.299    2.353    2.404    2.485    2.396    2.630  380.241  -48.565    8.815   29.622   13.866    2.473    0.015    0.051  112.073    3.407  137.966
 2284.500    2.645    2.622    2.652    2.722    2.786    2.881    2.552    2.800  357.196  -42.940    8.816   28.425   12.963    2.488    0.020    0.047  108.109    3.494  138.017
 2285.000    2.778    2.752    2.782    2.855    2.921    3.023    2.689    2.952  338.765  -44.847    8.811   28.778   12.641    2.494    0.021    0.047  107.239    3.585  138.156
 2285.500    2.797    2.777    2.807    2.882    2.949    3.053    2.708    2.975  336.119  -67.514    8.815   29.816   13.070    2.487    0.017    0.051  109.291    3.562  138.363
 2286.000    2.713    2.700    2.730    2.805    2.870    2.973    2.621    2.884  346.687  -83.530    8.816   31.391   13.850    2.473    0.012    0.055  111.375    3.396  138.548
 2286.500    2.524    2.513    2.542    2.612    2.672    2.770    2.517    2.775  360.377  -67.186    8.803   34.479   14.416    2.463    0.008    0.058  110.819    3.221  138.712
 2287.000    2.403    2.391    2.420    2.484    2.540    2.636    2.474    2.731  366.191  -46.676    8.791   36.823   14.424    2.463    0.007    0.057  109.969    3.145  138.940
 2287.500    2.498    2.483    2.514    2.583    2.641    2.743    2.498    2.759  362.421  -64.444    8.789   34.807   14.012    2.470    0.009    0.054  112.325    3.119  139.189
 2288.000    2.594    2.576    2.607    2.680    2.740    2.848    2.533    2.799  357.242 -100.213    8.794   31.138   13.469    2.480    0.010    0.051  115.764    3.092  139.328
 2288.500    2.522    2.504    2.531    2.601    2.658    2.765    2.558    2.828  353.636 -107.458    8.796   28.219   13.102    2.486    0.011    0.049  115.987    3.141  139.353
 2289.000    2.552    2.541    2.568    2.639    2.696    2.807    2.631    2.912  343.460  -90.427    8.794   26.585   13.169    2.485    0.011    0.050  112.953    3.254  139.353
 2289.500    2.752    2.755    2.787    2.868    2.932    3.056    2.777    3.082  324.472  -68.317    8.795   26.796   13.379    2.481    0.010    0.055  108.774    3.235  139.353
 2290.000    2.957    2.984    3.025    3.117    3.187    3.324    2.944    3.279  304.965  -37.065    8.806   28.019   13.084    2.486    0.011    0.056  105.452    3.026  139.353
 2290.500    2.961    3.010    3.058    3.153    3.225    3.365    3.094    3.461  288.946  -14.984    8.815   28.206   12.257    2.500    0.016    0.052  104.202    2.916  139.353
 2291.000    3.124    3.195    3.255    3.357    3.434    3.585    3.221    3.615  276.638  -21.717    8.821   27.396   11.739    2.509    0.019    0.050  105.039    3.156  139.353
 2291.500    3.334    3.421    3.492    3.600    3.683    3.846    3.237    3.639  274.784  -25.626    8.816   27.141   12.250    2.501    0.016    0.055  107.630    3.538  139.353
 2292.000    3.191    3.271    3.338    3.438    3.518    3.673    3.080    3.458  289.154  -18.105    8.804   27.543   13.368    2.481    0.010    0.062  110.727    3.665  139.353
 2292.500    2.746    2.793    2.844    2.923    2.992    3.123    2.858    3.198  312.742  -31.955    8.804   27.901   14.200    2.467    0.005    0.064  111.421    3.597  139.353
 2293.000    2.623    2.648    2.687    2.755    2.820    2.942    2.731    3.039  329.064  -59.689    8.821   27.816   14.633    2.460    0.001    0.065  109.245    3.592  139.353
 2293.500    2.615    2.624    2.653    2.714    2.777    2.895    2.768    3.062  326.573  -73.168    8.827   28.214   14.771    2.457   -0.002    0.067  105.633    3.585  139.328
 2294.000    2.802    2.809    2.832    2.894    2.962    3.084    2.995    3.299  303.155  -81.291    8.819   28.390   14.301    2.465   -0.004    0.067  100.769    3.440  139.210
 2294.500    3.248    3.278    3.304    3.376    3.461    3.600    3.371    3.703  270.059  -88.122    8.813   27.579   13.085    2.486   -0.003    0.063   95.995    3.278  139.053
 2295.000    4.138    4.220    4.256    4.347    4.459    4.631    3.626    3.979  251.322  -73.351    8.811   26.762   11.807    2.508   -0.000    0.055   94.231    3.230  139.024
 2295.500    3.712    3.814    3.854    3.935    4.039    4.187    3.491    3.833  260.925  -50.042    8.810   26.956   11.232    2.518    0.005    0.048   95.620    3.224  139.087
 2296.000    2.889    2.965    3.001    3.063    3.145    3.255    3.132    3.438  290.842  -45.799    8.809   27.703   11.497    2.513    0.010    0.045  100.680    3.131  139.019
 2296.500    2.868    2.928    2.967    3.028    3.108    3.212    2.838    3.111  321.478  -60.582    8.811   28.753   12.001    2.505    0.014    0.045  107.980    2.938  138.868
 2297.000    2.678    2.712    2.748    2.803    2.877    2.968    2.653    2.901  344.712  -79.848    8.817   30.168   12.225    2.501    0.018    0.043  111.073    2.771  138.809
 2297.500    2.525    2.541    2.572    2.621    2.690    2.770    2.528    2.755  363.014  -95.870    8.822   31.897   12.307    2.500    0.020    0.042  108.970    2.781  138.882
 2298.000    2.424    2.431    2.458    2.504    2.568    2.640    2.434    2.644  378.283  -86.036    8.823   33.533   12.661    2.493    0.020    0.042  107.829    2.959  139.026
 2298.500    2.367    2.369    2.393    2.437    2.499    2.565    2.360    2.556  391.277  -43.405    8.816   34.603   13.231    2.484    0.019    0.045  108.047    3.124  139.228
 2299.000    2.315    2.313    2.336    2.380    2.439    2.500    2.302    2.488  402.001  -26.906    8.803   34.510   13.586    2.478    0.019    0.046  107.635    3.136  139.354
 2299.500    2.271    2.268    2.290    2.335    2.390    2.448    2.260    2.439  410.007  -49.814    8.796   33.447   13.622    2.477    0.022    0.045  108.229    3.083  139.260
 2300.000    2.232    2.228    2.250    2.296    2.349    2.403    2.238    2.415  414.083  -43.708    8.805   31.413   13.678    2.476    0.025    0.045  110.326    3.098  139.024
 2300.500    2.231    2.227    2.250    2.297    2.348    2.401    2.242    2.418  413.590   -8.252    8.809   29.031   13.913    2.472    0.025    0.047  111.938    3.128  138.883
 2301.000    2.280    2.276    2.301    2.350    2.401    2.454    2.261    2.437  410.286   -7.963    8.801   27.876   14.114    2.469    0.023    0.049  111.484    3.138  138.901
 2301.500    2.293    2.290    2.315    2.365    2.414    2.467    2.278    2.454  407.437  -35.639    8.797   28.609   14.210    2.467    0.020    0.050  109.571    3.223  138.956
 2302.000    2.299    2.297    2.322    2.373    2.420    2.473    2.289    2.464  405.866  -70.892    8.803   30.248   14.273    2.466    0.017    0.050  108.155    3.332  139.100
