~Version Information
VERS .            2.00                          : CWLS Log ASCII Standard - Version 2.00
WRAP .            NO                            : One line per depth step
#
~Well Information
#MNEM.UNIT        DATA                          : DESCRIPTION
#----.----        ----                          : -----------
STRT .F            420.0                        : Start
STOP .F           5890.0                        : Stop
STEP .F              0.5                        : Step increment
NULL .            -999.250                      : Null value
COMP .            NEWARK E&P OPERATING, LLC     : Company
WELL .            RICHARDS RANCH #N35           : Well
FLD  .            KRS (MARBLE FALLS)            : Field
PROV .            JACK                          : Province
CTRY .            United States                 : State / Country
LOC  .            560' FWL & 485' FSL OF        : Location
LOC2 .            N ATKINSON SURVEY, A-17       : Location 2
SRVC .            Weatherford                   : Service company
API  .		  42237401620000		: API Number
UWI  .            42237401620000                : Unique Well ID
LATI .            33.087108                     : Latitude
LONG .            -98.140917                    : Longitude
DATE .            16-Sep-2014                   : Logging Date
#
~Curve Information
#MNEM.UNIT        API CODES                     : CURVE DESCRIPTION
#----.----        ---------                     : -----------------
DEPT .F           00 001 00 00                  : Logged depth
CGXT .DEGF        30 660 01 00                  : MCG External Temperature
SMTU .LB          30 635 00 00                  : DST Uphole Tension
GRGC .GAPI        30 310 01 00                  : Gamma Ray
SPCG .MV          30 010 00 00                  : Spontaneous Potential
FEFE .OHMM        10 220 06 00                  : Shallow FE
NPRL .V/V         42 890 01 00                  : Limestone Neutron Por.
CLDC .IN          45 280 01 00                  : Density Caliper
DCOR .G/C3        42 356 01 00                  : Density Correction
PDPE .B/E         45 358 01 00                  : PE
DPRL .V/V         45 890 10 00                  : Limestone Density Por.
SPRL .V/V         61 890 20 00                  : Wyllie Lime. Sonic Por.
MNRL .OHMM        15 252 00 00                  : MMR MicroLog Normal
MINV .OHMM        15 250 00 00                  : MMR MicroLog Inverse
MBTC .IN          15 280 01 00                  : MMR Caliper
R40O .OHMM        07 120 44 00                  : Array Ind. One Res 40
R60O .OHMM        07 120 44 00                  : Array Ind. One Res 60
RTAO .OHMM        07 120 44 00                  : Array Ind. One Res Rt
DEN  .G/C3        42 350 01 00                  : Compensated Density
DT35 .----        60 520 32 00                  : 3-5' Compensated Sonic
DFCL .IN          00 000 00 00                  : Differential Caliper
CTAO .----        07 120 44 00                  : Array Ind. One Cond Ct
#
~Parameter Information
#MNEM.UNIT        VALUE                         : DESCRIPTION
#----.----        -----                         : -----------
RNID .            5 INCH MAIN PASS              : Run ID
SON  .            7055-98027334                 : Job Number
DREF .            KB                            : Depth reference
EREF .F              1140.000                   : Elevation of depth reference
GL   .F              1128.000                   : Ground elevation
RUN  .            ONE                           : Run number
TDD  .F              5900.000                   : TD (driller)
TDL  .F              5892.000                   : TD (logger)
BS   .IN                8.750                   : Bit size
TIMC .                                          : Time circulation ended
TIML .                                          : Time logger at bottom
UNIT .              13039                       : Equipment ID
BASE .            OKC                           : Equipment base location
ENG  .            JUSTIN HICKS                  : Recording engineer
WIT  .            BEAU BEREND                   : Witnessed by
CSGT .            SURFACE                       : Casing type
CSGS .IN                9.625                   : Casing size
CSGW .LB/FT            35.997                   : Casing weight
CSGD .F               423.000                   : Casing bottom (driller)
CSGL .F               422.000                   : Casing bottom (logger)
CSUP .F           -999999.000                   : Casing Stick Up GL
MUD  .            WBM                           : Mud type
MUDS .            MUD PIT                       : Mud sample source
MUDD .LB/G              9.600                   : Mud density
MUDV .SEC/QT           45.000                   : Mud viscosity
PH   .                  9.800                   : Mud pH
FL   .ML/30MIN         10.800                   : Mud fluid loss rate
RM   .OHMM              1.800                   : Mud resistivity
RMT  .DEGF             92.000                   : Mud sample temperature
RMF  .OHMM              1.440                   : Mud filtrate resistivity
RMFT .DEGF             92.000                   : Mud filtrate sample temperature
RMC  .OHMM              2.160                   : Mud cake resistivity
RMCT .DEGF             92.000                   : Mud cake sample temperature
TMAX .DEGF            146.000                   : Max recorded temperature
#
~Other Information
----------------------------------------------------------------------------------------------------------
TOOLS RAN: CBH, SHA, MCG, MMR, MDN, MPD, MFE, MIM, MIE, MSS, MAI RAN IN COMBINATION.
HARDWARE USED:     
MSS: THREE 0.5 INCH STANDOFFS.  
                
                                
2.71 G/CC DENSITY MATRIX USED TO CALCULATE POROSITY.
ALL INTERVALS LOGGED AND SCALED PER CUSTOMER'S REQUEST.
TOTAL HOLE VOLUME FROM TD TO SURFACE CASING = 2840 CU.FT.
ANNULAR HOLE VOLUME WITH 5.5 INCH PRODUCTION CASING FROM TD TO SURFACE CASING = 1942 CU.FT. 
FIELD TICKET NUMBER: 7055-98027334
RIG:  DOUBLE K, RIG #6
OPERATOR(S):  C. SANFORD
MUD PROPERTIES:     
CHLORIDES: 1200 MG/L
LCM: NONE
*HOLE WASHOUTS AND RUGOSITY WILL AFFECT LOG QUALITY AND REPEATABILITY.*                                   
----------------------------------------------------------------------------------------------------------
#
#          DEPT           CGXT           SMTU           GRGC           SPCG           FEFE           NPRL           CLDC           DCOR           PDPE           DPRL           SPRL           MNRL           MINV           MBTC           R40O           R60O           RTAO           DEN            DT35           DFCL           CTAO
#
~ASCII Log Data
# ...
         2957.5     112.802493    1126.486508     138.167652     169.174332       5.637740       0.281033       9.926113       0.130726       3.216692       0.089095       0.309970       3.313485       2.801437       9.612906       4.121866       4.113818       4.108729       2.557647      91.360778       1.176113     243.416509
         2958.0     112.623818    1157.509040     136.462894     168.779048       5.461119       0.292041       9.901970       0.139793       3.239993       0.097807       0.314015       2.955306       2.462664       9.563782       3.983872       3.979500       3.976728       2.542749      91.933191       1.151970     251.467669
         2958.5     112.701873    1114.319166     135.502465     168.920704       5.501413       0.302096       9.850424       0.136831       3.182654       0.105512       0.311035       2.961666       2.765680       9.502831       4.019188       4.018859       4.018444       2.529574      91.511383       1.100424     248.864817
         2959.0     112.796411    1154.193126     132.094491     169.460782       5.675224       0.308698       9.805812       0.125127       3.103186       0.110455       0.295872       3.091487       3.124214       9.478016       4.167501       4.171909       4.172601       2.521123      89.365912       1.055812     239.707858
         2959.5     112.691991    1155.426433     124.605064     170.324426       6.265203       0.301182       9.727415       0.109393       2.990677       0.108513       0.269709       3.693368       3.668109       9.464862       4.640693       4.651294       4.653044       2.524443      85.663775       0.977415     215.552195
         2960.0     112.774669    1084.546137     116.845416     170.861301       7.595802       0.274013       9.638577       0.091030       2.900017       0.098856       0.241704       3.956868       5.923125       9.439354       5.687023       5.707051       5.710513       2.540956      81.701105       0.888577     175.721086
         2960.5     112.769239    1155.408252     112.670673     171.630781       8.550305       0.238310       9.602255       0.070831       2.882280       0.087818       0.223115       4.129616       5.975491       9.409634       6.463858       6.494355       6.499850       2.559832      79.070830       0.852255     153.910114
         2961.0     112.727501    1145.720410     111.966939     171.982137       7.901391       0.208572       9.582371       0.054897       2.874853       0.080779       0.217030       4.420663       5.952380       9.374119       6.054102       6.089835       6.096520       2.571868      78.209728       0.832371     164.065827
         2961.5     112.761833    1126.605712     113.185605     172.101792       8.071948       0.194619       9.556971       0.044850       2.861880       0.079605       0.219814       4.544538       6.724563       9.329771       6.230403       6.274311       6.282812       2.573875      78.603644       0.806971     159.249651
         2962.0     112.794476    1128.468091     116.817901     172.414872       8.525304       0.192699       9.543666       0.034663       2.852123       0.085581       0.226107       4.956241       8.632567       9.304219       6.611181       6.665043       6.675788       2.563656      79.494133       0.793666     149.812126
         2962.5     112.738914    1134.009446     123.489234     172.776901       7.815459       0.198746       9.548263       0.026249       2.891512       0.093323       0.233352       4.029412       6.188395       9.296102       6.072598       6.128803       6.140309       2.550418      80.519334       0.798263     162.995757
         2963.0     112.853721    1119.620245     128.031173     173.212843       7.478075       0.209110       9.540961       0.024859       2.916637       0.095990       0.240257       4.209165       5.791909       9.282375       5.786685       5.847228       5.859906       2.545857      81.496424       0.790961     170.652721
         2963.5     112.758565    1128.003073     127.743467     172.821020       7.723383       0.222293       9.521392       0.027886       2.862992       0.100176       0.246155       4.307053       6.246670       9.268516       5.937472       6.007738       6.022766       2.538699      82.331002       0.771392     166.042797
         2964.0     112.752789    1185.642055     124.825757     171.479345       7.874420       0.230568       9.534324       0.039913       2.813314       0.102161       0.250348       4.584925       6.610909       9.260390       6.003244       6.083747       6.101294       2.535305      82.924252       0.784324     163.899721
         2964.5     112.777353    1128.406775     122.400636     170.251073       7.346428       0.226807       9.540472       0.052635       2.827997       0.104841       0.252473       3.934422       3.727687       9.235311       5.589180       5.674613       5.693611       2.530721      83.224994       0.790472     175.751635
         2965.0     112.740669    1103.515625     123.480986     168.986968       7.303866       0.221130       9.478975       0.060430       2.834566       0.109322       0.253873       4.225178       4.873555       9.207101       5.528985       5.625646       5.647570       2.523060      83.423054       0.728975     177.094168
         2965.5     112.837300    1122.892243     125.292456     167.456731       7.521182       0.221209       9.417031       0.082887       2.803965       0.111237       0.257281       4.345983       4.792926       9.243702       5.720729       5.834924       5.861423       2.519784      83.905261       0.667031     170.670414
         2966.0     112.781874    1119.895015     125.157127     164.775511       6.977524       0.226121       9.455632       0.129523       2.814874       0.109837       0.256061       3.562604       3.525635       9.322348       5.335309       5.456338       5.485071       2.522178      83.732644       0.705632     182.323657
         2966.5     112.812374    1131.080767     114.537022     159.689584       6.714833       0.226933       9.537083       0.174233       3.169636       0.098834       0.233414       3.040356       2.354015       9.280595       5.210824       5.343908       5.376332       2.540993      80.528103       0.787083     186.002181
         2967.0     112.746373    1140.484264      90.921046     152.231028       8.413659       0.209388       9.385530       0.167959       3.850238       0.081949       0.185484       6.448413       8.549532       9.111245       6.666930       6.857052       6.904783       2.569867      73.746008       0.635530     150.634398
         2967.5     112.761185    1140.849515      61.187374     144.040600      21.388072       0.166856       9.161917       0.108768       4.569892       0.056669       0.121973      36.209528      47.298179       9.016455      16.905237      17.432755      17.569519       2.613096      64.759145       0.411917      62.325242
         2968.0     112.765545    1138.014932      39.652152     136.643882      35.730311       0.113844       9.111581       0.042170       5.097972       0.037573       0.070614      51.557793      55.668439       9.010889      28.303533      29.244904      29.496091       2.645750      57.491892       0.361581      33.957467
         2968.5     112.780557    1119.690355      32.547045     131.452640      34.584263       0.068460       9.101314       0.012314       5.253602       0.027717       0.046436      31.573684      31.808036       9.005498      28.727736      29.729217      30.004250       2.662604      54.070760       0.351314      33.383558
         2969.0     112.840620    1157.110822      33.842138     127.596654      28.096808       0.043096       9.085170       0.010819       5.255142       0.025757       0.043358      18.400160      20.369140       8.991803      24.835951      25.724335      25.975063       2.665955      53.635112       0.335170      38.518620
         2969.5     112.822158    1104.253358      36.048911     124.399113      25.653028       0.035709       9.061265       0.009656       5.214994       0.033122       0.047798      20.474987      27.766376       8.978396      23.647580      24.494208      24.739025       2.653362      54.263358       0.311265      40.422787
