~Version Information
VERS .            2.00                          : CWLS Log ASCII Standard - Version 2.00
WRAP .            NO                            : One line per depth step
#
~Well Information
#MNEM.UNIT        DATA                          : DESCRIPTION
#----.----        ----                          : -----------
STRT .F            420.0                        : Start
STOP .F           5890.0                        : Stop
STEP .F              0.5                        : Step increment
NULL .            -999.250                      : Null value
COMP .            NEWARK E&P OPERATING, LLC     : Company
WELL .            RICHARDS RANCH #N35           : Well
FLD  .            KRS (MARBLE FALLS)            : Field
PROV .            JACK                          : Province
CTRY .            United States                 : State / Country
LOC  .            560' FWL & 485' FSL OF        : Location
LOC2 .            N ATKINSON SURVEY, A-17       : Location 2
SRVC .            Weatherford                   : Service company
API  .		  42237401620000		: API Number
UWI  .            42237401620000                : Unique Well ID
LATI .            33.087108                     : Latitude
LONG .            -98.140917                    : Longitude
DATE .            16-Sep-2014                   : Logging Date
#
~Curve Information
#MNEM.UNIT        API CODES                     : CURVE DESCRIPTION
#----.----        ---------                     : -----------------
DEPT .F           00 001 00 00                  : Logged depth
CGXT .DEGF        30 660 01 00                  : MCG External Temperature
SMTU .LB          30 635 00 00                  : DST Uphole Tension
GRGC .GAPI        30 310 01 00                  : Gamma Ray
SPCG .MV          30 010 00 00                  : Spontaneous Potential
FEFE .OHMM        10 220 06 00                  : Shallow FE
NPRL .V/V         42 890 01 00                  : Limestone Neutron Por.
CLDC .IN          45 280 01 00                  : Density Caliper
DCOR .G/C3        42 356 01 00                  : Density Correction
PDPE .B/E         45 358 01 00                  : PE
DPRL .V/V         45 890 10 00                  : Limestone Density Por.
SPRL .V/V         61 890 20 00                  : Wyllie Lime. Sonic Por.
MNRL .OHMM        15 252 00 00                  : MMR MicroLog Normal
MINV .OHMM        15 250 00 00                  : MMR MicroLog Inverse
MBTC .IN          15 280 01 00                  : MMR Caliper
R40O .OHMM        07 120 44 00                  : Array Ind. One Res 40
R60O .OHMM        07 120 44 00                  : Array Ind. One Res 60
RTAO .OHMM        07 120 44 00                  : Array Ind. One Res Rt
DEN  .G/C3        42 350 01 00                  : Compensated Density
DT35 .----        60 520 32 00                  : 3-5' Compensated Sonic
DFCL .IN          00 000 00 00                  : Differential Caliper
CTAO .----        07 120 44 00                  : Array Ind. One Cond Ct
#
~Parameter Information
#MNEM.UNIT        VALUE                         : DESCRIPTION
#----.----        -----                         : -----------
RNID .            5 INCH MAIN PASS              : Run ID
SON  .            7055-98027334                 : Job Number
DREF .            KB                            : Depth reference
EREF .F              1140.000                   : Elevation of depth reference
GL   .F              1128.000                   : Ground elevation
RUN  .            ONE                           : Run number
TDD  .F              5900.000                   : TD (driller)
TDL  .F              5892.000                   : TD (logger)
BS   .IN                8.750                   : Bit size
TIMC .                                          : Time circulation ended
TIML .                                          : Time logger at bottom
UNIT .              13039                       : Equipment ID
BASE .            OKC                           : Equipment base location
ENG  .            JUSTIN HICKS                  : Recording engineer
WIT  .            BEAU BEREND                   : Witnessed by
CSGT .            SURFACE                       : Casing type
CSGS .IN                9.625                   : Casing size
CSGW .LB/FT            35.997                   : Casing weight
CSGD .F               423.000                   : Casing bottom (driller)
CSGL .F               422.000                   : Casing bottom (logger)
CSUP .F           -999999.000                   : Casing Stick Up GL
MUD  .            WBM                           : Mud type
MUDS .            MUD PIT                       : Mud sample source
MUDD .LB/G              9.600                   : Mud density
MUDV .SEC/QT           45.000                   : Mud viscosity
PH   .                  9.800                   : Mud pH
FL   .ML/30MIN         10.800                   : Mud fluid loss rate
RM   .OHMM              1.800                   : Mud resistivity
RMT  .DEGF             92.000                   : Mud sample temperature
RMF  .OHMM              1.440                   : Mud filtrate resistivity
RMFT .DEGF             92.000                   : Mud filtrate sample temperature
RMC  .OHMM              2.160                   : Mud cake resistivity
RMCT .DEGF             92.000                   : Mud cake sample temperature
TMAX .DEGF            146.000                   : Max recorded temperature
#
~Other Information
----------------------------------------------------------------------------------------------------------
TOOLS RAN: CBH, SHA, MCG, MMR, MDN, MPD, MFE, MIM, MIE, MSS, MAI RAN IN COMBINATION.
HARDWARE USED:     
MSS: THREE 0.5 INCH STANDOFFS.  
                
                                
2.71 G/CC DENSITY MATRIX USED TO CALCULATE POROSITY.
ALL INTERVALS LOGGED AND SCALED PER CUSTOMER'S REQUEST.
TOTAL HOLE VOLUME FROM TD TO SURFACE CASING = 2840 CU.FT.
ANNULAR HOLE VOLUME WITH 5.5 INCH PRODUCTION CASING FROM TD TO SURFACE CASING = 1942 CU.FT. 
FIELD TICKET NUMBER: 7055-98027334
RIG:  DOUBLE K, RIG #6
OPERATOR(S):  C. SANFORD
MUD PROPERTIES:     
CHLORIDES: 1200 MG/L
LCM: NONE
*HOLE WASHOUTS AND RUGOSITY WILL AFFECT LOG QUALITY AND REPEATABILITY.*                                   
----------------------------------------------------------------------------------------------------------
#
#          DEPT           CGXT           SMTU           GRGC           SPCG           FEFE           NPRL           CLDC           DCOR           PDPE           DPRL           SPRL           MNRL           MINV           MBTC           R40O           R60O           RTAO           DEN            DT35           DFCL           CTAO
#
~ASCII Log Data
# ...
         4395.0     128.049570    1403.475696     139.056474     186.592423       5.311465       0.291928       8.881248       0.087600       3.191724       0.105293       0.296182       3.357624       3.361793       8.784617       3.855683       3.827972       3.812091       2.529949      89.409722       0.131248     262.386691
         4395.5     127.982472    1414.648619     138.008647     187.389165       5.556603       0.301468       8.843083       0.077483       3.301761       0.097983       0.292881       3.872736       3.699956       8.785677       4.048575       4.021489       4.005866       2.542449      88.942651       0.093083     249.646179
         4396.0     128.029321    1371.027806     139.146640     187.314816       5.802634       0.307239       8.828617       0.065764       3.386255       0.090209       0.291256       3.637885       5.413048       8.789558       4.254445       4.227995       4.212628       2.555743      88.712694       0.078617     237.445401
         4396.5     128.080350    1430.702729     140.484346     186.040750       5.903641       0.305449       8.842763       0.064054       3.384195       0.081870       0.291399       2.977649       4.771467       8.791178       4.349997       4.324871       4.310181       2.570002      88.733005       0.092763     232.009602
         4397.0     128.087809    1419.755103     142.048695     183.627456       5.556390       0.305566       8.918788       0.073945       3.392857       0.079479       0.292474       3.301050       4.007945       8.800908       4.124734       4.102602       4.089584       2.574090      88.885024       0.168788     244.647606
         4397.5     128.087571    1437.231682     141.231934     180.147656       5.369663       0.309707       8.942425       0.096689       3.416030       0.074204       0.292547       3.293266       2.656645       8.780551       4.003639       3.983766       3.972019       2.583112      88.895414       0.192425     251.808254
         4398.0     128.111313    1384.667428     138.550078     177.242696       5.878656       0.312777       8.923495       0.119197       3.413586       0.073771       0.290601       3.466105       3.845651       8.751153       4.389797       4.369741       4.357839       2.583851      88.620051       0.173495     229.680013
         4398.5     128.132919    1462.275410     136.603158     175.513623       6.144744       0.308815       8.963790       0.131676       3.356083       0.080024       0.287348       2.722032       2.040469       8.760137       4.588953       4.569814       4.558425       2.573160      88.159796       0.213790     219.376505
         4399.0     128.056527    1465.058950     137.802372     175.125367       5.954107       0.294952       8.982641       0.132368       3.284182       0.088082       0.284124       2.666610       1.880533       8.760273       4.454176       4.437478       4.427518       2.559380      87.703615       0.232641     225.909978
         4399.5     128.148745    1408.407272     140.051552     175.551926       5.654165       0.284388       8.918074       0.115258       3.305631       0.094975       0.283135       3.022493       2.282604       8.743211       4.232832       4.218854       4.210504       2.547592      87.563610       0.168074     237.508941
         4400.0     128.140620    1363.861675     138.458517     175.339329       5.608086       0.283295       8.830953       0.092204       3.380758       0.095024       0.282856       3.450931       3.950088       8.729338       4.208475       4.196506       4.189337       2.547509      87.524095       0.080953     238.708819
         4400.5     128.111960    1417.717228     135.673464     174.487308       5.661013       0.285088       8.848410       0.082121       3.442493       0.086916       0.280033       3.143523       3.697736       8.740165       4.250886       4.240661       4.234526       2.561374      87.124662       0.098410     236.154720
         4401.0     128.101525    1415.302691     133.684852     173.270765       5.601340       0.285511       8.952300       0.089696       3.504037       0.077949       0.276849       3.107401       2.614142       8.809301       4.221450       4.212910       4.207769       2.576707      86.674107       0.202300     237.664073
         4401.5     128.183562    1374.580653     136.032025     172.329583       5.540983       0.283233       9.062178       0.109722       3.498062       0.089301       0.276950       2.670535       2.468969       8.908377       4.206456       4.199103       4.194657       2.557295      86.688402       0.312178     238.448397
         4402.0     128.170897    1381.835938     137.289119     172.235618       5.692137       0.282850       9.361593       0.142904       3.447564       0.113184       0.279381       2.320457       2.092906       9.021944       4.351513       4.344385       4.340055       2.516456      87.032442       0.611593     230.417703
         4402.5     128.160431    1359.674950     134.493518     172.953828       5.504509       0.290895       9.468130       0.164325       3.423276       0.131802       0.281512       2.168867       1.192901       9.038485       4.252080       4.244638       4.240094       2.484619      87.334005       0.718130     235.849403
         4403.0     128.112881    1366.382113     131.137659     173.605108       5.528994       0.304655       9.261830       0.169196       3.379009       0.142121       0.281672       2.472273       2.095849       8.981344       4.318771       4.309600       4.303970       2.466973      87.356612       0.511830     232.366554
         4403.5     128.102247    1375.203620     133.349413     173.523031       6.024235       0.318906       9.540992       0.188054       3.336118       0.145207       0.282412       2.802206       2.569342       9.149578       4.747481       4.734161       4.725955       2.461697      87.461247       0.790992     211.724905
         4404.0     128.121194    1406.586272     138.539124     173.078354       6.450765       0.328807      10.087355       0.216592       3.242059       0.157482       0.287289       2.694046       1.637000       9.473163       5.113046       5.093806       5.081940       2.440705      88.151343       1.337355     196.816700
         4404.5     128.174896    1376.953125     140.432380     173.041772       6.897073       0.328855      10.052721       0.243367       3.116584       0.177701       0.291343       2.479587       1.784124       9.565133       5.479832       5.452378       5.435477       2.406131      88.725100       1.302721     184.010118
         4405.0     128.272239    1349.583151     139.372932     174.384010       6.988793       0.320324       9.904162       0.248473       3.082788       0.184312       0.289163       2.440188       2.143075       9.495623       5.539068       5.503367       5.481509       2.394827      88.416514       1.154162     182.432291
         4405.5     128.120493    1396.484375     135.350146     175.990692       6.605993       0.304340       9.747189       0.197206       3.133800       0.184747       0.280912       2.600376       1.761645       9.296249       5.196400       5.154804       5.129585       2.394083      87.249039       0.997189     195.170728
         4406.0     128.193915    1396.484375     134.440252     177.616073       6.006104       0.287795       9.346151       0.149464       3.192913       0.169627       0.273430       3.008727       3.247850       9.068534       4.670368       4.625448       4.598551       2.419938      86.190321       0.596151     217.477188
         4406.5     128.216659    1406.150798     134.570743     178.476553       5.874314       0.282605       9.262412       0.132533       3.247402       0.150035       0.274544       2.895602       2.247423       9.057487       4.490794       4.440894       4.411456       2.453440      86.347983       0.512412     226.691647
         4407.0     128.147552    1414.803333     135.465525     179.760061       5.651643       0.290537       9.373255       0.148444       3.253091       0.131110       0.281129       2.754539       1.879864       9.079756       4.233714       4.181096       4.150548       2.485802      87.279824       0.623255     240.961773
