~Version Information
VERS .            2.00                          : CWLS Log ASCII Standard - Version 2.00
WRAP .            NO                            : One line per depth step
#
~Well Information
#MNEM.UNIT        DATA                          : DESCRIPTION
#----.----        ----                          : -----------
STRT .F            420.0                        : Start
STOP .F           5890.0                        : Stop
STEP .F              0.5                        : Step increment
NULL .            -999.250                      : Null value
COMP .            NEWARK E&P OPERATING, LLC     : Company
WELL .            RICHARDS RANCH #N35           : Well
FLD  .            KRS (MARBLE FALLS)            : Field
PROV .            JACK                          : Province
CTRY .            United States                 : State / Country
LOC  .            560' FWL & 485' FSL OF        : Location
LOC2 .            N ATKINSON SURVEY, A-17       : Location 2
SRVC .            Weatherford                   : Service company
API  .		  42237401620000		: API Number
UWI  .            42237401620000                : Unique Well ID
LATI .            33.087108                     : Latitude
LONG .            -98.140917                    : Longitude
DATE .            16-Sep-2014                   : Logging Date
#
~Curve Information
#MNEM.UNIT        API CODES                     : CURVE DESCRIPTION
#----.----        ---------                     : -----------------
DEPT .F           00 001 00 00                  : Logged depth
CGXT .DEGF        30 660 01 00                  : MCG External Temperature
SMTU .LB          30 635 00 00                  : DST Uphole Tension
GRGC .GAPI        30 310 01 00                  : Gamma Ray
SPCG .MV          30 010 00 00                  : Spontaneous Potential
FEFE .OHMM        10 220 06 00                  : Shallow FE
NPRL .V/V         42 890 01 00                  : Limestone Neutron Por.
CLDC .IN          45 280 01 00                  : Density Caliper
DCOR .G/C3        42 356 01 00                  : Density Correction
PDPE .B/E         45 358 01 00                  : PE
DPRL .V/V         45 890 10 00                  : Limestone Density Por.
SPRL .V/V         61 890 20 00                  : Wyllie Lime. Sonic Por.
MNRL .OHMM        15 252 00 00                  : MMR MicroLog Normal
MINV .OHMM        15 250 00 00                  : MMR MicroLog Inverse
MBTC .IN          15 280 01 00                  : MMR Caliper
R40O .OHMM        07 120 44 00                  : Array Ind. One Res 40
R60O .OHMM        07 120 44 00                  : Array Ind. One Res 60
RTAO .OHMM        07 120 44 00                  : Array Ind. One Res Rt
DEN  .G/C3        42 350 01 00                  : Compensated Density
DT35 .----        60 520 32 00                  : 3-5' Compensated Sonic
DFCL .IN          00 000 00 00                  : Differential Caliper
CTAO .----        07 120 44 00                  : Array Ind. One Cond Ct
#
~Parameter Information
#MNEM.UNIT        VALUE                         : DESCRIPTION
#----.----        -----                         : -----------
RNID .            5 INCH MAIN PASS              : Run ID
SON  .            7055-98027334                 : Job Number
DREF .            KB                            : Depth reference
EREF .F              1140.000                   : Elevation of depth reference
GL   .F              1128.000                   : Ground elevation
RUN  .            ONE                           : Run number
TDD  .F              5900.000                   : TD (driller)
TDL  .F              5892.000                   : TD (logger)
BS   .IN                8.750                   : Bit size
TIMC .                                          : Time circulation ended
TIML .                                          : Time logger at bottom
UNIT .              13039                       : Equipment ID
BASE .            OKC                           : Equipment base location
ENG  .            JUSTIN HICKS                  : Recording engineer
WIT  .            BEAU BEREND                   : Witnessed by
CSGT .            SURFACE                       : Casing type
CSGS .IN                9.625                   : Casing size
CSGW .LB/FT            35.997                   : Casing weight
CSGD .F               423.000                   : Casing bottom (driller)
CSGL .F               422.000                   : Casing bottom (logger)
CSUP .F           -999999.000                   : Casing Stick Up GL
MUD  .            WBM                           : Mud type
MUDS .            MUD PIT                       : Mud sample source
MUDD .LB/G              9.600                   : Mud density
MUDV .SEC/QT           45.000                   : Mud viscosity
PH   .                  9.800                   : Mud pH
FL   .ML/30MIN         10.800                   : Mud fluid loss rate
RM   .OHMM              1.800                   : Mud resistivity
RMT  .DEGF             92.000                   : Mud sample temperature
RMF  .OHMM              1.440                   : Mud filtrate resistivity
RMFT .DEGF             92.000                   : Mud filtrate sample temperature
RMC  .OHMM              2.160                   : Mud cake resistivity
RMCT .DEGF             92.000                   : Mud cake sample temperature
TMAX .DEGF            146.000                   : Max recorded temperature
#
~Other Information
----------------------------------------------------------------------------------------------------------
TOOLS RAN: CBH, SHA, MCG, MMR, MDN, MPD, MFE, MIM, MIE, MSS, MAI RAN IN COMBINATION.
HARDWARE USED:     
MSS: THREE 0.5 INCH STANDOFFS.  
                
                                
2.71 G/CC DENSITY MATRIX USED TO CALCULATE POROSITY.
ALL INTERVALS LOGGED AND SCALED PER CUSTOMER'S REQUEST.
TOTAL HOLE VOLUME FROM TD TO SURFACE CASING = 2840 CU.FT.
ANNULAR HOLE VOLUME WITH 5.5 INCH PRODUCTION CASING FROM TD TO SURFACE CASING = 1942 CU.FT. 
FIELD TICKET NUMBER: 7055-98027334
RIG:  DOUBLE K, RIG #6
OPERATOR(S):  C. SANFORD
MUD PROPERTIES:     
CHLORIDES: 1200 MG/L
LCM: NONE
*HOLE WASHOUTS AND RUGOSITY WILL AFFECT LOG QUALITY AND REPEATABILITY.*                                   
----------------------------------------------------------------------------------------------------------
#
#          DEPT           CGXT           SMTU           GRGC           SPCG           FEFE           NPRL           CLDC           DCOR           PDPE           DPRL           SPRL           MNRL           MINV           MBTC           R40O           R60O           RTAO           DEN            DT35           DFCL           CTAO
#
~ASCII Log Data
# ...
         1870.0     102.426961     914.663452      99.935191     171.767178       8.533198       0.190621       9.571504       0.017883       3.554716       0.078532       0.265417       3.596541       6.231846       9.575815       5.888799       5.938079       5.950059       2.575710      85.056484       0.821504     168.203854
         1870.5     102.410755     954.333383     100.882480     172.311197       8.072095       0.201234       9.557987       0.019465       3.586723       0.072069       0.273639       3.359294       5.085148       9.561529       5.561600       5.603328       5.613210       2.586762      86.219919       0.807987     178.151721
         1871.0     102.416850     905.105434     103.869255     172.818062       8.209376       0.210819       9.553435       0.019823       3.667212       0.066342       0.274369       3.554880       5.394461       9.552011       5.637590       5.675314       5.683975       2.596555      86.323188       0.803435     175.958242
         1871.5     102.447590     901.202402     106.841751     172.944516       8.534359       0.215332       9.551113       0.022573       3.727128       0.057418       0.270759       3.642227       6.106549       9.543603       5.837305       5.871947       5.879624       2.611816      85.812364       0.801113     170.080470
         1872.0     102.441710     906.112689     106.824191     173.181767       8.315789       0.213218       9.550102       0.020492       3.699210       0.056528       0.267188       3.789776       5.543559       9.537764       5.685230       5.714862       5.721183       2.613336      85.307084       0.800102     174.820233
         1872.5     102.476337     895.684684     103.615567     173.359678       8.104796       0.209259       9.549878       0.017622       3.609016       0.058778       0.266415       3.501459       5.800382       9.534750       5.536549       5.561396       5.566478       2.609490      85.197717       0.799878     179.647243
         1873.0     102.468092     906.767376     101.658402     173.375602       8.061438       0.212028       9.549980       0.014841       3.500888       0.063368       0.268522       3.703901       6.466438       9.528312       5.504662       5.525184       5.529192       2.601641      85.495930       0.799980     180.859137
         1873.5     102.457936     898.729814     102.532980     173.346439       7.737742       0.219258       9.548335       0.013074       3.465972       0.067543       0.272287       3.410447       5.648749       9.516919       5.285266       5.300468       5.303287       2.594501      86.028559       0.798335     188.601472
         1874.0     102.413106     907.456037     105.146326     173.223103       7.606491       0.224590       9.544556       0.015620       3.459122       0.064498       0.275546       3.372532       5.290323       9.508478       5.197373       5.207086       5.208778       2.599708      86.489810       0.794556     191.984565
         1874.5     102.503545     940.399887     108.337345     173.231670       7.626055       0.224362       9.540072       0.016461       3.429872       0.063497       0.275626       3.392771       5.179099       9.498233       5.206746       5.210086       5.210632       2.601420      86.501145       0.790072     191.916962
         1875.0     102.455027     912.431251     106.761663     173.252026       7.799072       0.220397       9.534135       0.014257       3.385902       0.068175       0.271080       3.662879       5.636892       9.478301       5.319577       5.314962       5.311840       2.593420      85.857848       0.784135     188.274505
         1875.5     102.513958     894.616893     102.317384     173.120022       8.014374       0.213563       9.520002       0.010297       3.327340       0.075185       0.262529       3.644192       5.675094       9.453953       5.463751       5.448729       5.438636       2.581434      84.647829       0.770002     183.870187
         1876.0     102.466615     897.622462      95.749366     173.061597       8.412486       0.203031       9.495725       0.006059       3.350929       0.080422       0.254211       3.795487       6.957460       9.423226       5.738136       5.709200       5.689784       2.572479      83.470825       0.745725     175.783018
         1876.5     102.513359     894.918448      90.050243     172.893771       9.007569       0.193805       9.474641       0.005398       3.458568       0.077382       0.251318       4.077834       7.764014       9.388813       6.142535       6.094114       6.061696       2.577677      83.061497       0.724641     164.998182
         1877.0     102.551192     901.075392      87.876879     172.848176       8.995180       0.191129       9.466163       0.009996       3.570871       0.065931       0.254996       4.185875       7.658276       9.367831       6.140996       6.072115       6.026146       2.597257      83.581894       0.716163     165.945890
         1877.5     102.533542     891.517726      91.054261     172.776526       8.124847       0.198279       9.465314       0.013542       3.653839       0.059202       0.261448       3.567020       5.174164       9.353947       5.592083       5.507024       5.450462       2.608765      84.494828       0.715314     183.542667
         1878.0     102.514723     951.193462      95.026622     172.465119       7.933811       0.207153       9.465303       0.013411       3.679778       0.060387       0.260701       3.549508       5.354272       9.334922       5.505857       5.396723       5.324508       2.606738      84.389192       0.715303     187.811362
         1878.5     102.440554     919.651947      94.177450     171.535444       8.388582       0.206973       9.465342       0.012321       3.651018       0.063795       0.245671       3.918477       7.037044       9.316379       5.822429       5.676100       5.579987       2.600910      82.262387       0.715342     179.378938
         1879.0     102.456139     930.947271      88.351545     169.925848       9.747702       0.196649       9.467582       0.018380       3.522582       0.061805       0.224334       5.223240      11.105594       9.305498       6.696077       6.489506       6.355138       2.604313      79.243233       0.717582     157.481103
         1879.5     102.459172     925.596965      81.318709     167.681145      11.085449       0.176124       9.487052       0.032054       3.286309       0.058986       0.206389       8.294985      15.036252       9.312858       7.513035       7.234825       7.066068       2.609133      76.703997       0.737052     141.521555
         1880.0     102.563815     893.788294      78.845798     164.636359       9.457962       0.154275       9.495090       0.043462       3.032593       0.062686       0.195102       5.765989       6.758615       9.324972       6.385758       6.108262       5.967116       2.602808      75.106906       0.745090     167.658163
         1880.5     102.511843     881.397985      77.010347     160.899920       9.621520       0.142897       9.454776       0.048017       2.860730       0.073326       0.187880       5.806314       8.359955       9.295470       6.320585       6.003884       5.862200       2.584613      74.085059       0.704776     170.726495
         1881.0     102.460085     931.047648      74.242670     158.026213      10.803306       0.141163       9.420793       0.047822       2.778820       0.091007       0.184463       7.930299      13.180672       9.240331       6.797488       6.413778       6.256225       2.554379      73.601523       0.670793     160.168002
         1881.5     102.481141     920.119160      74.713580     156.738021       8.858858       0.142634       9.415891       0.055145       2.725761       0.106866       0.190147       8.781409      12.006261       9.177139       5.409649       5.071293       4.940829       2.527258      74.405840       0.665891     204.126903
         1882.0     102.551278     935.349029      80.341884     156.217790       6.544502       0.148043       9.410842       0.073426       2.720245       0.117259       0.205549       4.886249       4.276529       9.123939       3.919655       3.651173       3.552595       2.509487      76.585186       0.660842     281.759928
