~Version Information
VERS .            2.00                          : CWLS Log ASCII Standard - Version 2.00
WRAP .            NO                            : One line per depth step
#
~Well Information
#MNEM.UNIT        DATA                          : DESCRIPTION
#----.----        ----                          : -----------
STRT .F            420.0                        : Start
STOP .F           5890.0                        : Stop
STEP .F              0.5                        : Step increment
NULL .            -999.250                      : Null value
COMP .            NEWARK E&P OPERATING, LLC     : Company
WELL .            RICHARDS RANCH #N35           : Well
FLD  .            KRS (MARBLE FALLS)            : Field
PROV .            JACK                          : Province
CTRY .            United States                 : State / Country
LOC  .            560' FWL & 485' FSL OF        : Location
LOC2 .            N ATKINSON SURVEY, A-17       : Location 2
SRVC .            Weatherford                   : Service company
API  .		  42237401620000		: API Number
UWI  .            42237401620000                : Unique Well ID
LATI .            33.087108                     : Latitude
LONG .            -98.140917                    : Longitude
DATE .            16-Sep-2014                   : Logging Date
#
~Curve Information
#MNEM.UNIT        API CODES                     : CURVE DESCRIPTION
#----.----        ---------                     : -----------------
DEPT .F           00 001 00 00                  : Logged depth
CGXT .DEGF        30 660 01 00                  : MCG External Temperature
SMTU .LB          30 635 00 00                  : DST Uphole Tension
GRGC .GAPI        30 310 01 00                  : Gamma Ray
SPCG .MV          30 010 00 00                  : Spontaneous Potential
FEFE .OHMM        10 220 06 00                  : Shallow FE
NPRL .V/V         42 890 01 00                  : Limestone Neutron Por.
CLDC .IN          45 280 01 00                  : Density Caliper
DCOR .G/C3        42 356 01 00                  : Density Correction
PDPE .B/E         45 358 01 00                  : PE
DPRL .V/V         45 890 10 00                  : Limestone Density Por.
SPRL .V/V         61 890 20 00                  : Wyllie Lime. Sonic Por.
MNRL .OHMM        15 252 00 00                  : MMR MicroLog Normal
MINV .OHMM        15 250 00 00                  : MMR MicroLog Inverse
MBTC .IN          15 280 01 00                  : MMR Caliper
R40O .OHMM        07 120 44 00                  : Array Ind. One Res 40
R60O .OHMM        07 120 44 00                  : Array Ind. One Res 60
RTAO .OHMM        07 120 44 00                  : Array Ind. One Res Rt
DEN  .G/C3        42 350 01 00                  : Compensated Density
DT35 .----        60 520 32 00                  : 3-5' Compensated Sonic
DFCL .IN          00 000 00 00                  : Differential Caliper
CTAO .----        07 120 44 00                  : Array Ind. One Cond Ct
#
~Parameter Information
#MNEM.UNIT        VALUE                         : DESCRIPTION
#----.----        -----                         : -----------
RNID .            5 INCH MAIN PASS              : Run ID
SON  .            7055-98027334                 : Job Number
DREF .            KB                            : Depth reference
EREF .F              1140.000                   : Elevation of depth reference
GL   .F              1128.000                   : Ground elevation
RUN  .            ONE                           : Run number
TDD  .F              5900.000                   : TD (driller)
TDL  .F              5892.000                   : TD (logger)
BS   .IN                8.750                   : Bit size
TIMC .                                          : Time circulation ended
TIML .                                          : Time logger at bottom
UNIT .              13039                       : Equipment ID
BASE .            OKC                           : Equipment base location
ENG  .            JUSTIN HICKS                  : Recording engineer
WIT  .            BEAU BEREND                   : Witnessed by
CSGT .            SURFACE                       : Casing type
CSGS .IN                9.625                   : Casing size
CSGW .LB/FT            35.997                   : Casing weight
CSGD .F               423.000                   : Casing bottom (driller)
CSGL .F               422.000                   : Casing bottom (logger)
CSUP .F           -999999.000                   : Casing Stick Up GL
MUD  .            WBM                           : Mud type
MUDS .            MUD PIT                       : Mud sample source
MUDD .LB/G              9.600                   : Mud density
MUDV .SEC/QT           45.000                   : Mud viscosity
PH   .                  9.800                   : Mud pH
FL   .ML/30MIN         10.800                   : Mud fluid loss rate
RM   .OHMM              1.800                   : Mud resistivity
RMT  .DEGF             92.000                   : Mud sample temperature
RMF  .OHMM              1.440                   : Mud filtrate resistivity
RMFT .DEGF             92.000                   : Mud filtrate sample temperature
RMC  .OHMM              2.160                   : Mud cake resistivity
RMCT .DEGF             92.000                   : Mud cake sample temperature
TMAX .DEGF            146.000                   : Max recorded temperature
#
~Other Information
----------------------------------------------------------------------------------------------------------
TOOLS RAN: CBH, SHA, MCG, MMR, MDN, MPD, MFE, MIM, MIE, MSS, MAI RAN IN COMBINATION.
HARDWARE USED:     
MSS: THREE 0.5 INCH STANDOFFS.  
                
                                
2.71 G/CC DENSITY MATRIX USED TO CALCULATE POROSITY.
ALL INTERVALS LOGGED AND SCALED PER CUSTOMER'S REQUEST.
TOTAL HOLE VOLUME FROM TD TO SURFACE CASING = 2840 CU.FT.
ANNULAR HOLE VOLUME WITH 5.5 INCH PRODUCTION CASING FROM TD TO SURFACE CASING = 1942 CU.FT. 
FIELD TICKET NUMBER: 7055-98027334
RIG:  DOUBLE K, RIG #6
OPERATOR(S):  C. SANFORD
MUD PROPERTIES:     
CHLORIDES: 1200 MG/L
LCM: NONE
*HOLE WASHOUTS AND RUGOSITY WILL AFFECT LOG QUALITY AND REPEATABILITY.*                                   
----------------------------------------------------------------------------------------------------------
#
#          DEPT           CGXT           SMTU           GRGC           SPCG           FEFE           NPRL           CLDC           DCOR           PDPE           DPRL           SPRL           MNRL           MINV           MBTC           R40O           R60O           RTAO           DEN            DT35           DFCL           CTAO
#
~ASCII Log Data
# ...
         4032.5     123.594500    1341.950507     111.457537     182.217789      11.078758       0.190495       8.929560       0.042278       2.901814       0.075767       0.209188       7.087973      12.911972       8.845957       8.524666       8.414673       8.338625       2.580439      77.100136       0.179560     120.866035
         4033.0     123.540415    1294.299936     117.087087     181.842507       8.292917       0.192843       8.955530       0.042519       3.047448       0.079527       0.225143       4.041263       4.859871       8.845833       6.294386       6.204628       6.143849       2.574008      79.357682       0.205530     162.786109
         4033.5     123.572800    1366.480926     130.774805     181.691184       8.043371       0.212158       8.974360       0.058546       3.178242       0.076201       0.247685       4.304808       6.825837       8.847421       5.950850       5.859101       5.798330       2.579696      82.547432       0.224360     172.522227
         4034.0     123.625308    1376.174232     142.155214     182.021649       7.123411       0.237251       8.976701       0.072823       3.234086       0.079005       0.270081       4.138867       3.088471       8.851564       5.140622       5.056447       5.001922       2.574901      85.716494       0.226701     200.676011
         4034.5     123.650542    1334.950224     152.717537     182.716469       6.242280       0.258650       8.948520       0.081589       3.241038       0.086571       0.289055       3.483140       3.742533       8.851433       4.405361       4.330091       4.282347       2.561964      88.401351       0.198520     233.527877
         4035.0     123.611570    1364.186458     158.888547     183.751298       6.379058       0.272465       8.916096       0.084548       3.206649       0.090699       0.302252       3.452769       4.482060       8.847841       4.411144       4.333830       4.285640       2.554905      90.268646       0.166096     233.353533
         4035.5     123.592032    1370.365748     160.796537     184.530329       6.268365       0.280533       8.900974       0.075919       3.166404       0.093866       0.309682       3.690814       4.217326       8.845189       4.278285       4.202553       4.155982       2.549489      91.320000       0.150974     240.635301
         4036.0     123.684751    1298.935371     159.816698     185.102296       6.103204       0.285576       8.903099       0.067155       3.192989       0.095200       0.312428       3.411461       3.674604       8.843795       4.116485       4.043847       3.999684       2.547208      91.708601       0.153099     250.044734
         4036.5     123.624622    1355.414113     156.435399     185.696672       5.961285       0.292314       8.923531       0.063590       3.264881       0.094727       0.312610       3.275140       3.933417       8.843593       3.993882       3.924377       3.882439       2.548016      91.734356       0.173531     257.581622
         4037.0     123.656078    1350.645614     154.579871     186.276505       5.961667       0.302124       8.934704       0.063846       3.317007       0.091628       0.312952       3.793566       3.675840       8.844208       3.981668       3.913837       3.873089       2.553315      91.782639       0.184704     258.203525
         4037.5     123.721495    1337.123515     152.793647     187.005080       6.174570       0.311569       8.919244       0.062101       3.317134       0.089152       0.313423       3.375134       4.271911       8.844288       4.116597       4.048215       4.007230       2.557550      91.849344       0.169244     249.577758
         4038.0     123.631828    1299.513597     151.495823     187.505399       6.474330       0.319305       8.898719       0.051781       3.342106       0.091847       0.313430       3.287518       4.914886       8.845250       4.330730       4.260616       4.218558       2.552941      91.850362       0.148719     237.101937
         4038.5     123.513278    1326.973054     149.339471     187.832719       6.741797       0.320724       8.883728       0.035262       3.381956       0.101446       0.312631       3.142770       5.378563       8.847823       4.525496       4.453910       4.410911       2.536527      91.737231       0.133728     226.728529
         4039.0     123.675411    1354.886998     150.039836     187.792923       6.853448       0.314848       8.864184       0.024915       3.375835       0.104692       0.310882       3.356690       5.284396       8.849080       4.614836       4.543162       4.500065       2.530977      91.489865       0.114184     222.222650
         4039.5     123.715943    1363.948716     151.929987     187.603710       6.893214       0.304727       8.835831       0.022209       3.345115       0.100390       0.309209       2.978070       4.899737       8.849235       4.651983       4.580668       4.537768       2.538334      91.253104       0.085831     220.372844
         4040.0     123.681421    1346.056989     154.543181     186.954474       6.965464       0.295122       8.836064       0.027664       3.274473       0.091519       0.307987       3.415410       5.507436       8.847614       4.701949       4.630393       4.587375       2.553503      91.080219       0.086064     217.991354
         4040.5     123.676166    1370.927377     156.985903     186.251991       6.815198       0.291821       8.882109       0.037829       3.261600       0.080295       0.306593       3.922516       5.165488       8.845608       4.601159       4.531394       4.489508       2.572696      90.882908       0.132109     222.743851
         4041.0     123.651445    1330.692243     156.210316     185.539617       6.559706       0.290080       8.934399       0.041329       3.287520       0.079978       0.304611       3.542872       4.389249       8.850156       4.424267       4.357291       4.317170       2.573237      90.602484       0.184399     231.641162
         4041.5     123.673141    1347.490721     156.373821     184.887313       6.525993       0.283863       8.966828       0.040626       3.274052       0.086552       0.302375       3.578010       4.476569       8.875661       4.394234       4.327852       4.288182       2.561996      90.286002       0.216828     233.200858
         4042.0     123.730729    1318.198766     156.648153     184.531299       6.313792       0.275745       8.988263       0.040554       3.275032       0.092929       0.301026       3.267615       3.990778       8.905498       4.241159       4.177416       4.139434       2.551092      90.095185       0.238263     241.659632
         4042.5     123.662708    1322.004098     153.481018     184.401489       6.074592       0.275495       8.989793       0.044385       3.257444       0.094881       0.301104       3.514206       3.968843       8.902528       4.070991       4.010392       3.974380       2.547754      90.106249       0.239793     251.613832
         4043.0     123.681568    1353.259047     147.923677     184.408550       5.994189       0.287768       8.971730       0.056881       3.213485       0.087497       0.302033       3.586530       4.077481       8.874559       4.006952       3.948278       3.913482       2.560381      90.237615       0.221730     255.531891
         4043.5     123.665861    1294.077647     141.822562     184.619559       5.958285       0.298797       8.959594       0.068213       3.172733       0.081276       0.302429       3.436105       3.750457       8.853366       3.973489       3.916668       3.883014       2.571018      90.293739       0.209594     257.548752
         4044.0     123.726423    1338.072752     135.969603     185.173210       6.218065       0.298778       8.947202       0.070860       3.181040       0.083215       0.301103       3.629006       3.560474       8.835004       4.130624       4.073437       4.039588       2.567703      90.106120       0.197202     247.595973
         4044.5     123.725303    1369.696874     133.175271     185.922056       6.405736       0.287933       8.920745       0.066499       3.213847       0.088087       0.298830       3.714184       3.545330       8.825749       4.243831       4.187400       4.153973       2.559371      89.784502       0.170745     240.733790
