~Version Information
VERS .            2.00                          : CWLS Log ASCII Standard - Version 2.00
WRAP .            NO                            : One line per depth step
#
~Well Information
#MNEM.UNIT        DATA                          : DESCRIPTION
#----.----        ----                          : -----------
STRT .F            420.0                        : Start
STOP .F           5890.0                        : Stop
STEP .F              0.5                        : Step increment
NULL .            -999.250                      : Null value
COMP .            NEWARK E&P OPERATING, LLC     : Company
WELL .            RICHARDS RANCH #N35           : Well
FLD  .            KRS (MARBLE FALLS)            : Field
PROV .            JACK                          : Province
CTRY .            United States                 : State / Country
LOC  .            560' FWL & 485' FSL OF        : Location
LOC2 .            N ATKINSON SURVEY, A-17       : Location 2
SRVC .            Weatherford                   : Service company
API  .		  42237401620000		: API Number
UWI  .            42237401620000                : Unique Well ID
LATI .            33.087108                     : Latitude
LONG .            -98.140917                    : Longitude
DATE .            16-Sep-2014                   : Logging Date
#
~Curve Information
#MNEM.UNIT        API CODES                     : CURVE DESCRIPTION
#----.----        ---------                     : -----------------
DEPT .F           00 001 00 00                  : Logged depth
CGXT .DEGF        30 660 01 00                  : MCG External Temperature
SMTU .LB          30 635 00 00                  : DST Uphole Tension
GRGC .GAPI        30 310 01 00                  : Gamma Ray
SPCG .MV          30 010 00 00                  : Spontaneous Potential
FEFE .OHMM        10 220 06 00                  : Shallow FE
NPRL .V/V         42 890 01 00                  : Limestone Neutron Por.
CLDC .IN          45 280 01 00                  : Density Caliper
DCOR .G/C3        42 356 01 00                  : Density Correction
PDPE .B/E         45 358 01 00                  : PE
DPRL .V/V         45 890 10 00                  : Limestone Density Por.
SPRL .V/V         61 890 20 00                  : Wyllie Lime. Sonic Por.
MNRL .OHMM        15 252 00 00                  : MMR MicroLog Normal
MINV .OHMM        15 250 00 00                  : MMR MicroLog Inverse
MBTC .IN          15 280 01 00                  : MMR Caliper
R40O .OHMM        07 120 44 00                  : Array Ind. One Res 40
R60O .OHMM        07 120 44 00                  : Array Ind. One Res 60
RTAO .OHMM        07 120 44 00                  : Array Ind. One Res Rt
DEN  .G/C3        42 350 01 00                  : Compensated Density
DT35 .----        60 520 32 00                  : 3-5' Compensated Sonic
DFCL .IN          00 000 00 00                  : Differential Caliper
CTAO .----        07 120 44 00                  : Array Ind. One Cond Ct
#
~Parameter Information
#MNEM.UNIT        VALUE                         : DESCRIPTION
#----.----        -----                         : -----------
RNID .            5 INCH MAIN PASS              : Run ID
SON  .            7055-98027334                 : Job Number
DREF .            KB                            : Depth reference
EREF .F              1140.000                   : Elevation of depth reference
GL   .F              1128.000                   : Ground elevation
RUN  .            ONE                           : Run number
TDD  .F              5900.000                   : TD (driller)
TDL  .F              5892.000                   : TD (logger)
BS   .IN                8.750                   : Bit size
TIMC .                                          : Time circulation ended
TIML .                                          : Time logger at bottom
UNIT .              13039                       : Equipment ID
BASE .            OKC                           : Equipment base location
ENG  .            JUSTIN HICKS                  : Recording engineer
WIT  .            BEAU BEREND                   : Witnessed by
CSGT .            SURFACE                       : Casing type
CSGS .IN                9.625                   : Casing size
CSGW .LB/FT            35.997                   : Casing weight
CSGD .F               423.000                   : Casing bottom (driller)
CSGL .F               422.000                   : Casing bottom (logger)
CSUP .F           -999999.000                   : Casing Stick Up GL
MUD  .            WBM                           : Mud type
MUDS .            MUD PIT                       : Mud sample source
MUDD .LB/G              9.600                   : Mud density
MUDV .SEC/QT           45.000                   : Mud viscosity
PH   .                  9.800                   : Mud pH
FL   .ML/30MIN         10.800                   : Mud fluid loss rate
RM   .OHMM              1.800                   : Mud resistivity
RMT  .DEGF             92.000                   : Mud sample temperature
RMF  .OHMM              1.440                   : Mud filtrate resistivity
RMFT .DEGF             92.000                   : Mud filtrate sample temperature
RMC  .OHMM              2.160                   : Mud cake resistivity
RMCT .DEGF             92.000                   : Mud cake sample temperature
TMAX .DEGF            146.000                   : Max recorded temperature
#
~Other Information
----------------------------------------------------------------------------------------------------------
TOOLS RAN: CBH, SHA, MCG, MMR, MDN, MPD, MFE, MIM, MIE, MSS, MAI RAN IN COMBINATION.
HARDWARE USED:     
MSS: THREE 0.5 INCH STANDOFFS.  
                
                                
2.71 G/CC DENSITY MATRIX USED TO CALCULATE POROSITY.
ALL INTERVALS LOGGED AND SCALED PER CUSTOMER'S REQUEST.
TOTAL HOLE VOLUME FROM TD TO SURFACE CASING = 2840 CU.FT.
ANNULAR HOLE VOLUME WITH 5.5 INCH PRODUCTION CASING FROM TD TO SURFACE CASING = 1942 CU.FT. 
FIELD TICKET NUMBER: 7055-98027334
RIG:  DOUBLE K, RIG #6
OPERATOR(S):  C. SANFORD
MUD PROPERTIES:     
CHLORIDES: 1200 MG/L
LCM: NONE
*HOLE WASHOUTS AND RUGOSITY WILL AFFECT LOG QUALITY AND REPEATABILITY.*                                   
----------------------------------------------------------------------------------------------------------
#
#          DEPT           CGXT           SMTU           GRGC           SPCG           FEFE           NPRL           CLDC           DCOR           PDPE           DPRL           SPRL           MNRL           MINV           MBTC           R40O           R60O           RTAO           DEN            DT35           DFCL           CTAO
#
~ASCII Log Data
# ...
         3670.0     119.721779    1269.185538     122.764264     191.026936      10.245050       0.168681       9.561644       0.005614       3.023929       0.059965       0.198740       6.933660       9.166277       9.570732       8.483059       8.501623       8.504949       2.607461      75.621691       0.811644     117.579223
         3670.5     119.775215    1269.148129     126.600794     191.220375       9.946677       0.171795       9.562534       0.009469       3.036446       0.054407       0.201720       6.525437       8.743227       9.575402       8.245277       8.263993       8.267359       2.616965      76.043423       0.812534     120.994685
         3671.0     119.781199    1234.337554     130.341418     191.617542       9.319982       0.179531       9.563065       0.012018       3.087892       0.049426       0.207503       5.710186       7.626609       9.578938       7.734643       7.752835       7.756117       2.625482      76.861739       0.813065     128.972318
         3671.5     119.752219    1230.468750     132.748424     191.943464       9.135149       0.186706       9.563284       0.010765       3.134970       0.050906       0.212963       5.619749       7.480796       9.579447       7.589217       7.607712       7.611059       2.622951      77.634234       0.813284     131.390551
         3672.0     119.750867    1258.832866     134.202563     192.016627       8.928444       0.192682       9.563382       0.011307       3.154038       0.051342       0.215388       5.281823       7.646056       9.579549       7.430994       7.449708       7.453107       2.622205      77.977393       0.813382     134.177631
         3672.5     119.751117    1239.459489     133.448157     191.759880       9.097022       0.197213       9.562852       0.014099       3.135981       0.049243       0.213762       5.555837       7.777945       9.579633       7.583777       7.603404       7.606979       2.625794      77.747386       0.812852     131.482983
         3673.0     119.750111    1277.545989     130.515496     191.530921       9.408349       0.199427       9.561691       0.015763       3.070436       0.047382       0.210085       5.483277       7.818854       9.579524       7.872873       7.893588       7.897371       2.628976      77.227029       0.811691     126.630648
         3673.5     119.804390    1260.968079     127.088968     191.296578       9.796485       0.197667       9.560527       0.014142       3.036503       0.049147       0.206081       5.738467       8.244593       9.579347       8.214294       8.235857       8.239797       2.625958      76.660436       0.810527     121.374017
         3674.0     119.687727    1179.613607     120.908624     191.180283       9.896501       0.191813       9.559251       0.007907       2.990518       0.057280       0.202123       6.439025       8.157801       9.579488       8.339949       8.361294       8.365193       2.612052      76.100343       0.809251     119.543061
         3674.5     119.828104    1212.115011     116.439349     191.059787       9.863149       0.184283       9.557793       0.003562       2.952556       0.064370       0.197955       6.043846       7.991767       9.580633       8.340777       8.360828       8.364476       2.599927      75.510612       0.807793     119.561132
         3675.0     119.875500    1301.210712     115.896660     190.725285      10.219338       0.176845       9.556807       0.002760       2.944982       0.068504       0.194106       6.351463       8.826528       9.581778       8.661872       8.680629       8.684019       2.592859      74.966023       0.806807     115.155808
         3675.5     119.773608    1245.254347     118.948183     190.446986      10.200552       0.170333       9.554246       0.003633       2.963171       0.070395       0.192910       6.502163       8.623726       9.581988       8.662892       8.678683       8.681506       2.589625      74.796762       0.804246     115.218434
         3676.0     119.777218    1298.670251     125.146606     190.422438      10.000927       0.167298       9.549427       0.005741       3.010999       0.069859       0.194252       6.464859       8.638985       9.581777       8.499128       8.510971       8.513053       2.590542      74.986722       0.799427     117.468971
         3676.5     119.825290    1266.716677     128.771547     190.744721       9.600514       0.167723       9.542786       0.006773       3.012302       0.068680       0.196794       5.725594       7.847432       9.579653       8.167869       8.175075       8.176317       2.592557      75.346292       0.792786     122.330094
         3677.0     119.835018    1243.091982     127.101393     191.095949       9.846519       0.169041       9.536163       0.010181       2.979761       0.063128       0.199256       6.389582       8.756279       9.573883       8.356743       8.359314       8.359722       2.602052      75.694787       0.786163     119.625547
         3677.5     119.821647    1265.253590     122.289211     191.252561      10.057862       0.172962       9.530618       0.016282       2.938231       0.054336       0.201985       6.530171       8.595297       9.563951       8.507087       8.504468       8.502480       2.617085      76.080876       0.780618     117.613464
         3678.0     119.829575    1220.050917     121.686956     191.357675       9.572604       0.179484       9.524836       0.018886       2.935399       0.050485       0.205922       5.764810       8.014950       9.556951       8.087003       8.079368       8.073589       2.623671      76.637988       0.774836     123.886609
         3678.5     119.844281    1244.775098     125.850092     191.303130       9.065763       0.185662       9.517619       0.020080       2.947134       0.048186       0.209977       5.131514       7.032705       9.555836       7.635251       7.623150       7.614037       2.627602      77.211738       0.767619     131.368566
         3679.0     119.848076    1281.095627     129.084305     191.397010       9.032858       0.188780       9.508472       0.018552       2.941304       0.048324       0.211636       5.357680       7.662692       9.554585       7.583745       7.566915       7.554303       2.627366      77.446501       0.758472     132.379566
         3679.5     119.837718    1264.811939     128.651288     191.259729       9.247027       0.188044       9.497743       0.015734       2.931509       0.050120       0.210924       5.522489       7.782353       9.551046       7.723470       7.701667       7.685418       2.624294      77.345680       0.747743     130.117737
         3680.0     119.807141    1241.340904     125.685621     191.234502       9.500966       0.185118       9.489955       0.012032       2.949843       0.055643       0.210384       6.149212       8.419287       9.544603       7.894202       7.867437       7.847598       2.614850      77.269336       0.739955     127.428842
         3680.5     119.927353    1271.478418     125.159182     191.216179       9.146180       0.182035       9.484587       0.007090       3.010433       0.064932       0.212494       5.584881       7.863495       9.532956       7.566673       7.537088       7.515289       2.598966      77.567903       0.734587     133.121734
         3681.0     119.906857    1294.656643     126.396081     191.534963       8.923132       0.182435       9.477034       0.007555       3.083849       0.066037       0.216945       4.985419       7.035363       9.513083       7.341727       7.309576       7.286034       2.597076      78.197736       0.727034     137.248938
         3681.5     119.946966    1228.096020     128.156334     191.711635       8.697984       0.188308       9.466455       0.010634       3.115639       0.061929       0.221770       5.089877       6.871028       9.488101       7.111918       7.077915       7.053177       2.604102      78.880428       0.716455     141.812926
         3682.0     119.917545    1274.493706     130.701976     191.788592       8.561846       0.198176       9.456097       0.014801       3.115632       0.054743       0.226172       5.094893       6.878397       9.473594       6.958256       6.922680       6.896956       2.616389      79.503312       0.706097     144.994592
