~Version Information
VERS .            2.00                          : CWLS Log ASCII Standard - Version 2.00
WRAP .            NO                            : One line per depth step
#
~Well Information
#MNEM.UNIT        DATA                          : DESCRIPTION
#----.----        ----                          : -----------
STRT .F            420.0                        : Start
STOP .F           5890.0                        : Stop
STEP .F              0.5                        : Step increment
NULL .            -999.250                      : Null value
COMP .            NEWARK E&P OPERATING, LLC     : Company
WELL .            RICHARDS RANCH #N35           : Well
FLD  .            KRS (MARBLE FALLS)            : Field
PROV .            JACK                          : Province
CTRY .            United States                 : State / Country
LOC  .            560' FWL & 485' FSL OF        : Location
LOC2 .            N ATKINSON SURVEY, A-17       : Location 2
SRVC .            Weatherford                   : Service company
API  .		  42237401620000		: API Number
UWI  .            42237401620000                : Unique Well ID
LATI .            33.087108                     : Latitude
LONG .            -98.140917                    : Longitude
DATE .            16-Sep-2014                   : Logging Date
#
~Curve Information
#MNEM.UNIT        API CODES                     : CURVE DESCRIPTION
#----.----        ---------                     : -----------------
DEPT .F           00 001 00 00                  : Logged depth
CGXT .DEGF        30 660 01 00                  : MCG External Temperature
SMTU .LB          30 635 00 00                  : DST Uphole Tension
GRGC .GAPI        30 310 01 00                  : Gamma Ray
SPCG .MV          30 010 00 00                  : Spontaneous Potential
FEFE .OHMM        10 220 06 00                  : Shallow FE
NPRL .V/V         42 890 01 00                  : Limestone Neutron Por.
CLDC .IN          45 280 01 00                  : Density Caliper
DCOR .G/C3        42 356 01 00                  : Density Correction
PDPE .B/E         45 358 01 00                  : PE
DPRL .V/V         45 890 10 00                  : Limestone Density Por.
SPRL .V/V         61 890 20 00                  : Wyllie Lime. Sonic Por.
MNRL .OHMM        15 252 00 00                  : MMR MicroLog Normal
MINV .OHMM        15 250 00 00                  : MMR MicroLog Inverse
MBTC .IN          15 280 01 00                  : MMR Caliper
R40O .OHMM        07 120 44 00                  : Array Ind. One Res 40
R60O .OHMM        07 120 44 00                  : Array Ind. One Res 60
RTAO .OHMM        07 120 44 00                  : Array Ind. One Res Rt
DEN  .G/C3        42 350 01 00                  : Compensated Density
DT35 .----        60 520 32 00                  : 3-5' Compensated Sonic
DFCL .IN          00 000 00 00                  : Differential Caliper
CTAO .----        07 120 44 00                  : Array Ind. One Cond Ct
#
~Parameter Information
#MNEM.UNIT        VALUE                         : DESCRIPTION
#----.----        -----                         : -----------
RNID .            5 INCH MAIN PASS              : Run ID
SON  .            7055-98027334                 : Job Number
DREF .            KB                            : Depth reference
EREF .F              1140.000                   : Elevation of depth reference
GL   .F              1128.000                   : Ground elevation
RUN  .            ONE                           : Run number
TDD  .F              5900.000                   : TD (driller)
TDL  .F              5892.000                   : TD (logger)
BS   .IN                8.750                   : Bit size
TIMC .                                          : Time circulation ended
TIML .                                          : Time logger at bottom
UNIT .              13039                       : Equipment ID
BASE .            OKC                           : Equipment base location
ENG  .            JUSTIN HICKS                  : Recording engineer
WIT  .            BEAU BEREND                   : Witnessed by
CSGT .            SURFACE                       : Casing type
CSGS .IN                9.625                   : Casing size
CSGW .LB/FT            35.997                   : Casing weight
CSGD .F               423.000                   : Casing bottom (driller)
CSGL .F               422.000                   : Casing bottom (logger)
CSUP .F           -999999.000                   : Casing Stick Up GL
MUD  .            WBM                           : Mud type
MUDS .            MUD PIT                       : Mud sample source
MUDD .LB/G              9.600                   : Mud density
MUDV .SEC/QT           45.000                   : Mud viscosity
PH   .                  9.800                   : Mud pH
FL   .ML/30MIN         10.800                   : Mud fluid loss rate
RM   .OHMM              1.800                   : Mud resistivity
RMT  .DEGF             92.000                   : Mud sample temperature
RMF  .OHMM              1.440                   : Mud filtrate resistivity
RMFT .DEGF             92.000                   : Mud filtrate sample temperature
RMC  .OHMM              2.160                   : Mud cake resistivity
RMCT .DEGF             92.000                   : Mud cake sample temperature
TMAX .DEGF            146.000                   : Max recorded temperature
#
~Other Information
----------------------------------------------------------------------------------------------------------
TOOLS RAN: CBH, SHA, MCG, MMR, MDN, MPD, MFE, MIM, MIE, MSS, MAI RAN IN COMBINATION.
HARDWARE USED:     
MSS: THREE 0.5 INCH STANDOFFS.  
                
                                
2.71 G/CC DENSITY MATRIX USED TO CALCULATE POROSITY.
ALL INTERVALS LOGGED AND SCALED PER CUSTOMER'S REQUEST.
TOTAL HOLE VOLUME FROM TD TO SURFACE CASING = 2840 CU.FT.
ANNULAR HOLE VOLUME WITH 5.5 INCH PRODUCTION CASING FROM TD TO SURFACE CASING = 1942 CU.FT. 
FIELD TICKET NUMBER: 7055-98027334
RIG:  DOUBLE K, RIG #6
OPERATOR(S):  C. SANFORD
MUD PROPERTIES:     
CHLORIDES: 1200 MG/L
LCM: NONE
*HOLE WASHOUTS AND RUGOSITY WILL AFFECT LOG QUALITY AND REPEATABILITY.*                                   
----------------------------------------------------------------------------------------------------------
#
#          DEPT           CGXT           SMTU           GRGC           SPCG           FEFE           NPRL           CLDC           DCOR           PDPE           DPRL           SPRL           MNRL           MINV           MBTC           R40O           R60O           RTAO           DEN            DT35           DFCL           CTAO
#
~ASCII Log Data
# ...
         1507.5     100.224494     846.395452      84.621090     145.093358       5.051478       0.200520      10.449733       0.075579       2.518326       0.136615       0.258393       4.835139       6.072234       9.724438       3.619143       3.442221       3.358706       2.476389      84.062655       1.699733     297.916298
         1508.0     100.271381     823.129127      98.011753     151.149140       5.381625       0.206995      10.445620       0.056252       2.610106       0.123618       0.271814       5.143848       6.004605       9.733376       3.770717       3.569743       3.478986       2.498613      85.961647       1.695620     287.492390
         1508.5     100.272832     778.425181     105.170754     154.983616       5.117783       0.224515      10.289971       0.044341       2.717935       0.128236       0.285416       4.393245       5.259467       9.740662       3.570538       3.364739       3.275850       2.490716      87.886322       1.539971     305.370987
         1509.0     100.233760     813.690577     103.662669     155.032846       5.001177       0.246846      10.081936       0.046040       2.859502       0.158055       0.292923       4.453679       5.310473       9.706082       3.432389       3.220400       3.132631       2.439726      88.948654       1.331936     319.254059
         1509.5     100.234139     800.781250      95.707880     150.751477       5.126036       0.264489       9.912966       0.071120       2.923753       0.188738       0.292571       4.332308       4.651870       9.478624       3.346009       3.126597       3.039217       2.387257      88.898843       1.162966     329.045214
         1510.0     100.292597     862.607548      83.691076     143.280045       6.459445       0.267066       9.707164       0.106448       2.868194       0.209429       0.286453       4.198449       3.124386       9.081930       3.876371       3.608715       3.505693       2.351876      88.033140       0.957164     288.482733
         1510.5     100.302147     867.064753      74.662696     135.576263       8.907545       0.254704       9.575769       0.148190       2.804262       0.205134       0.279075       5.284255       3.172938       8.869658       5.089891       4.724256       4.587268       2.359222      86.989119       0.825769     218.396929
         1511.0     100.192929     810.764237      70.507572     129.806224       7.697922       0.234902       9.554397       0.176544       2.746021       0.185643       0.271653       5.303398       3.188873       8.923442       4.282695       3.965903       3.849793       2.392551      85.938916       0.804397     263.841769
         1511.5     100.351159     849.777382      65.861655     125.611270       5.842392       0.216064       9.490357       0.181817       2.755930       0.175744       0.261838       4.219268       3.493595       8.927677       3.175600       2.935337       2.849069       2.409479      84.550106       0.740357     351.284028
         1512.0     100.181713     812.766165      58.184114     120.729937       7.330953       0.201186       9.335934       0.170850       2.719222       0.172347       0.247264       4.922824       3.109096       8.790516       3.894139       3.596148       3.490867       2.415287      82.487790       0.585934     287.775009
         1512.5     100.209838     844.014118      48.408507     115.073504      10.406476       0.191302       9.208237       0.150589       2.606208       0.173899       0.231005       5.811649       3.292289       8.681749       5.429732       5.013262       4.868085       2.412633      80.187141       0.458237     205.714329
         1513.0     100.225728     848.375958      42.063296     110.614052      15.537950       0.185275       9.185849       0.136040       2.514725       0.174155       0.218536       6.279028       3.211343       8.661285       7.993433       7.385340       7.176035       2.412194      78.422823       0.435849     140.339603
         1513.5     100.281631     885.396490      41.256864     107.748844      17.593815       0.179793       9.198146       0.130922       2.427640       0.173926       0.212213       6.241793       3.226643       8.683346       9.088448       8.408156       8.176728       2.412587      77.528174       0.448146     122.298328
         1514.0     100.283318     806.180189      43.061411     106.984549      17.592608       0.174550       9.229374       0.127411       2.370518       0.180165       0.212538       6.171778       3.179275       8.718812       9.257390       8.582753       8.355876       2.401917      77.574070       0.479374     119.709371
         1514.5     100.295683     878.348960      45.441984     107.894879      17.644358       0.168517       9.289998       0.124159       2.344991       0.186756       0.215638       6.059529       3.124966       8.767076       9.487304       8.819877       8.597802       2.390648      78.012782       0.539998     116.312925
         1515.0     100.316723     825.889132      49.212655     110.495820      16.157430       0.164231       9.363926       0.125337       2.400296       0.186692       0.219602       5.906063       3.107466       8.834716       8.979194       8.375400       8.175954       2.390757      78.573680       0.613926     122.389758
         1515.5     100.270978     796.842591      56.505429     114.772001      12.726845       0.162666       9.459439       0.131533       2.535154       0.178052       0.223840       5.816981       3.127736       8.932024       7.375481       6.905772       6.751110       2.405531      79.173405       0.709439     149.027107
         1516.0     100.414588     840.166911      66.232656     120.468809       8.749977       0.166250       9.664502       0.137490       2.655376       0.164918       0.229125       5.647057       3.586006       9.078188       5.297506       4.981217       4.876771       2.427991      79.921134       0.914502     207.221651
         1516.5     100.281965     865.024459      76.347431     127.205336       6.761900       0.180001       9.884446       0.137124       2.740230       0.152439       0.237885       5.421743       3.618192       9.214294       4.255691       4.020861       3.942409       2.449330      81.160695       1.134446     253.652093
         1517.0     100.300334     848.125068      88.874593     135.117399       6.603873       0.205153      10.060828       0.126569       2.797694       0.142301       0.254260       5.817399       3.876061       9.394398       4.287375       4.070863       3.996814       2.466665      83.477740       1.310828     250.217845
         1517.5     100.398710     824.257493     105.593242     143.340904       5.565651       0.237260      10.231562       0.103841       2.861526       0.137116       0.280815       5.637104       5.002202       9.702578       3.732916       3.562170       3.501484       2.475532      87.235351       1.481562     286.417971
         1518.0     100.365721     823.320975     123.888983     150.373562       4.745010       0.268886      10.362241       0.075038       2.990896       0.134564       0.314534       4.038913       5.125596       9.925221       3.282565       3.148765       3.098165       2.479896      92.006497       1.612241     322.860605
         1518.5     100.309761     805.467745     136.116544     154.945067       4.316968       0.294685      10.449944       0.048550       3.073307       0.135329       0.346827       3.019284       3.645397       9.993135       3.067355       2.957366       2.911540       2.478587      96.576056       1.699944     343.510524
         1519.0     100.291218     836.065462     138.015103     157.009906       4.139874       0.314874      10.520815       0.034166       3.102852       0.135425       0.369665       2.587638       3.854770      10.043664       3.015086       2.921413       2.875780       2.478424      99.807669       1.770815     347.733491
         1519.5     100.306122     850.328338     134.680943     157.148680       4.214195       0.327164      10.604433       0.034922       3.122024       0.133845       0.378822       3.157829       3.860375      10.090351       3.139533       3.056241       3.010147       2.481125     101.103244       1.854433     332.344750
