~Version Information
VERS .            2.00                          : CWLS Log ASCII Standard - Version 2.00
WRAP .            NO                            : One line per depth step
#
~Well Information
#MNEM.UNIT        DATA                          : DESCRIPTION
#----.----        ----                          : -----------
STRT .F            420.0                        : Start
STOP .F           5890.0                        : Stop
STEP .F              0.5                        : Step increment
NULL .            -999.250                      : Null value
COMP .            NEWARK E&P OPERATING, LLC     : Company
WELL .            RICHARDS RANCH #N35           : Well
FLD  .            KRS (MARBLE FALLS)            : Field
PROV .            JACK                          : Province
CTRY .            United States                 : State / Country
LOC  .            560' FWL & 485' FSL OF        : Location
LOC2 .            N ATKINSON SURVEY, A-17       : Location 2
SRVC .            Weatherford                   : Service company
API  .		  42237401620000		: API Number
UWI  .            42237401620000                : Unique Well ID
LATI .            33.087108                     : Latitude
LONG .            -98.140917                    : Longitude
DATE .            16-Sep-2014                   : Logging Date
#
~Curve Information
#MNEM.UNIT        API CODES                     : CURVE DESCRIPTION
#----.----        ---------                     : -----------------
DEPT .F           00 001 00 00                  : Logged depth
CGXT .DEGF        30 660 01 00                  : MCG External Temperature
SMTU .LB          30 635 00 00                  : DST Uphole Tension
GRGC .GAPI        30 310 01 00                  : Gamma Ray
SPCG .MV          30 010 00 00                  : Spontaneous Potential
FEFE .OHMM        10 220 06 00                  : Shallow FE
NPRL .V/V         42 890 01 00                  : Limestone Neutron Por.
CLDC .IN          45 280 01 00                  : Density Caliper
DCOR .G/C3        42 356 01 00                  : Density Correction
PDPE .B/E         45 358 01 00                  : PE
DPRL .V/V         45 890 10 00                  : Limestone Density Por.
SPRL .V/V         61 890 20 00                  : Wyllie Lime. Sonic Por.
MNRL .OHMM        15 252 00 00                  : MMR MicroLog Normal
MINV .OHMM        15 250 00 00                  : MMR MicroLog Inverse
MBTC .IN          15 280 01 00                  : MMR Caliper
R40O .OHMM        07 120 44 00                  : Array Ind. One Res 40
R60O .OHMM        07 120 44 00                  : Array Ind. One Res 60
RTAO .OHMM        07 120 44 00                  : Array Ind. One Res Rt
DEN  .G/C3        42 350 01 00                  : Compensated Density
DT35 .----        60 520 32 00                  : 3-5' Compensated Sonic
DFCL .IN          00 000 00 00                  : Differential Caliper
CTAO .----        07 120 44 00                  : Array Ind. One Cond Ct
#
~Parameter Information
#MNEM.UNIT        VALUE                         : DESCRIPTION
#----.----        -----                         : -----------
RNID .            5 INCH MAIN PASS              : Run ID
SON  .            7055-98027334                 : Job Number
DREF .            KB                            : Depth reference
EREF .F              1140.000                   : Elevation of depth reference
GL   .F              1128.000                   : Ground elevation
RUN  .            ONE                           : Run number
TDD  .F              5900.000                   : TD (driller)
TDL  .F              5892.000                   : TD (logger)
BS   .IN                8.750                   : Bit size
TIMC .                                          : Time circulation ended
TIML .                                          : Time logger at bottom
UNIT .              13039                       : Equipment ID
BASE .            OKC                           : Equipment base location
ENG  .            JUSTIN HICKS                  : Recording engineer
WIT  .            BEAU BEREND                   : Witnessed by
CSGT .            SURFACE                       : Casing type
CSGS .IN                9.625                   : Casing size
CSGW .LB/FT            35.997                   : Casing weight
CSGD .F               423.000                   : Casing bottom (driller)
CSGL .F               422.000                   : Casing bottom (logger)
CSUP .F           -999999.000                   : Casing Stick Up GL
MUD  .            WBM                           : Mud type
MUDS .            MUD PIT                       : Mud sample source
MUDD .LB/G              9.600                   : Mud density
MUDV .SEC/QT           45.000                   : Mud viscosity
PH   .                  9.800                   : Mud pH
FL   .ML/30MIN         10.800                   : Mud fluid loss rate
RM   .OHMM              1.800                   : Mud resistivity
RMT  .DEGF             92.000                   : Mud sample temperature
RMF  .OHMM              1.440                   : Mud filtrate resistivity
RMFT .DEGF             92.000                   : Mud filtrate sample temperature
RMC  .OHMM              2.160                   : Mud cake resistivity
RMCT .DEGF             92.000                   : Mud cake sample temperature
TMAX .DEGF            146.000                   : Max recorded temperature
#
~Other Information
----------------------------------------------------------------------------------------------------------
TOOLS RAN: CBH, SHA, MCG, MMR, MDN, MPD, MFE, MIM, MIE, MSS, MAI RAN IN COMBINATION.
HARDWARE USED:     
MSS: THREE 0.5 INCH STANDOFFS.  
                
                                
2.71 G/CC DENSITY MATRIX USED TO CALCULATE POROSITY.
ALL INTERVALS LOGGED AND SCALED PER CUSTOMER'S REQUEST.
TOTAL HOLE VOLUME FROM TD TO SURFACE CASING = 2840 CU.FT.
ANNULAR HOLE VOLUME WITH 5.5 INCH PRODUCTION CASING FROM TD TO SURFACE CASING = 1942 CU.FT. 
FIELD TICKET NUMBER: 7055-98027334
RIG:  DOUBLE K, RIG #6
OPERATOR(S):  C. SANFORD
MUD PROPERTIES:     
CHLORIDES: 1200 MG/L
LCM: NONE
*HOLE WASHOUTS AND RUGOSITY WILL AFFECT LOG QUALITY AND REPEATABILITY.*                                   
----------------------------------------------------------------------------------------------------------
#
#          DEPT           CGXT           SMTU           GRGC           SPCG           FEFE           NPRL           CLDC           DCOR           PDPE           DPRL           SPRL           MNRL           MINV           MBTC           R40O           R60O           RTAO           DEN            DT35           DFCL           CTAO
#
~ASCII Log Data
# ...
         2232.5     106.402406     962.279990     142.107019     169.081162       4.685174       0.301608      10.063899       0.099032       3.332428       0.097192       0.342978       2.766464       3.156410       9.901672       3.598457       3.597161       3.596418       2.543802      96.031446       1.313899     278.055508
         2233.0     106.385178     990.795277     147.208750     169.678708       4.639364       0.298935      10.119289       0.079470       3.396330       0.099332       0.344839       3.231575       2.716056       9.901739       3.565107       3.564831       3.564673       2.540142      96.294743       1.369289     280.531077
         2233.5     106.378709     978.554481     146.930458     170.186299       4.746312       0.300297      10.125724       0.067906       3.415845       0.097261       0.343753       3.148895       2.963171       9.906448       3.660868       3.661392       3.661467       2.543683      96.141071       1.375724     273.149596
         2234.0     106.306870     996.657112     140.683383     170.220866       4.774542       0.308302      10.194963       0.077223       3.394196       0.093613       0.340876       2.986120       2.711687       9.954955       3.695370       3.696436       3.696589       2.549922      95.733917       1.444963     270.521457
         2234.5     106.327695    1013.494965     131.354232     170.075613       4.695488       0.319217      10.319459       0.093207       3.235914       0.094161       0.333939       2.829577       2.353530      10.024337       3.646685       3.647871       3.648042       2.548985      94.752299       1.569459     274.119678
         2235.0     106.341127     999.770009     126.178498     170.317784       4.918105       0.322191      10.260622       0.089501       3.074737       0.100913       0.321479       2.924167       2.410043      10.030836       3.830047       3.831033       3.831175       2.537440      92.989299       1.510622     261.287599
         2235.5     106.368400     940.499945     127.327891     171.128442       5.753434       0.308084      10.165561       0.061109       2.948322       0.105862       0.302811       3.933730       4.875130      10.013104       4.483434       4.483739       4.483782       2.528976      90.347822       1.415561     223.433386
         2236.0     106.450591    1012.106432     131.291826     171.963036       5.950070       0.283727      10.153840       0.029693       2.921553       0.104314       0.286541       3.842561       4.707142      10.004604       4.635582       4.634613       4.634053       2.531623      88.045563       1.403840     215.794922
         2236.5     106.358891     988.036692     133.940859     171.338433       5.967608       0.263302      10.152283       0.022769       2.973305       0.101756       0.284152       3.565131       4.925573      10.005662       4.628322       4.625713       4.624211       2.535997      87.707502       1.402283     216.254458
         2237.0     106.447640     980.972583     135.528802     168.907700       5.626990       0.263709      10.275838       0.050331       3.021889       0.105197       0.298861       3.425943       4.303778      10.055347       4.339730       4.335638       4.333296       2.530113      89.788764       1.525838     231.616611
         2237.5     106.461980     975.082179     136.960374     166.132368       4.521680       0.286838      10.521849       0.101210       3.101759       0.110819       0.325768       2.749917       2.055835      10.144385       3.455718       3.451167       3.448585       2.520500      93.596104       1.771849     291.224221
         2238.0     106.362377     996.801689     138.324951     164.385847       4.194174       0.313009      10.738256       0.140725       3.221054       0.117754       0.350713       2.199997       1.850364      10.186076       3.169193       3.163967       3.161027       2.508641      97.125889       1.988256     316.354550
         2238.5     106.410559     959.948681     137.710162     164.466123       4.286880       0.325621      10.950423       0.161887       3.292331       0.119063       0.365329       2.241524       1.884096      10.178805       3.205739       3.199678       3.196293       2.506402      99.194036       2.200423     312.884322
         2239.0     106.480637    1008.706624     135.960100     165.360214       4.346748       0.322246      10.985124       0.175604       3.304057       0.113276       0.370200       2.425408       1.745638      10.164884       3.228692       3.222150       3.218514       2.516298      99.883358       2.235124     310.724169
         2239.5     106.457226     935.852714     135.656337     166.316198       4.383531       0.317123      10.894575       0.190502       3.217503       0.102264       0.367883       2.376152       1.901470      10.103722       3.239063       3.232403       3.228716       2.535129      99.555497       2.144575     309.738892
         2240.0     106.456373     992.752166     137.200796     167.437786       4.611825       0.319687      10.672463       0.195821       3.122184       0.092111       0.359321       2.706180       2.075848       9.969455       3.399944       3.393200       3.389470       2.552490      98.343986       1.922463     295.142213
         2240.5     106.410211     939.734526     142.515993     168.919841       4.784804       0.322189      10.415792       0.174831       3.164923       0.087724       0.348955       3.063996       2.886437       9.866277       3.525258       3.518771       3.515181       2.559991      96.877102       1.665792     284.484490
         2241.0     106.385215     985.457060     146.423586     170.250549       4.836474       0.320491      10.321261       0.146621       3.224880       0.084726       0.341153       3.109292       3.229193       9.846657       3.565321       3.559427       3.556161       2.565118      95.773196       1.571261     281.202239
         2241.5     106.436728     972.079551     145.764782     171.062361       4.808337       0.315239      10.228222       0.126198       3.291600       0.090915       0.336859       3.318067       3.137091       9.827817       3.552785       3.547607       3.544731       2.554535      95.165582       1.478222     282.109227
         2242.0     106.468952     928.749272     141.365299     172.140801       4.783347       0.308467      10.115129       0.115572       3.343095       0.098517       0.335870       3.226928       2.954021       9.780724       3.544977       3.540433       3.537902       2.541536      95.025633       1.365129     282.657942
         2242.5     106.438676     980.987225     136.124778     173.386866       4.814592       0.307311       9.991765       0.099394       3.329817       0.105673       0.336363       3.374810       3.493350       9.722387       3.576660       3.572579       3.570301       2.529299      95.095365       1.241765     280.088660
         2243.0     106.450268     967.146222     135.868618     173.967770       4.965396       0.309996       9.896675       0.077242       3.265147       0.107315       0.337757       3.292636       3.846651       9.679840       3.696432       3.692565       3.690401       2.526492      95.292632       1.146675     270.979033
         2243.5     106.420028     976.373557     139.234264     173.219821       4.873358       0.312497       9.788167       0.056950       3.254720       0.102902       0.337967       3.509544       3.502974       9.640007       3.635245       3.631669       3.629664       2.534037      95.322322       1.038167     275.508963
         2244.0     106.451295     993.391489     139.078559     172.256952       4.813279       0.314068       9.698331       0.040851       3.306366       0.097722       0.334571       3.064194       3.908713       9.609672       3.590661       3.587290       3.585399       2.542896      94.841792       0.948331     278.912064
         2244.5     106.484599    1016.991555     136.856702     171.294904       4.961337       0.315124       9.661512       0.043167       3.296325       0.083664       0.329070       2.902502       3.866250       9.603626       3.699672       3.696394       3.694554       2.566934      94.063368       0.911512     270.669340
