~Version Information
VERS .            2.00                          : CWLS Log ASCII Standard - Version 2.00
WRAP .            NO                            : One line per depth step
#
~Well Information
#MNEM.UNIT        DATA                          : DESCRIPTION
#----.----        ----                          : -----------
STRT .F            420.0                        : Start
STOP .F           5890.0                        : Stop
STEP .F              0.5                        : Step increment
NULL .            -999.250                      : Null value
COMP .            NEWARK E&P OPERATING, LLC     : Company
WELL .            RICHARDS RANCH #N35           : Well
FLD  .            KRS (MARBLE FALLS)            : Field
PROV .            JACK                          : Province
CTRY .            United States                 : State / Country
LOC  .            560' FWL & 485' FSL OF        : Location
LOC2 .            N ATKINSON SURVEY, A-17       : Location 2
SRVC .            Weatherford                   : Service company
API  .		  42237401620000		: API Number
UWI  .            42237401620000                : Unique Well ID
LATI .            33.087108                     : Latitude
LONG .            -98.140917                    : Longitude
DATE .            16-Sep-2014                   : Logging Date
#
~Curve Information
#MNEM.UNIT        API CODES                     : CURVE DESCRIPTION
#----.----        ---------                     : -----------------
DEPT .F           00 001 00 00                  : Logged depth
CGXT .DEGF        30 660 01 00                  : MCG External Temperature
SMTU .LB          30 635 00 00                  : DST Uphole Tension
GRGC .GAPI        30 310 01 00                  : Gamma Ray
SPCG .MV          30 010 00 00                  : Spontaneous Potential
FEFE .OHMM        10 220 06 00                  : Shallow FE
NPRL .V/V         42 890 01 00                  : Limestone Neutron Por.
CLDC .IN          45 280 01 00                  : Density Caliper
DCOR .G/C3        42 356 01 00                  : Density Correction
PDPE .B/E         45 358 01 00                  : PE
DPRL .V/V         45 890 10 00                  : Limestone Density Por.
SPRL .V/V         61 890 20 00                  : Wyllie Lime. Sonic Por.
MNRL .OHMM        15 252 00 00                  : MMR MicroLog Normal
MINV .OHMM        15 250 00 00                  : MMR MicroLog Inverse
MBTC .IN          15 280 01 00                  : MMR Caliper
R40O .OHMM        07 120 44 00                  : Array Ind. One Res 40
R60O .OHMM        07 120 44 00                  : Array Ind. One Res 60
RTAO .OHMM        07 120 44 00                  : Array Ind. One Res Rt
DEN  .G/C3        42 350 01 00                  : Compensated Density
DT35 .----        60 520 32 00                  : 3-5' Compensated Sonic
DFCL .IN          00 000 00 00                  : Differential Caliper
CTAO .----        07 120 44 00                  : Array Ind. One Cond Ct
#
~Parameter Information
#MNEM.UNIT        VALUE                         : DESCRIPTION
#----.----        -----                         : -----------
RNID .            5 INCH MAIN PASS              : Run ID
SON  .            7055-98027334                 : Job Number
DREF .            KB                            : Depth reference
EREF .F              1140.000                   : Elevation of depth reference
GL   .F              1128.000                   : Ground elevation
RUN  .            ONE                           : Run number
TDD  .F              5900.000                   : TD (driller)
TDL  .F              5892.000                   : TD (logger)
BS   .IN                8.750                   : Bit size
TIMC .                                          : Time circulation ended
TIML .                                          : Time logger at bottom
UNIT .              13039                       : Equipment ID
BASE .            OKC                           : Equipment base location
ENG  .            JUSTIN HICKS                  : Recording engineer
WIT  .            BEAU BEREND                   : Witnessed by
CSGT .            SURFACE                       : Casing type
CSGS .IN                9.625                   : Casing size
CSGW .LB/FT            35.997                   : Casing weight
CSGD .F               423.000                   : Casing bottom (driller)
CSGL .F               422.000                   : Casing bottom (logger)
CSUP .F           -999999.000                   : Casing Stick Up GL
MUD  .            WBM                           : Mud type
MUDS .            MUD PIT                       : Mud sample source
MUDD .LB/G              9.600                   : Mud density
MUDV .SEC/QT           45.000                   : Mud viscosity
PH   .                  9.800                   : Mud pH
FL   .ML/30MIN         10.800                   : Mud fluid loss rate
RM   .OHMM              1.800                   : Mud resistivity
RMT  .DEGF             92.000                   : Mud sample temperature
RMF  .OHMM              1.440                   : Mud filtrate resistivity
RMFT .DEGF             92.000                   : Mud filtrate sample temperature
RMC  .OHMM              2.160                   : Mud cake resistivity
RMCT .DEGF             92.000                   : Mud cake sample temperature
TMAX .DEGF            146.000                   : Max recorded temperature
#
~Other Information
----------------------------------------------------------------------------------------------------------
TOOLS RAN: CBH, SHA, MCG, MMR, MDN, MPD, MFE, MIM, MIE, MSS, MAI RAN IN COMBINATION.
HARDWARE USED:     
MSS: THREE 0.5 INCH STANDOFFS.  
                
                                
2.71 G/CC DENSITY MATRIX USED TO CALCULATE POROSITY.
ALL INTERVALS LOGGED AND SCALED PER CUSTOMER'S REQUEST.
TOTAL HOLE VOLUME FROM TD TO SURFACE CASING = 2840 CU.FT.
ANNULAR HOLE VOLUME WITH 5.5 INCH PRODUCTION CASING FROM TD TO SURFACE CASING = 1942 CU.FT. 
FIELD TICKET NUMBER: 7055-98027334
RIG:  DOUBLE K, RIG #6
OPERATOR(S):  C. SANFORD
MUD PROPERTIES:     
CHLORIDES: 1200 MG/L
LCM: NONE
*HOLE WASHOUTS AND RUGOSITY WILL AFFECT LOG QUALITY AND REPEATABILITY.*                                   
----------------------------------------------------------------------------------------------------------
#
#          DEPT           CGXT           SMTU           GRGC           SPCG           FEFE           NPRL           CLDC           DCOR           PDPE           DPRL           SPRL           MNRL           MINV           MBTC           R40O           R60O           RTAO           DEN            DT35           DFCL           CTAO
#
~ASCII Log Data
# ...
         2595.0     109.700533    1067.522847     134.218452     173.464842       4.861561       0.278756       9.834959       0.059408       3.249969       0.094750       0.315564       2.932332       3.003191       9.726364       3.586178       3.579658       3.575909       2.547977      92.152290       1.084959     279.720115
         2595.5     109.738381    1065.493255     132.033081     174.123861       5.214520       0.277377       9.791132       0.044829       3.402494       0.092017       0.313829       2.861661       4.514965       9.722315       3.849370       3.843103       3.839492       2.552650      91.906773       1.041132     260.564615
         2596.0     109.739483    1033.342631     129.604072     175.102683       5.288042       0.284681       9.768271       0.026515       3.444469       0.091987       0.310468       2.941092       4.039522       9.718062       3.910714       3.905092       3.901846       2.552702      91.431253       1.018271     256.290332
         2596.5     109.691621    1099.147150     126.809277     175.845841       5.374816       0.294194       9.759372       0.016231       3.420196       0.088880       0.306609       2.660755       4.082199       9.717624       3.986247       3.981204       3.978285       2.558015      90.885177       1.009372     251.372955
         2597.0     109.710472    1047.269833     128.081185     176.096103       5.345776       0.297553       9.764136       0.012705       3.433136       0.084137       0.303011       3.237388       4.465789       9.726098       3.977925       3.973415       3.970797       2.566126      90.375998       1.014136     251.838612
         2597.5     109.667925    1069.037046     131.807120     175.888182       5.380757       0.297388       9.765167       0.012643       3.505375       0.079782       0.300897       2.897491       4.137407       9.736231       4.016600       4.012378       4.009922       2.573572      90.076872       1.015167     249.382882
         2598.0     109.704435    1055.576951     135.234009     175.483442       5.378822       0.299958       9.768987       0.019710       3.533786       0.078446       0.302191       2.972102       4.227497       9.738145       4.029094       4.024938       4.022516       2.575858      90.259966       1.018987     248.605849
         2598.5     109.645295    1073.494606     137.543924     175.005976       5.343899       0.305350       9.785293       0.036635       3.438511       0.080550       0.306159       2.927849       4.348110       9.738082       4.017238       4.012965       4.010469       2.572260      90.821547       1.035293     249.347403
         2599.0     109.753574    1042.552328     141.266557     174.259301       5.246162       0.310171       9.812549       0.063358       3.339720       0.080906       0.311832       2.928066       4.181735       9.737967       3.953113       3.948573       3.945918       2.571651      91.624218       1.062549     253.462051
         2599.5     109.822118    1059.765755     142.512065     173.017281       5.178129       0.310507       9.832743       0.087595       3.286981       0.078508       0.317187       2.844531       4.135874       9.734574       3.907800       3.902855       3.899961       2.575751      92.381905       1.082743     256.413786
         2600.0     109.699781    1039.609230     139.845312     171.456149       5.249572       0.304040       9.844105       0.097785       3.377995       0.072970       0.320525       2.958607       4.141792       9.721905       3.962100       3.956547       3.953299       2.585221      92.854288       1.094105     252.956404
         2600.5     109.693684    1120.847924     134.120051     170.339189       5.250464       0.293504       9.843566       0.092840       3.447081       0.068966       0.322165       2.948463       3.817920       9.712368       3.960961       3.954874       3.951317       2.592067      93.086355       1.093566     253.084696
         2601.0     109.671436    1100.933890     134.632089     170.546487       5.277997       0.283436       9.801911       0.076032       3.408631       0.069430       0.321581       3.387211       3.739277       9.711921       3.979773       3.973203       3.969366       2.591274      93.003737       1.051911     251.941626
         2601.5     109.851364    1100.121106     141.497437     170.944402       5.341898       0.278582       9.765266       0.054544       3.327924       0.076534       0.319433       2.778762       4.068812       9.711813       4.022500       4.015539       4.011477       2.579127      92.699738       1.015266     249.285769
         2602.0     109.728149    1046.549920     145.170891     171.170786       5.279169       0.283645       9.779911       0.045939       3.258053       0.082295       0.317054       2.882244       3.956622       9.711065       3.967994       3.961030       3.956973       2.569275      92.363136       1.029911     252.763088
         2602.5     109.722568    1085.515582     144.166637     170.691854       5.195842       0.294911       9.818353       0.056870       3.274341       0.079291       0.315769       3.058944       4.087115       9.709780       3.895555       3.888879       3.884996       2.574412      92.181353       1.068353     257.401451
         2603.0     109.767722    1040.779242     140.351541     169.781331       5.085761       0.302670       9.843868       0.068931       3.254581       0.074587       0.316272       3.330880       3.497076       9.722552       3.804501       3.798450       3.794936       2.582457      92.252437       1.093868     263.549019
         2603.5     109.764962    1043.152312     139.942593     168.817081       5.101917       0.304763       9.855683       0.065085       3.216577       0.075264       0.318694       2.750130       4.037052       9.745507       3.804315       3.799084       3.796050       2.581298      92.595153       1.105683     263.432409
         2604.0     109.777375    1064.890891     140.345539     168.136591       5.119775       0.306547       9.880463       0.044092       3.308817       0.084914       0.323669       2.964810       3.534303       9.756550       3.804961       3.800925       3.798586       2.564797      93.299094       1.130463     263.256272
         2604.5     109.788063    1098.968452     138.353557     167.411254       5.153287       0.310951       9.932387       0.046433       3.472589       0.085961       0.330943       3.064531       3.511239       9.762569       3.819616       3.817168       3.815749       2.563007      94.328460       1.182387     262.075889
         2605.0     109.823020    1088.430744     136.910511     166.961816       5.134501       0.317810      10.005670       0.082426       3.529326       0.079908       0.337937       2.981163       2.950639       9.764097       3.795938       3.795471       3.795200       2.573357      95.318074       1.255670     263.498613
         2605.5     109.786031    1075.439610     137.057579     166.704532       4.979832       0.327860      10.032908       0.117645       3.512651       0.077699       0.340759       2.868840       2.438247       9.746498       3.677073       3.678892       3.679158       2.577134      95.717428       1.282908     271.804662
         2606.0     109.776848    1071.021874     138.767210     166.539459       4.997199       0.338322      10.028746       0.130395       3.429731       0.081328       0.339062       2.913502       2.459803       9.733839       3.691810       3.696187       3.696851       2.570929      95.477228       1.278746     270.500523
         2606.5     109.867382    1020.989189     140.264249     166.949727       5.046561       0.345311      10.089481       0.122576       3.347356       0.085945       0.333903       3.075525       3.190718       9.770049       3.736230       3.743446       3.744582       2.563033      94.747320       1.339481     267.055371
         2607.0     109.786794    1078.709355     137.285526     167.274283       4.934264       0.341554      10.116419       0.116932       3.353652       0.080926       0.327676       2.904956       2.796229       9.810219       3.667184       3.677069       3.678676       2.571616      93.866103       1.366419     271.841368
