~Version Information
VERS .            2.00                          : CWLS Log ASCII Standard - Version 2.00
WRAP .            NO                            : One line per depth step
#
~Well Information
#MNEM.UNIT        DATA                          : DESCRIPTION
#----.----        ----                          : -----------
STRT .F            420.0                        : Start
STOP .F           5890.0                        : Stop
STEP .F              0.5                        : Step increment
NULL .            -999.250                      : Null value
COMP .            NEWARK E&P OPERATING, LLC     : Company
WELL .            RICHARDS RANCH #N35           : Well
FLD  .            KRS (MARBLE FALLS)            : Field
PROV .            JACK                          : Province
CTRY .            United States                 : State / Country
LOC  .            560' FWL & 485' FSL OF        : Location
LOC2 .            N ATKINSON SURVEY, A-17       : Location 2
SRVC .            Weatherford                   : Service company
API  .		  42237401620000		: API Number
UWI  .            42237401620000                : Unique Well ID
LATI .            33.087108                     : Latitude
LONG .            -98.140917                    : Longitude
DATE .            16-Sep-2014                   : Logging Date
#
~Curve Information
#MNEM.UNIT        API CODES                     : CURVE DESCRIPTION
#----.----        ---------                     : -----------------
DEPT .F           00 001 00 00                  : Logged depth
CGXT .DEGF        30 660 01 00                  : MCG External Temperature
SMTU .LB          30 635 00 00                  : DST Uphole Tension
GRGC .GAPI        30 310 01 00                  : Gamma Ray
SPCG .MV          30 010 00 00                  : Spontaneous Potential
FEFE .OHMM        10 220 06 00                  : Shallow FE
NPRL .V/V         42 890 01 00                  : Limestone Neutron Por.
CLDC .IN          45 280 01 00                  : Density Caliper
DCOR .G/C3        42 356 01 00                  : Density Correction
PDPE .B/E         45 358 01 00                  : PE
DPRL .V/V         45 890 10 00                  : Limestone Density Por.
SPRL .V/V         61 890 20 00                  : Wyllie Lime. Sonic Por.
MNRL .OHMM        15 252 00 00                  : MMR MicroLog Normal
MINV .OHMM        15 250 00 00                  : MMR MicroLog Inverse
MBTC .IN          15 280 01 00                  : MMR Caliper
R40O .OHMM        07 120 44 00                  : Array Ind. One Res 40
R60O .OHMM        07 120 44 00                  : Array Ind. One Res 60
RTAO .OHMM        07 120 44 00                  : Array Ind. One Res Rt
DEN  .G/C3        42 350 01 00                  : Compensated Density
DT35 .----        60 520 32 00                  : 3-5' Compensated Sonic
DFCL .IN          00 000 00 00                  : Differential Caliper
CTAO .----        07 120 44 00                  : Array Ind. One Cond Ct
#
~Parameter Information
#MNEM.UNIT        VALUE                         : DESCRIPTION
#----.----        -----                         : -----------
RNID .            5 INCH MAIN PASS              : Run ID
SON  .            7055-98027334                 : Job Number
DREF .            KB                            : Depth reference
EREF .F              1140.000                   : Elevation of depth reference
GL   .F              1128.000                   : Ground elevation
RUN  .            ONE                           : Run number
TDD  .F              5900.000                   : TD (driller)
TDL  .F              5892.000                   : TD (logger)
BS   .IN                8.750                   : Bit size
TIMC .                                          : Time circulation ended
TIML .                                          : Time logger at bottom
UNIT .              13039                       : Equipment ID
BASE .            OKC                           : Equipment base location
ENG  .            JUSTIN HICKS                  : Recording engineer
WIT  .            BEAU BEREND                   : Witnessed by
CSGT .            SURFACE                       : Casing type
CSGS .IN                9.625                   : Casing size
CSGW .LB/FT            35.997                   : Casing weight
CSGD .F               423.000                   : Casing bottom (driller)
CSGL .F               422.000                   : Casing bottom (logger)
CSUP .F           -999999.000                   : Casing Stick Up GL
MUD  .            WBM                           : Mud type
MUDS .            MUD PIT                       : Mud sample source
MUDD .LB/G              9.600                   : Mud density
MUDV .SEC/QT           45.000                   : Mud viscosity
PH   .                  9.800                   : Mud pH
FL   .ML/30MIN         10.800                   : Mud fluid loss rate
RM   .OHMM              1.800                   : Mud resistivity
RMT  .DEGF             92.000                   : Mud sample temperature
RMF  .OHMM              1.440                   : Mud filtrate resistivity
RMFT .DEGF             92.000                   : Mud filtrate sample temperature
RMC  .OHMM              2.160                   : Mud cake resistivity
RMCT .DEGF             92.000                   : Mud cake sample temperature
TMAX .DEGF            146.000                   : Max recorded temperature
#
~Other Information
----------------------------------------------------------------------------------------------------------
TOOLS RAN: CBH, SHA, MCG, MMR, MDN, MPD, MFE, MIM, MIE, MSS, MAI RAN IN COMBINATION.
HARDWARE USED:     
MSS: THREE 0.5 INCH STANDOFFS.  
                
                                
2.71 G/CC DENSITY MATRIX USED TO CALCULATE POROSITY.
ALL INTERVALS LOGGED AND SCALED PER CUSTOMER'S REQUEST.
TOTAL HOLE VOLUME FROM TD TO SURFACE CASING = 2840 CU.FT.
ANNULAR HOLE VOLUME WITH 5.5 INCH PRODUCTION CASING FROM TD TO SURFACE CASING = 1942 CU.FT. 
FIELD TICKET NUMBER: 7055-98027334
RIG:  DOUBLE K, RIG #6
OPERATOR(S):  C. SANFORD
MUD PROPERTIES:     
CHLORIDES: 1200 MG/L
LCM: NONE
*HOLE WASHOUTS AND RUGOSITY WILL AFFECT LOG QUALITY AND REPEATABILITY.*                                   
----------------------------------------------------------------------------------------------------------
#
#          DEPT           CGXT           SMTU           GRGC           SPCG           FEFE           NPRL           CLDC           DCOR           PDPE           DPRL           SPRL           MNRL           MINV           MBTC           R40O           R60O           RTAO           DEN            DT35           DFCL           CTAO
#
~ASCII Log Data
# ...
         5120.0     137.957472    1606.972062      82.881025     203.404799      24.326728       0.115032       8.835410       0.013245       2.835430       0.076307       0.128981      15.159802      32.630853       8.754000      16.890911      16.696966      16.547157       2.579516      65.750869       0.085410      60.930298
         5120.5     137.997967    1586.710292      72.020703     202.942382      30.612208       0.086775       8.835418       0.017294       2.761441       0.064528       0.110367      18.371578      51.170123       8.748193      21.118939      20.790322      20.538509       2.599657      63.116868       0.085418      48.695792
         5121.0     138.056531    1533.001584      62.665851     202.438189      27.129550       0.066699       8.845179       0.021469       2.703739       0.059056       0.102770      10.269351      17.710278       8.755058      18.773263      18.397599      18.145019       2.609014      62.041893       0.095179      55.201116
         5121.5     138.047978    1546.238368      56.555405     201.827799      36.233337       0.058968       8.854574       0.023400       2.813245       0.060284       0.101359      19.935672      24.426370       8.772574      23.460623      22.885329      22.638129       2.606914      61.842263       0.104574      44.498413
         5122.0     138.027436    1539.486608      52.370795     201.100677      46.061859       0.059406       8.834461       0.022494       2.920193       0.065346       0.102437      31.842452      31.205904       8.783023      27.711341      26.916179      26.626582       2.598259      61.994837       0.084461      37.615987
         5122.5     138.094527    1544.013862      52.626515     200.397314      40.709383       0.065657       8.811466       0.022512       2.950761       0.069486       0.110956      27.346918      34.095918       8.784431      23.356517      22.593145      22.339487       2.591179      63.200324       0.061466      44.920399
         5123.0     138.087707    1554.317218      61.263436     199.710479      32.966715       0.079833       8.817509       0.027731       2.893977       0.073827       0.134792      44.641772      51.687904       8.792335      18.197394      17.540811      17.333947       2.583755      66.573033       0.067509      60.963460
         5123.5     138.160303    1537.131912      77.178853     198.713585      13.730291       0.106450       8.849737       0.039743       2.846743       0.081670       0.175255       7.091679      10.343625       8.816350       7.588524       7.292954       7.202918       2.570344      72.298535       0.099737     147.900745
         5124.0     138.166675    1567.282974      95.348461     196.882797       7.469575       0.151797       8.912655       0.057619       2.896821       0.101859       0.227006       3.142679       5.047474       8.853825       3.979992       3.816074       3.767038       2.535821      79.621366       0.162655     269.165959
         5124.5     138.193992    1545.154519     109.926291     193.972463       5.304968       0.213208       9.034304       0.091511       2.879018       0.127658       0.284748       2.047052       2.626546       8.902943       2.705600       2.590707       2.556364       2.491704      87.791804       0.284304     394.323296
         5125.0     138.186610    1595.513139     117.934890     190.341598       4.165540       0.279193       9.263519       0.138061       2.815557       0.158145       0.342020       1.621409       1.764545       8.967800       2.039137       1.951926       1.925369       2.439573      95.895812       0.513519     521.721386
         5125.5     138.175532    1592.716257     122.852786     187.157170       3.730115       0.334908       9.541896       0.180352       2.818136       0.189615       0.390043       1.216033       1.134815       9.027654       1.767059       1.692573       1.668467       2.385759     102.691093       0.791896     599.544915
         5126.0     138.188622    1576.298910     124.638435     186.317318       3.663846       0.374444       9.753804       0.207990       2.929387       0.206036       0.414684       1.194364       1.074336       9.109030       1.693964       1.625266       1.600689       2.357679     106.177724       1.003804     624.869105
         5126.5     138.177137    1542.968750     126.188293     187.282721       3.667591       0.405764       9.819358       0.213819       3.092187       0.209267       0.414538       1.180754       1.296860       9.148880       1.669870       1.606212       1.579862       2.352153     106.157166       1.069358     632.967265
         5127.0     138.262733    1555.264721     125.756769     189.199133       3.793568       0.423075       9.660241       0.206097       3.200307       0.197177       0.398444       1.319040       1.199509       9.051362       1.711017       1.651482       1.623243       2.372827     103.879785       0.910241     616.102522
         5127.5     138.205349    1542.899462     125.895220     190.925006       3.906163       0.423787       9.439043       0.193201       3.225353       0.185516       0.384535       1.365539       1.265508       8.946998       1.755722       1.701626       1.675810       2.392768     101.911693       0.689043     596.726585
         5128.0     138.267545    1535.802759     128.167035     192.302766       3.834309       0.403897       9.378417       0.177149       3.180577       0.184846       0.382113       1.342545       1.288171       8.920661       1.723220       1.678229       1.656606       2.393913     101.569014       0.628417     603.787149
         5128.5     138.277056    1578.557495     132.177929     193.780635       3.560526       0.381526       9.373904       0.167387       3.113552       0.184766       0.385753       1.383276       1.240474       8.912677       1.610801       1.577260       1.561008       2.394050     102.083994       0.623904     640.620951
         5129.0     138.305534    1570.247684     139.183684     195.462959       3.508126       0.376851       9.267462       0.157558       3.065127       0.189632       0.391068       1.422846       1.382121       8.896982       1.604363       1.580331       1.568587       2.385730     102.836146       0.517462     637.701295
         5129.5     138.354254    1603.271439     146.850577     197.201240       3.662919       0.382803       9.147658       0.146115       3.026925       0.199328       0.392973       1.628786       1.530927       8.872250       1.702024       1.687092       1.679727       2.369150     103.105697       0.397658     595.586349
         5130.0     138.404466    1583.336375     156.009367     199.100085       4.026340       0.386723       9.076058       0.133216       2.984332       0.205096       0.385728       1.698152       1.693247       8.833442       1.908734       1.904698       1.902692       2.359286     102.080571       0.326058     526.844720
         5130.5     138.390137    1567.933024     161.099463     201.038834       4.832417       0.374440       8.978553       0.111490       2.945312       0.203887       0.368019       2.152093       2.167017       8.809764       2.351021       2.362233       2.363897       2.361353      99.574640       0.228553     425.266023
         5131.0     138.391128    1586.656279     158.911828     202.755784       6.267806       0.344921       8.880789       0.080778       2.900133       0.195225       0.342280       3.020450       4.154459       8.806670       3.133915       3.171171       3.177450       2.376164      95.932607       0.130789     317.099744
         5131.5     138.388467    1604.720731     148.886233     204.212749       7.541314       0.314060       8.844065       0.049680       2.814409       0.187492       0.316623       2.885351       4.005461       8.800740       3.898417       3.972551       3.986362       2.389388      92.302163       0.094065     251.883161
         5132.0     138.339395    1589.616697     136.631095     205.179181       8.912984       0.288002       8.829791       0.031476       2.703958       0.183162       0.291845       3.728411       6.128596       8.784836       4.760992       4.885750       4.911047       2.396794      88.796030       0.079791     204.156940
