~Version Information
VERS .            2.00                          : CWLS Log ASCII Standard - Version 2.00
WRAP .            NO                            : One line per depth step
#
~Well Information
#MNEM.UNIT        DATA                          : DESCRIPTION
#----.----        ----                          : -----------
STRT .F            420.0                        : Start
STOP .F           5890.0                        : Stop
STEP .F              0.5                        : Step increment
NULL .            -999.250                      : Null value
COMP .            NEWARK E&P OPERATING, LLC     : Company
WELL .            RICHARDS RANCH #N35           : Well
FLD  .            KRS (MARBLE FALLS)            : Field
PROV .            JACK                          : Province
CTRY .            United States                 : State / Country
LOC  .            560' FWL & 485' FSL OF        : Location
LOC2 .            N ATKINSON SURVEY, A-17       : Location 2
SRVC .            Weatherford                   : Service company
API  .		  42237401620000		: API Number
UWI  .            42237401620000                : Unique Well ID
LATI .            33.087108                     : Latitude
LONG .            -98.140917                    : Longitude
DATE .            16-Sep-2014                   : Logging Date
#
~Curve Information
#MNEM.UNIT        API CODES                     : CURVE DESCRIPTION
#----.----        ---------                     : -----------------
DEPT .F           00 001 00 00                  : Logged depth
CGXT .DEGF        30 660 01 00                  : MCG External Temperature
SMTU .LB          30 635 00 00                  : DST Uphole Tension
GRGC .GAPI        30 310 01 00                  : Gamma Ray
SPCG .MV          30 010 00 00                  : Spontaneous Potential
FEFE .OHMM        10 220 06 00                  : Shallow FE
NPRL .V/V         42 890 01 00                  : Limestone Neutron Por.
CLDC .IN          45 280 01 00                  : Density Caliper
DCOR .G/C3        42 356 01 00                  : Density Correction
PDPE .B/E         45 358 01 00                  : PE
DPRL .V/V         45 890 10 00                  : Limestone Density Por.
SPRL .V/V         61 890 20 00                  : Wyllie Lime. Sonic Por.
MNRL .OHMM        15 252 00 00                  : MMR MicroLog Normal
MINV .OHMM        15 250 00 00                  : MMR MicroLog Inverse
MBTC .IN          15 280 01 00                  : MMR Caliper
R40O .OHMM        07 120 44 00                  : Array Ind. One Res 40
R60O .OHMM        07 120 44 00                  : Array Ind. One Res 60
RTAO .OHMM        07 120 44 00                  : Array Ind. One Res Rt
DEN  .G/C3        42 350 01 00                  : Compensated Density
DT35 .----        60 520 32 00                  : 3-5' Compensated Sonic
DFCL .IN          00 000 00 00                  : Differential Caliper
CTAO .----        07 120 44 00                  : Array Ind. One Cond Ct
#
~Parameter Information
#MNEM.UNIT        VALUE                         : DESCRIPTION
#----.----        -----                         : -----------
RNID .            5 INCH MAIN PASS              : Run ID
SON  .            7055-98027334                 : Job Number
DREF .            KB                            : Depth reference
EREF .F              1140.000                   : Elevation of depth reference
GL   .F              1128.000                   : Ground elevation
RUN  .            ONE                           : Run number
TDD  .F              5900.000                   : TD (driller)
TDL  .F              5892.000                   : TD (logger)
BS   .IN                8.750                   : Bit size
TIMC .                                          : Time circulation ended
TIML .                                          : Time logger at bottom
UNIT .              13039                       : Equipment ID
BASE .            OKC                           : Equipment base location
ENG  .            JUSTIN HICKS                  : Recording engineer
WIT  .            BEAU BEREND                   : Witnessed by
CSGT .            SURFACE                       : Casing type
CSGS .IN                9.625                   : Casing size
CSGW .LB/FT            35.997                   : Casing weight
CSGD .F               423.000                   : Casing bottom (driller)
CSGL .F               422.000                   : Casing bottom (logger)
CSUP .F           -999999.000                   : Casing Stick Up GL
MUD  .            WBM                           : Mud type
MUDS .            MUD PIT                       : Mud sample source
MUDD .LB/G              9.600                   : Mud density
MUDV .SEC/QT           45.000                   : Mud viscosity
PH   .                  9.800                   : Mud pH
FL   .ML/30MIN         10.800                   : Mud fluid loss rate
RM   .OHMM              1.800                   : Mud resistivity
RMT  .DEGF             92.000                   : Mud sample temperature
RMF  .OHMM              1.440                   : Mud filtrate resistivity
RMFT .DEGF             92.000                   : Mud filtrate sample temperature
RMC  .OHMM              2.160                   : Mud cake resistivity
RMCT .DEGF             92.000                   : Mud cake sample temperature
TMAX .DEGF            146.000                   : Max recorded temperature
#
~Other Information
----------------------------------------------------------------------------------------------------------
TOOLS RAN: CBH, SHA, MCG, MMR, MDN, MPD, MFE, MIM, MIE, MSS, MAI RAN IN COMBINATION.
HARDWARE USED:     
MSS: THREE 0.5 INCH STANDOFFS.  
                
                                
2.71 G/CC DENSITY MATRIX USED TO CALCULATE POROSITY.
ALL INTERVALS LOGGED AND SCALED PER CUSTOMER'S REQUEST.
TOTAL HOLE VOLUME FROM TD TO SURFACE CASING = 2840 CU.FT.
ANNULAR HOLE VOLUME WITH 5.5 INCH PRODUCTION CASING FROM TD TO SURFACE CASING = 1942 CU.FT. 
FIELD TICKET NUMBER: 7055-98027334
RIG:  DOUBLE K, RIG #6
OPERATOR(S):  C. SANFORD
MUD PROPERTIES:     
CHLORIDES: 1200 MG/L
LCM: NONE
*HOLE WASHOUTS AND RUGOSITY WILL AFFECT LOG QUALITY AND REPEATABILITY.*                                   
----------------------------------------------------------------------------------------------------------
#
#          DEPT           CGXT           SMTU           GRGC           SPCG           FEFE           NPRL           CLDC           DCOR           PDPE           DPRL           SPRL           MNRL           MINV           MBTC           R40O           R60O           RTAO           DEN            DT35           DFCL           CTAO
#
~ASCII Log Data
          420.0      93.261558     613.144648      72.392407     237.944027       0.172442       0.449930       9.036144      -0.380268      12.894077       0.462186       0.193712       1.301290       1.664695       4.143114    1154.706662    1154.706662    1154.706662       1.919662      74.910271       0.286144       0.866053
          420.5      93.308344     572.980067      70.132163     234.710646       0.172501       0.419912       9.029495      -0.379472      12.963357       0.453794       0.281245       1.302071       1.666582       4.143319    1126.457729    1126.457729    1126.457729       1.934013      87.296121       0.279495       0.887792
          421.0      93.274304     610.066251      68.483959     227.793944       0.171501       0.406538       9.004234      -0.416201      12.912061       0.444643       0.367883       1.292730       1.662935       4.143441    1092.379544    1092.379544    1092.379544       1.949660      99.555440       0.254234       0.915518
          421.5      93.345041     568.703978      68.664284     213.218721       0.169504       0.402974       8.997210      -0.558831      12.886576       0.486547       0.436946       1.291681       1.659041       4.143570    1059.888220    1059.888220    1059.888220       1.878004     109.327876       0.247210       0.943546
          422.0      93.285507     565.662703      71.255372     190.541667       0.170384       0.393032       9.232450      -0.655198      11.804155       0.514221       0.481500       1.307900       1.669161       4.143741    1078.254236    1078.254236    1078.254236       1.830683     115.632197       0.482450       0.928067
          422.5      93.402273     573.268447      76.143765     165.925880       0.259986       0.377113      10.087225      -0.521005       9.358204       0.448119       0.497246       1.499339       1.714925       4.143849    1240.494570    1240.494570    1240.494570       1.943717     117.860257       1.337225       0.807687
          423.0      93.273517     576.171875      81.489145     145.548432       1.189680       0.372069      11.109224      -0.183870       6.445989       0.315391       0.487753       1.991985       1.736732       4.143957    1534.610152    1534.610152    1534.610152       2.170681     116.517039       2.359224       0.654232
          423.5      93.371474     554.415096      86.949641     133.154643       3.633173       0.391632      11.575949       0.160744       4.121695       0.178140       0.468158       2.131785       1.718968       4.144135    1819.601045    1819.601045    1819.601045       2.405381     113.744362       2.825949       0.550100
          424.0      93.377826     612.396759      94.857538     125.252643       5.594421       0.415731      11.699543       0.261062       3.394777       0.156701       0.458104       2.132788       1.716606       4.144307    1945.835760    1945.835760    1945.835760       2.442042     112.321682       2.949543       0.513971
          424.5      93.263619     581.054688     100.174870     119.481007       6.283103       0.427397      11.850783       0.203699       3.221580       0.192697       0.459191       2.108466       1.716110       4.144498    1864.334797    1864.334797    1864.334797       2.380488     112.475464       3.100783       0.536416
          425.0      93.334273     566.115662     101.386509     115.117940       6.812729       0.419389      12.056171       0.160240       3.148973       0.195001       0.465045       2.112772       1.718213       4.144985    1776.135257    1776.135257    1776.135257       2.376549     113.303893       3.306171       0.563153
          425.5      93.352312     581.277419     100.640445     111.945960       7.729680       0.405370      12.263379       0.138326       3.105959       0.182946       0.465194       2.118807       1.714845       4.145554    1697.503542    1697.503542    1697.503542       2.397163     113.324887       3.513379       0.589104
          426.0      93.428327     572.499528      99.418328     109.685555       8.327163       0.395301      12.408888       0.122022       3.070462       0.160493       0.453670       2.128127       1.711375       4.145902       7.283659       7.558089       7.633217       2.435556     111.694261       3.658888     133.045012
          426.5      93.404181     581.054688     100.416789     108.180761       8.687010       0.386063      12.461649       0.094505       3.029855       0.143297       0.440595       2.133073       1.713792       4.152148       8.896113       9.232796       9.329983       2.464963     109.844141       3.711649     107.183525
          427.0      93.532574     564.404475     101.073758     106.715527       8.588341       0.382564      12.468540       0.057856       2.993788       0.142018       0.431780       2.128177       1.717759       4.206259       9.094394       9.438853       9.539407       2.467150     108.596926       3.718540     104.828385
          427.5      93.353964     567.009993      99.883701     105.203911       8.382163       0.379488      12.483493       0.035677       3.001246       0.140382       0.429315       2.118989       1.721056       4.337548       9.040744       9.383151       9.483480       2.469947     108.248013       3.733493     105.446947
          428.0      93.425452     595.939564      96.285785     103.761257       8.258791       0.373709      12.523709       0.025018       3.012203       0.144268       0.429798       2.112725       1.699138       4.559289       8.937590       9.275977       9.375269       2.463301     108.316448       3.773709     106.665423
          428.5      93.398071     579.645927      92.542364     102.340528       8.499608       0.368162      12.555566       0.019277       2.983538       0.152120       0.426939       2.124910       1.699050       4.829171       8.798826       9.131774       9.229456       2.449876     107.911852       3.805566     108.350600
          429.0      93.495484     600.713395      92.876063     101.483623       8.937669       0.361451      12.585321       0.017396       2.963616       0.158131       0.418754       2.156225       1.707963       5.110910       8.624258       8.950363       9.045904       2.439597     106.753658       3.835321     110.552781
          429.5      93.466772     546.173600      96.885719     100.631339       9.235264       0.352472      12.655047       0.016147       2.989629       0.160258       0.410894       2.166935       1.717140       5.391217       8.421281       8.739416       8.832365       2.435959     105.641535       3.905047     113.225131
          430.0      93.455202     516.995838     101.704727     100.122639       8.714198       0.346729      12.738445       0.014325       3.030984       0.157478       0.410887       2.178941       1.720101       5.672841       8.195406       8.504670       8.594681       2.440713     105.640472       3.988445     116.359362
          430.5      93.421718     532.050659     105.942808      99.946481       8.375885       0.351097      12.798683       0.012617       3.049181       0.152732       0.420255       2.205884       1.722384       5.953051       8.157539       8.464991       8.554053       2.448828     106.966118       4.048683     117.048210
          431.0      93.496717     580.341963     110.330674      99.606709       8.171907       0.360806      12.842433       0.012040       3.058149       0.147335       0.433937       2.227089       1.728264       6.233813       8.524725       8.845600       8.938086       2.458058     108.902147       4.092433     111.890531
          431.5      93.471586     589.919595     115.254557      99.411296       8.085860       0.366437      12.855904       0.012050       3.077247       0.146373       0.446853       2.248886       1.733946       6.514545       8.233052       8.542514       8.631226       2.459702     110.729656       4.105904     115.871377
          432.0      93.511968     576.171875     120.168251      98.990163       7.872489       0.373619      12.862493       0.017804       3.087084       0.147522       0.458730       2.260266       1.733596       6.793647       7.873856       8.169396       8.253678       2.457737     112.410352       4.112493     121.179414
