~Version Information
VERS .            2.00                          : CWLS Log ASCII Standard - Version 2.00
WRAP .            NO                            : One line per depth step
#
~Well Information
#MNEM.UNIT        DATA                          : DESCRIPTION
#----.----        ----                          : -----------
STRT .F            420.0                        : Start
STOP .F           5890.0                        : Stop
STEP .F              0.5                        : Step increment
NULL .            -999.250                      : Null value
COMP .            NEWARK E&P OPERATING, LLC     : Company
WELL .            RICHARDS RANCH #N35           : Well
FLD  .            KRS (MARBLE FALLS)            : Field
PROV .            JACK                          : Province
CTRY .            United States                 : State / Country
LOC  .            560' FWL & 485' FSL OF        : Location
LOC2 .            N ATKINSON SURVEY, A-17       : Location 2
SRVC .            Weatherford                   : Service company
API  .		  42237401620000		: API Number
UWI  .            42237401620000                : Unique Well ID
LATI .            33.087108                     : Latitude
LONG .            -98.140917                    : Longitude
DATE .            16-Sep-2014                   : Logging Date
#
~Curve Information
#MNEM.UNIT        API CODES                     : CURVE DESCRIPTION
#----.----        ---------                     : -----------------
DEPT .F           00 001 00 00                  : Logged depth
CGXT .DEGF        30 660 01 00                  : MCG External Temperature
SMTU .LB          30 635 00 00                  : DST Uphole Tension
GRGC .GAPI        30 310 01 00                  : Gamma Ray
SPCG .MV          30 010 00 00                  : Spontaneous Potential
FEFE .OHMM        10 220 06 00                  : Shallow FE
NPRL .V/V         42 890 01 00                  : Limestone Neutron Por.
CLDC .IN          45 280 01 00                  : Density Caliper
DCOR .G/C3        42 356 01 00                  : Density Correction
PDPE .B/E         45 358 01 00                  : PE
DPRL .V/V         45 890 10 00                  : Limestone Density Por.
SPRL .V/V         61 890 20 00                  : Wyllie Lime. Sonic Por.
MNRL .OHMM        15 252 00 00                  : MMR MicroLog Normal
MINV .OHMM        15 250 00 00                  : MMR MicroLog Inverse
MBTC .IN          15 280 01 00                  : MMR Caliper
R40O .OHMM        07 120 44 00                  : Array Ind. One Res 40
R60O .OHMM        07 120 44 00                  : Array Ind. One Res 60
RTAO .OHMM        07 120 44 00                  : Array Ind. One Res Rt
DEN  .G/C3        42 350 01 00                  : Compensated Density
DT35 .----        60 520 32 00                  : 3-5' Compensated Sonic
DFCL .IN          00 000 00 00                  : Differential Caliper
CTAO .----        07 120 44 00                  : Array Ind. One Cond Ct
#
~Parameter Information
#MNEM.UNIT        VALUE                         : DESCRIPTION
#----.----        -----                         : -----------
RNID .            5 INCH MAIN PASS              : Run ID
SON  .            7055-98027334                 : Job Number
DREF .            KB                            : Depth reference
EREF .F              1140.000                   : Elevation of depth reference
GL   .F              1128.000                   : Ground elevation
RUN  .            ONE                           : Run number
TDD  .F              5900.000                   : TD (driller)
TDL  .F              5892.000                   : TD (logger)
BS   .IN                8.750                   : Bit size
TIMC .                                          : Time circulation ended
TIML .                                          : Time logger at bottom
UNIT .              13039                       : Equipment ID
BASE .            OKC                           : Equipment base location
ENG  .            JUSTIN HICKS                  : Recording engineer
WIT  .            BEAU BEREND                   : Witnessed by
CSGT .            SURFACE                       : Casing type
CSGS .IN                9.625                   : Casing size
CSGW .LB/FT            35.997                   : Casing weight
CSGD .F               423.000                   : Casing bottom (driller)
CSGL .F               422.000                   : Casing bottom (logger)
CSUP .F           -999999.000                   : Casing Stick Up GL
MUD  .            WBM                           : Mud type
MUDS .            MUD PIT                       : Mud sample source
MUDD .LB/G              9.600                   : Mud density
MUDV .SEC/QT           45.000                   : Mud viscosity
PH   .                  9.800                   : Mud pH
FL   .ML/30MIN         10.800                   : Mud fluid loss rate
RM   .OHMM              1.800                   : Mud resistivity
RMT  .DEGF             92.000                   : Mud sample temperature
RMF  .OHMM              1.440                   : Mud filtrate resistivity
RMFT .DEGF             92.000                   : Mud filtrate sample temperature
RMC  .OHMM              2.160                   : Mud cake resistivity
RMCT .DEGF             92.000                   : Mud cake sample temperature
TMAX .DEGF            146.000                   : Max recorded temperature
#
~Other Information
----------------------------------------------------------------------------------------------------------
TOOLS RAN: CBH, SHA, MCG, MMR, MDN, MPD, MFE, MIM, MIE, MSS, MAI RAN IN COMBINATION.
HARDWARE USED:     
MSS: THREE 0.5 INCH STANDOFFS.  
                
                                
2.71 G/CC DENSITY MATRIX USED TO CALCULATE POROSITY.
ALL INTERVALS LOGGED AND SCALED PER CUSTOMER'S REQUEST.
TOTAL HOLE VOLUME FROM TD TO SURFACE CASING = 2840 CU.FT.
ANNULAR HOLE VOLUME WITH 5.5 INCH PRODUCTION CASING FROM TD TO SURFACE CASING = 1942 CU.FT. 
FIELD TICKET NUMBER: 7055-98027334
RIG:  DOUBLE K, RIG #6
OPERATOR(S):  C. SANFORD
MUD PROPERTIES:     
CHLORIDES: 1200 MG/L
LCM: NONE
*HOLE WASHOUTS AND RUGOSITY WILL AFFECT LOG QUALITY AND REPEATABILITY.*                                   
----------------------------------------------------------------------------------------------------------
#
#          DEPT           CGXT           SMTU           GRGC           SPCG           FEFE           NPRL           CLDC           DCOR           PDPE           DPRL           SPRL           MNRL           MINV           MBTC           R40O           R60O           RTAO           DEN            DT35           DFCL           CTAO
#
~ASCII Log Data
# ...
         4757.5     132.776128    1472.984115     104.225346     190.670529       6.320896       0.226482       8.861757       0.052582       3.113348       0.107211       0.239309       4.164078       4.735710       8.645576       4.450748       4.521221       4.535362       2.526669      81.362253       0.111757     221.329037
         4758.0     132.768856    1418.900668     101.727740     191.384855       5.772830       0.217148       8.843708       0.048188       3.434035       0.087256       0.238445       3.550556       4.448249       8.600201       4.155151       4.236316       4.253663       2.560792      81.239933       0.093708     235.170437
         4758.5     132.748069    1453.547702     101.342232     192.197656       5.848701       0.222340       8.823241       0.053377       3.595088       0.066239       0.234203       3.076938       2.853480       8.565163       4.296855       4.395754       4.418135       2.596732      80.639675       0.073241     226.344911
         4759.0     132.821067    1423.756492      99.660263     193.070322       6.338552       0.227696       8.786322       0.048967       3.453704       0.057038       0.220002       4.991542       5.722142       8.534648       4.740628       4.865928       4.895847       2.612466      78.630318       0.036322     204.667287
         4759.5     132.794396    1449.013453      95.747285     193.781318       8.303204       0.218190       8.765647       0.037460       3.175850       0.059738       0.197810       5.970745       9.119032       8.497681       6.301833       6.489134       6.536247       2.607848      75.490050       0.015647     154.052125
         4760.0     132.780164    1450.662659      90.773648     193.944096      11.131296       0.194075       8.765647       0.021743       3.023284       0.069982       0.183254       8.939545      12.907272       8.455071       8.572256       8.853478       8.927686       2.590331      73.430407       0.015647     112.520263
         4760.5     132.760319    1480.832169      85.800550     193.729233      11.324220       0.166023       8.766570       0.017142       2.934264       0.073520       0.188435       9.173999      12.126333       8.416168       8.815518       9.131473       9.218555       2.584281      74.163561       0.016570     108.693393
         4761.0     132.836183    1464.183214      82.063567     193.320796      14.097441       0.145711       8.770907       0.015630       2.890625       0.079072       0.205908      16.395864      26.014015       8.391842      10.906944      11.329919      11.450959       2.574787      76.636027       0.020907      87.442552
         4761.5     132.809674    1467.987850      83.346326     193.406116      12.643354       0.141451       8.775679       0.016960       2.881313       0.083228       0.217240       6.713656       7.654112       8.381381       9.804072      10.212007      10.332546       2.567680      78.239513       0.025679      97.632820
         4762.0     132.807784    1494.086648      87.092347     193.432571       9.047411       0.150421       8.776587       0.020164       2.916193       0.087309       0.212042       4.949096       5.989461       8.371590       7.061950       7.377023       7.472842       2.560702      77.503884       0.026587     133.820875
         4762.5     132.819687    1466.231150      90.280115     193.563694       8.777793       0.165572       8.772126       0.020343       2.948000       0.090725       0.193999       4.551364       5.436779       8.354844       6.866052       7.192465       7.294218       2.554861      74.950858       0.022126     137.273062
         4763.0     132.755950    1442.348779      92.060536     193.463819      10.132434       0.175876       8.747682       0.018636       2.899973       0.091609       0.170052      10.842445      14.205106       8.343315       7.931577       8.331009       8.458118       2.553349      71.562422      -0.002318     118.859416
         4763.5     132.800605    1463.252791      96.532824     193.482587      14.649869       0.177274       8.722907       0.018577       2.779551       0.093797       0.141880      54.230748      46.344595       8.342609      11.425716      12.031051      12.227065       2.549607      67.575963      -0.027093      82.087895
         4764.0     132.782101    1443.366726     103.319287     193.315132      10.236447       0.177479       8.717957       0.024715       2.820046       0.091656       0.116693       5.968480       5.363572       8.342714       8.158534       8.608520       8.756088       2.553268      64.012115      -0.032043     114.315689
         4764.5     132.823432    1487.184869     101.760334     192.578143       9.588561       0.180983       8.679189       0.028271       3.200985       0.089014       0.107617       4.354646       4.760120       8.326419       7.869074       8.315870       8.464606       2.557786      62.727826      -0.070811     118.348873
         4765.0     132.841813    1454.581502      86.486459     190.971898      14.891711       0.178851       8.575056       0.026502       3.536447       0.089819       0.122723       9.344496      11.122055       8.227820      12.415428      13.128863      13.370257       2.556410      64.865370      -0.174944      79.666597
         4765.5     132.821053    1435.781692      62.522173     188.628651      45.825152       0.157200       8.460926       0.030701       3.553432       0.096340       0.148681       8.669462       4.654752       8.068207      36.324712      38.388940      39.100478       2.545259      68.538291      -0.289074      28.447887
         4766.0     132.888981    1464.843750      43.241483     186.305214      96.612308       0.119328       8.388012       0.049450       3.254018       0.107425       0.162526       6.295237       3.097743       7.984042      70.626602      74.494445      75.853202       2.526304      70.497397      -0.361988      13.307420
         4766.5     132.887417    1450.521157      35.250897     184.389614     133.604834       0.082966       8.353961       0.076258       2.896741       0.118892       0.163017       5.764083       2.927592       7.975561      94.289684      99.091240     100.816589       2.506694      70.566969      -0.396039       9.954284
         4767.0     132.836359    1459.792448      34.379509     183.059379     151.085722       0.063808       8.346009       0.093008       2.738618       0.130061       0.169505       6.092831       3.068409       7.988486     106.958678     111.800253     113.587803       2.487596      71.485014      -0.403991       8.805446
         4767.5     132.828358    1449.140316      34.511001     181.669983     162.892857       0.060380       8.345494       0.095937       2.640906       0.140280       0.186136       6.518959       3.244930       8.010415     113.699822     117.996925     119.643271       2.470122      73.838313      -0.404506       8.360053
         4768.0     132.882119    1474.609375      34.907948     180.443415     166.667226       0.061883       8.362924       0.090106       2.511265       0.152390       0.195752       5.978791       2.995263       8.029178     116.761684     120.157513     121.563772       2.449413      75.198850      -0.387076       8.226732
         4768.5     132.784919    1454.234460      35.582482     179.520317     158.811749       0.062326       8.414855       0.084046       2.392186       0.161667       0.189587       5.780117       2.935494       8.044683     111.865186     114.053931     115.205165       2.433550      74.326558      -0.335145       8.683078
         4769.0     132.807352    1457.410137      34.896290     179.325234     153.135472       0.061085       8.463497       0.082268       2.307674       0.163275       0.181415       5.662323       2.886086       8.057948     102.927254     103.949694     104.991753       2.430800      73.170222      -0.286503       9.535632
         4769.5     132.827703    1483.416822      33.592318     179.719580     150.355884       0.059990       8.498264       0.081257       2.254465       0.160212       0.186578       5.713858       2.947330       8.074260      94.432520      94.496120      94.561746       2.436037      73.900762      -0.251736      10.579847
