~Version Information
VERS .            2.00                          : CWLS Log ASCII Standard - Version 2.00
WRAP .            NO                            : One line per depth step
#
~Well Information
#MNEM.UNIT        DATA                          : DESCRIPTION
#----.----        ----                          : -----------
STRT .F            420.0                        : Start
STOP .F           5890.0                        : Stop
STEP .F              0.5                        : Step increment
NULL .            -999.250                      : Null value
COMP .            NEWARK E&P OPERATING, LLC     : Company
WELL .            RICHARDS RANCH #N35           : Well
FLD  .            KRS (MARBLE FALLS)            : Field
PROV .            JACK                          : Province
CTRY .            United States                 : State / Country
LOC  .            560' FWL & 485' FSL OF        : Location
LOC2 .            N ATKINSON SURVEY, A-17       : Location 2
SRVC .            Weatherford                   : Service company
API  .		  42237401620000		: API Number
UWI  .            42237401620000                : Unique Well ID
LATI .            33.087108                     : Latitude
LONG .            -98.140917                    : Longitude
DATE .            16-Sep-2014                   : Logging Date
#
~Curve Information
#MNEM.UNIT        API CODES                     : CURVE DESCRIPTION
#----.----        ---------                     : -----------------
DEPT .F           00 001 00 00                  : Logged depth
CGXT .DEGF        30 660 01 00                  : MCG External Temperature
SMTU .LB          30 635 00 00                  : DST Uphole Tension
GRGC .GAPI        30 310 01 00                  : Gamma Ray
SPCG .MV          30 010 00 00                  : Spontaneous Potential
FEFE .OHMM        10 220 06 00                  : Shallow FE
NPRL .V/V         42 890 01 00                  : Limestone Neutron Por.
CLDC .IN          45 280 01 00                  : Density Caliper
DCOR .G/C3        42 356 01 00                  : Density Correction
PDPE .B/E         45 358 01 00                  : PE
DPRL .V/V         45 890 10 00                  : Limestone Density Por.
SPRL .V/V         61 890 20 00                  : Wyllie Lime. Sonic Por.
MNRL .OHMM        15 252 00 00                  : MMR MicroLog Normal
MINV .OHMM        15 250 00 00                  : MMR MicroLog Inverse
MBTC .IN          15 280 01 00                  : MMR Caliper
R40O .OHMM        07 120 44 00                  : Array Ind. One Res 40
R60O .OHMM        07 120 44 00                  : Array Ind. One Res 60
RTAO .OHMM        07 120 44 00                  : Array Ind. One Res Rt
DEN  .G/C3        42 350 01 00                  : Compensated Density
DT35 .----        60 520 32 00                  : 3-5' Compensated Sonic
DFCL .IN          00 000 00 00                  : Differential Caliper
CTAO .----        07 120 44 00                  : Array Ind. One Cond Ct
#
~Parameter Information
#MNEM.UNIT        VALUE                         : DESCRIPTION
#----.----        -----                         : -----------
RNID .            5 INCH MAIN PASS              : Run ID
SON  .            7055-98027334                 : Job Number
DREF .            KB                            : Depth reference
EREF .F              1140.000                   : Elevation of depth reference
GL   .F              1128.000                   : Ground elevation
RUN  .            ONE                           : Run number
TDD  .F              5900.000                   : TD (driller)
TDL  .F              5892.000                   : TD (logger)
BS   .IN                8.750                   : Bit size
TIMC .                                          : Time circulation ended
TIML .                                          : Time logger at bottom
UNIT .              13039                       : Equipment ID
BASE .            OKC                           : Equipment base location
ENG  .            JUSTIN HICKS                  : Recording engineer
WIT  .            BEAU BEREND                   : Witnessed by
CSGT .            SURFACE                       : Casing type
CSGS .IN                9.625                   : Casing size
CSGW .LB/FT            35.997                   : Casing weight
CSGD .F               423.000                   : Casing bottom (driller)
CSGL .F               422.000                   : Casing bottom (logger)
CSUP .F           -999999.000                   : Casing Stick Up GL
MUD  .            WBM                           : Mud type
MUDS .            MUD PIT                       : Mud sample source
MUDD .LB/G              9.600                   : Mud density
MUDV .SEC/QT           45.000                   : Mud viscosity
PH   .                  9.800                   : Mud pH
FL   .ML/30MIN         10.800                   : Mud fluid loss rate
RM   .OHMM              1.800                   : Mud resistivity
RMT  .DEGF             92.000                   : Mud sample temperature
RMF  .OHMM              1.440                   : Mud filtrate resistivity
RMFT .DEGF             92.000                   : Mud filtrate sample temperature
RMC  .OHMM              2.160                   : Mud cake resistivity
RMCT .DEGF             92.000                   : Mud cake sample temperature
TMAX .DEGF            146.000                   : Max recorded temperature
#
~Other Information
----------------------------------------------------------------------------------------------------------
TOOLS RAN: CBH, SHA, MCG, MMR, MDN, MPD, MFE, MIM, MIE, MSS, MAI RAN IN COMBINATION.
HARDWARE USED:     
MSS: THREE 0.5 INCH STANDOFFS.  
                
                                
2.71 G/CC DENSITY MATRIX USED TO CALCULATE POROSITY.
ALL INTERVALS LOGGED AND SCALED PER CUSTOMER'S REQUEST.
TOTAL HOLE VOLUME FROM TD TO SURFACE CASING = 2840 CU.FT.
ANNULAR HOLE VOLUME WITH 5.5 INCH PRODUCTION CASING FROM TD TO SURFACE CASING = 1942 CU.FT. 
FIELD TICKET NUMBER: 7055-98027334
RIG:  DOUBLE K, RIG #6
OPERATOR(S):  C. SANFORD
MUD PROPERTIES:     
CHLORIDES: 1200 MG/L
LCM: NONE
*HOLE WASHOUTS AND RUGOSITY WILL AFFECT LOG QUALITY AND REPEATABILITY.*                                   
----------------------------------------------------------------------------------------------------------
#
#          DEPT           CGXT           SMTU           GRGC           SPCG           FEFE           NPRL           CLDC           DCOR           PDPE           DPRL           SPRL           MNRL           MINV           MBTC           R40O           R60O           RTAO           DEN            DT35           DFCL           CTAO
#
~ASCII Log Data
# ...
         1145.0      97.303477     740.919011      86.224217     155.539947       7.032672       0.142009      10.536237       0.070440       3.762465       0.086903       0.242968       3.827417       4.769436      10.244488       6.234885       6.428745       6.484686       2.561395      81.879970       1.786237     154.216424
         1145.5      97.292429     731.476699      82.620025     155.653224       8.263927       0.164827      10.626427       0.053810       3.479696       0.096748       0.253278       5.417386       7.213422      10.305769       7.398385       7.623277       7.689522       2.544561      83.338836       1.876427     130.796937
         1146.0      97.266232     783.673539      74.265166     155.126429      10.102746       0.174691      10.695706       0.025839       3.437151       0.093634       0.236300       7.900561      12.260306      10.360419       9.097145       9.365006       9.445316       2.549885      80.936396       1.945706     105.931922
         1146.5      97.379664     746.757840      71.994680     154.529705      10.887506       0.169579      10.758026       0.012579       3.409164       0.079595       0.217709       7.540049      10.805599      10.413764       9.877327      10.156532      10.241443       2.573892      78.305757       2.008026      97.649905
         1147.0      97.331719     780.606455      77.540011     154.255687       9.939765       0.164670      10.855898       0.011975       3.288205       0.073329       0.219533       7.666379      10.061497      10.470576       9.048154       9.292821       9.367832       2.584607      78.563963       2.105898     106.790628
         1147.5      97.375278     721.485718      91.517199     154.181730       7.850953       0.174266      10.966429       0.014068       3.056890       0.091968       0.249196       5.827904       6.810943      10.534823       7.112353       7.296504       7.352929       2.552735      82.761288       2.216429     136.774235
         1148.0      97.373556     777.107259     105.253354     154.331627       6.484174       0.193503      11.106234       0.021833       2.893622       0.116512       0.287065       4.548432       5.407003      10.587207       5.831840       5.976590       6.020686       2.510764      88.119751       2.356234     166.141470
         1148.5      97.322669     743.726399     112.740501     154.201379       5.971078       0.214605      11.247189       0.029764       2.875021       0.134826       0.313436       4.245227       3.929673      10.603346       5.345314       5.473473       5.512139       2.479447      91.851190       2.497189     181.492433
         1149.0      97.419942     791.015625     111.422155     154.038843       5.840758       0.232021      11.237456       0.036338       2.933953       0.133459       0.321163       3.752112       3.448582      10.602919       5.218078       5.339658       5.375901       2.481785      92.944594       2.487456     186.039598
         1149.5      97.339796     756.576498     103.210443     153.817960       6.302675       0.237437      11.124722       0.040280       2.968356       0.115859       0.313189       4.329053       5.218092      10.611917       5.632277       5.760727       5.798540       2.511881      91.816292       2.374722     172.641298
         1150.0      97.337284     746.257305      96.867469     153.882509       6.617698       0.232231      11.062742       0.037363       2.936389       0.103401       0.302227       4.601753       5.978872      10.635440       5.919174       6.052012       6.090648       2.533184      90.265179       2.312742     164.189741
         1150.5      97.336320     742.187500      93.773896     154.034777       6.537377       0.225027      11.031522       0.034290       2.864163       0.098509       0.296355       4.372523       5.945315      10.649342       5.861331       5.991177       6.028540       2.541550      89.434204       2.281522     165.877654
         1151.0      97.335077     732.197822      91.773179     154.002724       6.706902       0.224709      10.992859       0.031806       2.849249       0.100325       0.297567       4.332277       5.583217      10.652981       6.027655       6.159561       6.197189       2.538444      89.605664       2.242859     161.430352
         1151.5      97.351070     752.100904      91.130924     153.917517       7.004860       0.230167      10.985146       0.031802       2.890667       0.103364       0.305539       5.800836       9.149884      10.661712       6.313966       6.450306       6.488958       2.533248      90.733748       2.235146     154.111004
         1152.0      97.402207     717.773438      94.340580     153.976132       6.273351       0.230908      10.981054       0.033115       2.928132       0.109937       0.315880       4.561586       5.587728      10.668801       5.683238       5.803970       5.838038       2.522008      92.197082       2.231054     171.576390
         1152.5      97.399134     756.496757      99.438851     153.568709       5.877125       0.222600      10.957115       0.034424       2.949231       0.119727       0.320113       3.538748       4.936095      10.676153       5.338936       5.449977       5.481194       2.505266      92.795924       2.207115     182.443335
         1153.0      97.361851     748.844106      99.738215     152.503452       6.134388       0.211567      10.948825       0.030562       3.000843       0.129669       0.312514       4.568711       5.767516      10.685634       5.575974       5.688934       5.720593       2.488267      91.720740       2.198825     174.866103
         1153.5      97.295604     766.904496      94.304907     150.869422       6.456912       0.204196      10.978969       0.020553       3.040239       0.135190       0.296911       4.613663       6.207855      10.688800       5.859945       5.975005       6.007128       2.478826      89.512917       2.228969     166.483975
         1154.0      97.445539     748.349771      88.886200     149.769824       6.564107       0.198985      11.031637       0.012226       2.976973       0.132394       0.282390       4.325175       5.391200      10.689050       5.924973       6.037178       6.068310       2.483606      87.458209       2.281637     164.791161
         1154.5      97.434516     733.454166      89.480853     149.437190       6.603410       0.194308      11.074030       0.006694       2.910383       0.128824       0.276666       4.442840       5.635575      10.688932       5.929199       6.037132       6.066838       2.489710      86.648226       2.324030     164.830622
         1155.0      97.508112     750.689405      94.335654     149.996668       6.698779       0.194896      11.118552       0.009968       2.936854       0.124303       0.285085       4.755148       5.769794      10.690283       5.967231       6.071508       6.099894       2.497442      87.839490       2.368552     163.988507
         1155.5      97.387398     774.484339      99.658436     151.113025       6.204803       0.209040      11.167687       0.019127       3.047169       0.122007       0.304773       4.703273       6.041923      10.688338       5.467987       5.559703       5.584307       2.501368      90.625343       2.417687     179.120829
         1156.0      97.347340     731.258718     104.307495     152.157818       5.541502       0.240904      11.161086       0.028760       3.151638       0.123168       0.331704       3.503211       3.941573      10.681643       4.836112       4.914246       4.934864       2.499383      94.436167       2.411086     202.816530
         1156.5      97.353188     751.953125     107.874682     152.478088       5.334872       0.273999      11.218679       0.039065       3.158934       0.126736       0.356858       3.631383       4.596639      10.728249       4.598070       4.669878       4.688489       2.493282      97.995457       2.468679     213.288687
         1157.0      97.480716     755.106941     109.224461     151.772195       5.106541       0.289623      11.464690       0.054010       3.114736       0.132119       0.368009       3.332455       3.643949      10.881652       4.355744       4.421987       4.438869       2.484077      99.573216       2.714690     225.472096
