~Version Information
VERS .            2.00                          : CWLS Log ASCII Standard - Version 2.00
WRAP .            NO                            : One line per depth step
#
~Well Information
#MNEM.UNIT        DATA                          : DESCRIPTION
#----.----        ----                          : -----------
STRT .F            420.0                        : Start
STOP .F           5890.0                        : Stop
STEP .F              0.5                        : Step increment
NULL .            -999.250                      : Null value
COMP .            NEWARK E&P OPERATING, LLC     : Company
WELL .            RICHARDS RANCH #N35           : Well
FLD  .            KRS (MARBLE FALLS)            : Field
PROV .            JACK                          : Province
CTRY .            United States                 : State / Country
LOC  .            560' FWL & 485' FSL OF        : Location
LOC2 .            N ATKINSON SURVEY, A-17       : Location 2
SRVC .            Weatherford                   : Service company
API  .		  42237401620000		: API Number
UWI  .            42237401620000                : Unique Well ID
LATI .            33.087108                     : Latitude
LONG .            -98.140917                    : Longitude
DATE .            16-Sep-2014                   : Logging Date
#
~Curve Information
#MNEM.UNIT        API CODES                     : CURVE DESCRIPTION
#----.----        ---------                     : -----------------
DEPT .F           00 001 00 00                  : Logged depth
CGXT .DEGF        30 660 01 00                  : MCG External Temperature
SMTU .LB          30 635 00 00                  : DST Uphole Tension
GRGC .GAPI        30 310 01 00                  : Gamma Ray
SPCG .MV          30 010 00 00                  : Spontaneous Potential
FEFE .OHMM        10 220 06 00                  : Shallow FE
NPRL .V/V         42 890 01 00                  : Limestone Neutron Por.
CLDC .IN          45 280 01 00                  : Density Caliper
DCOR .G/C3        42 356 01 00                  : Density Correction
PDPE .B/E         45 358 01 00                  : PE
DPRL .V/V         45 890 10 00                  : Limestone Density Por.
SPRL .V/V         61 890 20 00                  : Wyllie Lime. Sonic Por.
MNRL .OHMM        15 252 00 00                  : MMR MicroLog Normal
MINV .OHMM        15 250 00 00                  : MMR MicroLog Inverse
MBTC .IN          15 280 01 00                  : MMR Caliper
R40O .OHMM        07 120 44 00                  : Array Ind. One Res 40
R60O .OHMM        07 120 44 00                  : Array Ind. One Res 60
RTAO .OHMM        07 120 44 00                  : Array Ind. One Res Rt
DEN  .G/C3        42 350 01 00                  : Compensated Density
DT35 .----        60 520 32 00                  : 3-5' Compensated Sonic
DFCL .IN          00 000 00 00                  : Differential Caliper
CTAO .----        07 120 44 00                  : Array Ind. One Cond Ct
#
~Parameter Information
#MNEM.UNIT        VALUE                         : DESCRIPTION
#----.----        -----                         : -----------
RNID .            5 INCH MAIN PASS              : Run ID
SON  .            7055-98027334                 : Job Number
DREF .            KB                            : Depth reference
EREF .F              1140.000                   : Elevation of depth reference
GL   .F              1128.000                   : Ground elevation
RUN  .            ONE                           : Run number
TDD  .F              5900.000                   : TD (driller)
TDL  .F              5892.000                   : TD (logger)
BS   .IN                8.750                   : Bit size
TIMC .                                          : Time circulation ended
TIML .                                          : Time logger at bottom
UNIT .              13039                       : Equipment ID
BASE .            OKC                           : Equipment base location
ENG  .            JUSTIN HICKS                  : Recording engineer
WIT  .            BEAU BEREND                   : Witnessed by
CSGT .            SURFACE                       : Casing type
CSGS .IN                9.625                   : Casing size
CSGW .LB/FT            35.997                   : Casing weight
CSGD .F               423.000                   : Casing bottom (driller)
CSGL .F               422.000                   : Casing bottom (logger)
CSUP .F           -999999.000                   : Casing Stick Up GL
MUD  .            WBM                           : Mud type
MUDS .            MUD PIT                       : Mud sample source
MUDD .LB/G              9.600                   : Mud density
MUDV .SEC/QT           45.000                   : Mud viscosity
PH   .                  9.800                   : Mud pH
FL   .ML/30MIN         10.800                   : Mud fluid loss rate
RM   .OHMM              1.800                   : Mud resistivity
RMT  .DEGF             92.000                   : Mud sample temperature
RMF  .OHMM              1.440                   : Mud filtrate resistivity
RMFT .DEGF             92.000                   : Mud filtrate sample temperature
RMC  .OHMM              2.160                   : Mud cake resistivity
RMCT .DEGF             92.000                   : Mud cake sample temperature
TMAX .DEGF            146.000                   : Max recorded temperature
#
~Other Information
----------------------------------------------------------------------------------------------------------
TOOLS RAN: CBH, SHA, MCG, MMR, MDN, MPD, MFE, MIM, MIE, MSS, MAI RAN IN COMBINATION.
HARDWARE USED:     
MSS: THREE 0.5 INCH STANDOFFS.  
                
                                
2.71 G/CC DENSITY MATRIX USED TO CALCULATE POROSITY.
ALL INTERVALS LOGGED AND SCALED PER CUSTOMER'S REQUEST.
TOTAL HOLE VOLUME FROM TD TO SURFACE CASING = 2840 CU.FT.
ANNULAR HOLE VOLUME WITH 5.5 INCH PRODUCTION CASING FROM TD TO SURFACE CASING = 1942 CU.FT. 
FIELD TICKET NUMBER: 7055-98027334
RIG:  DOUBLE K, RIG #6
OPERATOR(S):  C. SANFORD
MUD PROPERTIES:     
CHLORIDES: 1200 MG/L
LCM: NONE
*HOLE WASHOUTS AND RUGOSITY WILL AFFECT LOG QUALITY AND REPEATABILITY.*                                   
----------------------------------------------------------------------------------------------------------
#
#          DEPT           CGXT           SMTU           GRGC           SPCG           FEFE           NPRL           CLDC           DCOR           PDPE           DPRL           SPRL           MNRL           MINV           MBTC           R40O           R60O           RTAO           DEN            DT35           DFCL           CTAO
#
~ASCII Log Data
# ...
         3307.5     116.061208    1198.806739     134.832300     180.132946       6.402669       0.284685      10.106524       0.065598       3.123982       0.075303       0.278188       3.954104       3.637241       9.917767       4.984394       4.985422       4.985577       2.581231      86.863591       1.356524     200.578982
         3308.0     116.111855    1197.533177     140.634636     180.435081       6.234023       0.285462      10.136451       0.067439       3.136277       0.074234       0.280289       3.637822       3.307164       9.916979       4.845326       4.846048       4.846157       2.583059      87.160959       1.386451     206.367001
         3308.5     116.075191    1149.116341     143.534281     180.707583       6.216565       0.284559      10.135763       0.061477       3.156145       0.078719       0.282098       3.401105       3.495458       9.915117       4.820042       4.820474       4.820539       2.575390      87.416831       1.385763     207.446288
         3309.0     116.098586    1173.654807     143.894760     180.990452       6.295793       0.276835      10.124833       0.061805       3.144122       0.079327       0.283713       3.673730       3.350200       9.910166       4.869125       4.869306       4.869333       2.574351      87.645388       1.374833     205.368301
         3309.5     116.161342    1191.212352     143.452742     181.223416       6.314120       0.268862      10.120916       0.062372       3.103491       0.086679       0.285825       3.574734       3.806658       9.893547       4.872670       4.872655       4.872645       2.561780      87.944263       1.370916     205.227367
         3310.0     116.102315    1174.236503     139.804767     181.424324       6.081344       0.263370      10.119978       0.069001       3.063583       0.095344       0.287929       3.349718       3.093288       9.863193       4.682540       4.682440       4.682376       2.546962      88.241958       1.369978     213.574882
         3310.5     116.130955    1181.340189     135.907534     181.658691       6.035814       0.263291      10.118066       0.079073       3.053849       0.098020       0.289190       3.410176       3.073858       9.839314       4.640069       4.639977       4.639920       2.542386      88.420438       1.368066     215.520997
         3311.0     116.158202    1158.298959     135.533333     182.058332       6.047390       0.268535      10.131583       0.086902       3.068184       0.088535       0.288573       3.504485       3.043836       9.831410       4.641390       4.641423       4.641422       2.558606      88.333104       1.381583     215.452240
         3311.5     116.118412    1178.744740     139.085311     182.397353       6.138692       0.276423      10.144662       0.088684       3.084500       0.073955       0.285987       3.651583       3.255443       9.827904       4.704289       4.704541       4.704578       2.583536      87.967139       1.394662     212.559921
         3312.0     116.125916    1204.134251     143.250130     182.790106       6.217982       0.284952      10.159311       0.077126       3.126440       0.071532       0.283375       3.664844       3.479260       9.822457       4.766064       4.766624       4.766708       2.587680      87.597595       1.409311     209.793077
         3312.5     116.138336    1253.964648     142.290196     182.889269       6.187145       0.287374      10.154686       0.064640       3.174198       0.076456       0.282497       3.668527       3.182881       9.808046       4.747581       4.748487       4.748622       2.579261      87.473341       1.404686     210.591779
         3313.0     116.088859    1183.724883     140.583079     183.064137       6.088635       0.284811      10.130918       0.059960       3.193755       0.079941       0.283939       3.464111       3.278927       9.788149       4.673452       4.674699       4.674887       2.573302      87.677423       1.380918     213.910677
         3313.5     116.098990    1178.541253     140.298402     183.214027       6.041963       0.285901      10.091387       0.062616       3.199857       0.076858       0.285927       3.462204       3.293120       9.764563       4.643185       4.644744       4.644980       2.578573      87.958657       1.341387     215.286266
         3314.0     116.107534    1203.806989     142.494519     183.509821       6.105207       0.291216      10.011383       0.059491       3.205067       0.082210       0.285312       3.850106       3.334447       9.740286       4.699408       4.701232       4.701508       2.569420      87.871682       1.261383     212.708206
         3314.5     116.099721    1192.545138     144.021759     183.721311       6.194677       0.292560       9.942085       0.055294       3.230591       0.091606       0.280541       3.814417       3.651270       9.729728       4.775813       4.777804       4.778107       2.553354      87.196557       1.192085     209.291978
         3315.0     116.134481    1214.808451     141.311614     183.742619       6.283316       0.285998       9.896606       0.051824       3.400824       0.095398       0.272815       3.825825       3.644055       9.726876       4.853688       4.855708       4.856015       2.546870      86.103255       1.146606     205.934517
         3315.5     116.093917    1219.253831     139.435745     183.635283       6.577912       0.277782       9.897937       0.051791       3.511095       0.088423       0.266334       4.167821       4.197388       9.727143       5.087158       5.089110       5.089407       2.558796      85.186241       1.147937     196.583641
         3316.0     116.192964    1200.723924     138.323201     183.408021       6.673747       0.275040       9.935884       0.061276       3.474843       0.072028       0.265215       4.148031       4.011784       9.735411       5.164814       5.166480       5.166732       2.586832      85.027895       1.185884     193.564229
         3316.5     116.235620    1246.733555     141.646791     183.206282       6.295836       0.275068       9.980755       0.065121       3.302208       0.070945       0.269856       3.825607       3.720282       9.743173       4.876167       4.877313       4.877486       2.588684      85.684589       1.230755     205.042185
         3317.0     116.252576    1227.639737     144.531181     183.067105       6.120676       0.275010      10.023019       0.064573       3.134049       0.081731       0.275932       3.772452       3.142790       9.744271       4.736335       4.736957       4.737051       2.570240      86.544367       1.273019     211.110392
         3317.5     116.262137    1206.449370     144.573268     183.195746       6.193584       0.273358      10.065642       0.066827       3.126684       0.088011       0.280177       3.624368       3.747918       9.749339       4.787195       4.787304       4.787302       2.559502      87.145034       1.315642     208.886857
         3318.0     116.167077    1230.468750     144.524358     183.281101       6.122062       0.269606      10.079252       0.074321       3.087885       0.085471       0.282588       4.035228       3.414024       9.762744       4.725109       4.724729       4.724490       2.563845      87.486241       1.329252     211.665358
         3318.5     116.178403    1182.129554     143.049439     183.687777       6.073858       0.267404      10.087917       0.079645       3.031495       0.085079       0.284131       3.733403       4.136170       9.778323       4.680579       4.679820       4.679342       2.564516      87.704584       1.337917     213.714002
         3319.0     116.321750    1211.318030     141.372348     183.768325       6.026558       0.268403      10.108833       0.075089       3.014119       0.093792       0.285756       3.793433       3.248335       9.786220       4.635660       4.634657       4.634027       2.549616      87.934528       1.358833     215.795097
         3319.5     116.202578    1238.259739     138.118659     184.040685       6.054269       0.276224      10.090285       0.073319       3.048372       0.096610       0.287935       3.569337       3.455942       9.778384       4.644942       4.643882       4.643218       2.544797      88.242826       1.340285     215.368812
