~Version Information
VERS .            2.00                          : CWLS Log ASCII Standard - Version 2.00
WRAP .            NO                            : One line per depth step
#
~Well Information
#MNEM.UNIT        DATA                          : DESCRIPTION
#----.----        ----                          : -----------
STRT .F            420.0                        : Start
STOP .F           5890.0                        : Stop
STEP .F              0.5                        : Step increment
NULL .            -999.250                      : Null value
COMP .            NEWARK E&P OPERATING, LLC     : Company
WELL .            RICHARDS RANCH #N35           : Well
FLD  .            KRS (MARBLE FALLS)            : Field
PROV .            JACK                          : Province
CTRY .            United States                 : State / Country
LOC  .            560' FWL & 485' FSL OF        : Location
LOC2 .            N ATKINSON SURVEY, A-17       : Location 2
SRVC .            Weatherford                   : Service company
API  .		  42237401620000		: API Number
UWI  .            42237401620000                : Unique Well ID
LATI .            33.087108                     : Latitude
LONG .            -98.140917                    : Longitude
DATE .            16-Sep-2014                   : Logging Date
#
~Curve Information
#MNEM.UNIT        API CODES                     : CURVE DESCRIPTION
#----.----        ---------                     : -----------------
DEPT .F           00 001 00 00                  : Logged depth
CGXT .DEGF        30 660 01 00                  : MCG External Temperature
SMTU .LB          30 635 00 00                  : DST Uphole Tension
GRGC .GAPI        30 310 01 00                  : Gamma Ray
SPCG .MV          30 010 00 00                  : Spontaneous Potential
FEFE .OHMM        10 220 06 00                  : Shallow FE
NPRL .V/V         42 890 01 00                  : Limestone Neutron Por.
CLDC .IN          45 280 01 00                  : Density Caliper
DCOR .G/C3        42 356 01 00                  : Density Correction
PDPE .B/E         45 358 01 00                  : PE
DPRL .V/V         45 890 10 00                  : Limestone Density Por.
SPRL .V/V         61 890 20 00                  : Wyllie Lime. Sonic Por.
MNRL .OHMM        15 252 00 00                  : MMR MicroLog Normal
MINV .OHMM        15 250 00 00                  : MMR MicroLog Inverse
MBTC .IN          15 280 01 00                  : MMR Caliper
R40O .OHMM        07 120 44 00                  : Array Ind. One Res 40
R60O .OHMM        07 120 44 00                  : Array Ind. One Res 60
RTAO .OHMM        07 120 44 00                  : Array Ind. One Res Rt
DEN  .G/C3        42 350 01 00                  : Compensated Density
DT35 .----        60 520 32 00                  : 3-5' Compensated Sonic
DFCL .IN          00 000 00 00                  : Differential Caliper
CTAO .----        07 120 44 00                  : Array Ind. One Cond Ct
#
~Parameter Information
#MNEM.UNIT        VALUE                         : DESCRIPTION
#----.----        -----                         : -----------
RNID .            5 INCH MAIN PASS              : Run ID
SON  .            7055-98027334                 : Job Number
DREF .            KB                            : Depth reference
EREF .F              1140.000                   : Elevation of depth reference
GL   .F              1128.000                   : Ground elevation
RUN  .            ONE                           : Run number
TDD  .F              5900.000                   : TD (driller)
TDL  .F              5892.000                   : TD (logger)
BS   .IN                8.750                   : Bit size
TIMC .                                          : Time circulation ended
TIML .                                          : Time logger at bottom
UNIT .              13039                       : Equipment ID
BASE .            OKC                           : Equipment base location
ENG  .            JUSTIN HICKS                  : Recording engineer
WIT  .            BEAU BEREND                   : Witnessed by
CSGT .            SURFACE                       : Casing type
CSGS .IN                9.625                   : Casing size
CSGW .LB/FT            35.997                   : Casing weight
CSGD .F               423.000                   : Casing bottom (driller)
CSGL .F               422.000                   : Casing bottom (logger)
CSUP .F           -999999.000                   : Casing Stick Up GL
MUD  .            WBM                           : Mud type
MUDS .            MUD PIT                       : Mud sample source
MUDD .LB/G              9.600                   : Mud density
MUDV .SEC/QT           45.000                   : Mud viscosity
PH   .                  9.800                   : Mud pH
FL   .ML/30MIN         10.800                   : Mud fluid loss rate
RM   .OHMM              1.800                   : Mud resistivity
RMT  .DEGF             92.000                   : Mud sample temperature
RMF  .OHMM              1.440                   : Mud filtrate resistivity
RMFT .DEGF             92.000                   : Mud filtrate sample temperature
RMC  .OHMM              2.160                   : Mud cake resistivity
RMCT .DEGF             92.000                   : Mud cake sample temperature
TMAX .DEGF            146.000                   : Max recorded temperature
#
~Other Information
----------------------------------------------------------------------------------------------------------
TOOLS RAN: CBH, SHA, MCG, MMR, MDN, MPD, MFE, MIM, MIE, MSS, MAI RAN IN COMBINATION.
HARDWARE USED:     
MSS: THREE 0.5 INCH STANDOFFS.  
                
                                
2.71 G/CC DENSITY MATRIX USED TO CALCULATE POROSITY.
ALL INTERVALS LOGGED AND SCALED PER CUSTOMER'S REQUEST.
TOTAL HOLE VOLUME FROM TD TO SURFACE CASING = 2840 CU.FT.
ANNULAR HOLE VOLUME WITH 5.5 INCH PRODUCTION CASING FROM TD TO SURFACE CASING = 1942 CU.FT. 
FIELD TICKET NUMBER: 7055-98027334
RIG:  DOUBLE K, RIG #6
OPERATOR(S):  C. SANFORD
MUD PROPERTIES:     
CHLORIDES: 1200 MG/L
LCM: NONE
*HOLE WASHOUTS AND RUGOSITY WILL AFFECT LOG QUALITY AND REPEATABILITY.*                                   
----------------------------------------------------------------------------------------------------------
#
#          DEPT           CGXT           SMTU           GRGC           SPCG           FEFE           NPRL           CLDC           DCOR           PDPE           DPRL           SPRL           MNRL           MINV           MBTC           R40O           R60O           RTAO           DEN            DT35           DFCL           CTAO
#
~ASCII Log Data
# ...
         5845.0    -999.250000    1668.420657    -999.250000     114.393631     119.118241       0.058744       8.543909      -0.000978       4.187447       0.010512      -0.000577    -999.250000    -999.250000    -999.250000     126.659045     138.053274     141.530923       2.692024      47.418414      -0.206091       7.084907
         5845.5    -999.250000    1649.562741    -999.250000     113.675436     186.908674       0.059193       8.543882       0.001459       4.216303       0.006641      -0.000888    -999.250000    -999.250000    -999.250000     171.263611     186.507152     191.135886       2.698643      47.374290      -0.206118       5.252396
         5846.0    -999.250000    1651.085818    -999.250000     112.824583     194.067638       0.059173       8.543882       0.006103       4.250399       0.000181       0.000728    -999.250000    -999.250000    -999.250000     177.010053     192.740561     197.498128       2.709691      47.603020      -0.206118       5.065130
         5846.5    -999.250000    1653.374847    -999.250000     111.929939     125.045698       0.058786       8.543859       0.013122       4.257716      -0.009597       0.004948    -999.250000    -999.250000    -999.250000     136.048439     148.293552     151.995072       2.726410      48.200179      -0.206141       6.668594
         5847.0    -999.250000    1687.697805    -999.250000     111.156054      75.835927       0.057927       8.543847       0.016616       4.252763      -0.014871       0.009855    -999.250000    -999.250000    -999.250000      97.405967     106.359004     109.065692       2.735430      48.894493      -0.206153       9.193181
         5847.5    -999.250000    1673.500682    -999.250000     110.970584      64.048906       0.064811       8.543871       0.014169       4.210869      -0.011504       0.012544    -999.250000    -999.250000    -999.250000      92.504669     101.349365     104.041234       2.729672      49.275007      -0.206129       9.614952
         5848.0    -999.250000    1712.724326    -999.250000     110.834822      63.162012       0.123063       8.543882       0.012267       4.225539      -0.008650       0.012642    -999.250000    -999.250000    -999.250000     100.523131     110.598494     113.693249       2.724792      49.288873      -0.206118       8.796488
         5848.5    -999.250000    1669.843126    -999.250000     110.900408      63.184136       0.290744       8.543844       0.012479       4.279217      -0.008306       0.010572    -999.250000    -999.250000    -999.250000     113.657774     125.751339     129.517928       2.724203      48.995875      -0.206156       7.733759
         5849.0    -999.250000    1689.596396    -999.250000     110.851552      63.198897       0.496915       8.543706       0.013849       4.323406      -0.010016       0.008229    -999.250000    -999.250000    -999.250000     130.967157     145.841749     150.549680       2.727127      48.664419      -0.206294       6.643668
         5849.5    -999.250000    1721.418546    -999.250000     110.737357      63.187551       0.667953       8.543609       0.010264       4.351091      -0.004794       0.007082    -999.250000    -999.250000    -999.250000     149.910753     168.055591     173.886298       2.718197      48.502087      -0.206391       5.768069
         5850.0    -999.250000    1698.047435    -999.250000     110.429228      63.200123    -999.250000       8.543278       0.006884       4.317391       0.000328       0.006815    -999.250000    -999.250000    -999.250000     173.827305     196.266258     203.593424       2.709439      48.464367      -0.206722       4.914710
         5850.5    -999.250000    1717.080023    -999.250000     110.332010      63.212569    -999.250000       8.542675       0.008770       4.263353      -0.002677       0.007256    -999.250000    -999.250000    -999.250000     198.680371     225.779911     234.746729       2.714578      48.526694      -0.207325       4.269373
         5851.0    -999.250000    1664.837523    -999.250000     110.075729      63.235435    -999.250000       8.541629       0.015250       4.227346      -0.012942       0.008078    -999.250000    -999.250000    -999.250000     229.504634     262.591573     273.697235       2.732131      48.643059      -0.208371       3.656369
         5851.5    -999.250000    1670.868903    -999.250000     109.920614      63.234973    -999.250000       8.540470       0.020610       4.267201      -0.020481       0.009106    -999.250000    -999.250000    -999.250000     254.144708     291.864878     304.609520       2.745022      48.788444      -0.209530       3.285243
         5852.0    -999.250000    1679.687500    -999.250000     109.618223      63.252580    -999.250000       8.540096       0.021679       4.357243      -0.020057       0.010022    -999.250000    -999.250000    -999.250000     278.763266     320.902532     335.205057       2.744298      48.918178      -0.209904       2.984159
         5852.5    -999.250000    1717.634894    -999.250000     109.513987      63.247893    -999.250000       8.540099       0.018845       4.411396      -0.012844       0.010408    -999.250000    -999.250000    -999.250000     291.834733     335.307394     350.000190       2.731964      48.972771      -0.209901       2.857187
         5853.0    -999.250000    1730.290877    -999.250000     109.614259      63.278695    -999.250000       8.540073       0.014040       4.373916      -0.004153       0.009894    -999.250000    -999.250000    -999.250000     295.575272     337.908068     352.073346       2.717102      48.899951      -0.209927       2.840326
         5853.5    -999.250000    1644.182646    -999.250000     109.782301      63.278987    -999.250000       8.539988       0.009617       4.257955       0.001398       0.008331    -999.250000    -999.250000    -999.250000     296.351601     336.782269     350.166441       2.707609      48.678848      -0.210012       2.855853
         5854.0    -999.250000    1670.555494    -999.250000     109.847231      63.263575    -999.250000       8.539537       0.004661       4.180679       0.006979       0.006187    -999.250000    -999.250000    -999.250000     282.823784     318.524761     330.138662       2.698066      48.375434      -0.210463       3.029162
         5854.5    -999.250000    1688.514410    -999.250000     109.845067      63.262998    -999.250000       8.538240       0.002503       4.190420       0.009055       0.003934    -999.250000    -999.250000    -999.250000     270.837410     302.601936     312.787127       2.694516      48.056667      -0.211760       3.198515
         5855.0    -999.250000    1707.350127    -999.250000     109.604228      63.274826    -999.250000       8.536812       0.002653       4.232037       0.009204       0.001338    -999.250000    -999.250000    -999.250000     248.633801     275.224607     283.593662       2.694261      47.689265      -0.213188       3.529758
         5855.5    -999.250000    1698.485221    -999.250000     109.495744      63.268861    -999.250000       8.536237       0.004710       4.259977       0.006678      -0.001849    -999.250000    -999.250000    -999.250000     226.380296     248.538073     255.395865       2.698581      47.238352      -0.213763       3.917771
         5856.0    -999.250000    1650.789036    -999.250000     109.479975      63.276386    -999.250000       8.536174       0.009565       4.247553      -0.000220      -0.005493    -999.250000    -999.250000    -999.250000     206.075720     224.697754     230.380514       2.710376      46.722728      -0.213826       4.346944
         5856.5    -999.250000    1644.619053    -999.250000     109.506074      63.936980    -999.250000    -999.250000       0.006161       4.203019       0.013631      -0.008493    -999.250000    -999.250000    -999.250000     182.666353     197.847419     202.407431       2.686691      46.298183    -999.250000       4.943761
         5857.0    -999.250000    1677.762723    -999.250000     109.523509      64.010373    -999.250000    -999.250000      -0.022200       4.106112       0.087949      -0.009304    -999.250000    -999.250000    -999.250000     165.045633     177.939112     181.772784       2.559607      46.183452    -999.250000       5.509008
