~Version Information
VERS .            2.00                          : CWLS Log ASCII Standard - Version 2.00
WRAP .            NO                            : One line per depth step
#
~Well Information
#MNEM.UNIT        DATA                          : DESCRIPTION
#----.----        ----                          : -----------
STRT .F            420.0                        : Start
STOP .F           5890.0                        : Stop
STEP .F              0.5                        : Step increment
NULL .            -999.250                      : Null value
COMP .            NEWARK E&P OPERATING, LLC     : Company
WELL .            RICHARDS RANCH #N35           : Well
FLD  .            KRS (MARBLE FALLS)            : Field
PROV .            JACK                          : Province
CTRY .            United States                 : State / Country
LOC  .            560' FWL & 485' FSL OF        : Location
LOC2 .            N ATKINSON SURVEY, A-17       : Location 2
SRVC .            Weatherford                   : Service company
API  .		  42237401620000		: API Number
UWI  .            42237401620000                : Unique Well ID
LATI .            33.087108                     : Latitude
LONG .            -98.140917                    : Longitude
DATE .            16-Sep-2014                   : Logging Date
#
~Curve Information
#MNEM.UNIT        API CODES                     : CURVE DESCRIPTION
#----.----        ---------                     : -----------------
DEPT .F           00 001 00 00                  : Logged depth
CGXT .DEGF        30 660 01 00                  : MCG External Temperature
SMTU .LB          30 635 00 00                  : DST Uphole Tension
GRGC .GAPI        30 310 01 00                  : Gamma Ray
SPCG .MV          30 010 00 00                  : Spontaneous Potential
FEFE .OHMM        10 220 06 00                  : Shallow FE
NPRL .V/V         42 890 01 00                  : Limestone Neutron Por.
CLDC .IN          45 280 01 00                  : Density Caliper
DCOR .G/C3        42 356 01 00                  : Density Correction
PDPE .B/E         45 358 01 00                  : PE
DPRL .V/V         45 890 10 00                  : Limestone Density Por.
SPRL .V/V         61 890 20 00                  : Wyllie Lime. Sonic Por.
MNRL .OHMM        15 252 00 00                  : MMR MicroLog Normal
MINV .OHMM        15 250 00 00                  : MMR MicroLog Inverse
MBTC .IN          15 280 01 00                  : MMR Caliper
R40O .OHMM        07 120 44 00                  : Array Ind. One Res 40
R60O .OHMM        07 120 44 00                  : Array Ind. One Res 60
RTAO .OHMM        07 120 44 00                  : Array Ind. One Res Rt
DEN  .G/C3        42 350 01 00                  : Compensated Density
DT35 .----        60 520 32 00                  : 3-5' Compensated Sonic
DFCL .IN          00 000 00 00                  : Differential Caliper
CTAO .----        07 120 44 00                  : Array Ind. One Cond Ct
#
~Parameter Information
#MNEM.UNIT        VALUE                         : DESCRIPTION
#----.----        -----                         : -----------
RNID .            5 INCH MAIN PASS              : Run ID
SON  .            7055-98027334                 : Job Number
DREF .            KB                            : Depth reference
EREF .F              1140.000                   : Elevation of depth reference
GL   .F              1128.000                   : Ground elevation
RUN  .            ONE                           : Run number
TDD  .F              5900.000                   : TD (driller)
TDL  .F              5892.000                   : TD (logger)
BS   .IN                8.750                   : Bit size
TIMC .                                          : Time circulation ended
TIML .                                          : Time logger at bottom
UNIT .              13039                       : Equipment ID
BASE .            OKC                           : Equipment base location
ENG  .            JUSTIN HICKS                  : Recording engineer
WIT  .            BEAU BEREND                   : Witnessed by
CSGT .            SURFACE                       : Casing type
CSGS .IN                9.625                   : Casing size
CSGW .LB/FT            35.997                   : Casing weight
CSGD .F               423.000                   : Casing bottom (driller)
CSGL .F               422.000                   : Casing bottom (logger)
CSUP .F           -999999.000                   : Casing Stick Up GL
MUD  .            WBM                           : Mud type
MUDS .            MUD PIT                       : Mud sample source
MUDD .LB/G              9.600                   : Mud density
MUDV .SEC/QT           45.000                   : Mud viscosity
PH   .                  9.800                   : Mud pH
FL   .ML/30MIN         10.800                   : Mud fluid loss rate
RM   .OHMM              1.800                   : Mud resistivity
RMT  .DEGF             92.000                   : Mud sample temperature
RMF  .OHMM              1.440                   : Mud filtrate resistivity
RMFT .DEGF             92.000                   : Mud filtrate sample temperature
RMC  .OHMM              2.160                   : Mud cake resistivity
RMCT .DEGF             92.000                   : Mud cake sample temperature
TMAX .DEGF            146.000                   : Max recorded temperature
#
~Other Information
----------------------------------------------------------------------------------------------------------
TOOLS RAN: CBH, SHA, MCG, MMR, MDN, MPD, MFE, MIM, MIE, MSS, MAI RAN IN COMBINATION.
HARDWARE USED:     
MSS: THREE 0.5 INCH STANDOFFS.  
                
                                
2.71 G/CC DENSITY MATRIX USED TO CALCULATE POROSITY.
ALL INTERVALS LOGGED AND SCALED PER CUSTOMER'S REQUEST.
TOTAL HOLE VOLUME FROM TD TO SURFACE CASING = 2840 CU.FT.
ANNULAR HOLE VOLUME WITH 5.5 INCH PRODUCTION CASING FROM TD TO SURFACE CASING = 1942 CU.FT. 
FIELD TICKET NUMBER: 7055-98027334
RIG:  DOUBLE K, RIG #6
OPERATOR(S):  C. SANFORD
MUD PROPERTIES:     
CHLORIDES: 1200 MG/L
LCM: NONE
*HOLE WASHOUTS AND RUGOSITY WILL AFFECT LOG QUALITY AND REPEATABILITY.*                                   
----------------------------------------------------------------------------------------------------------
#
#          DEPT           CGXT           SMTU           GRGC           SPCG           FEFE           NPRL           CLDC           DCOR           PDPE           DPRL           SPRL           MNRL           MINV           MBTC           R40O           R60O           RTAO           DEN            DT35           DFCL           CTAO
#
~ASCII Log Data
# ...
          782.5      94.872516     682.971716      85.808192     134.398085       4.811793       0.690561      13.875438       0.129628       3.679361       0.601028       0.575543       1.908896       1.570392      12.570574       3.146416       3.242190       3.265696       1.682242     128.939393       5.125438     306.218049
          783.0      94.969872     705.464201      91.683718     134.801627       4.892171       0.661243      13.537965       0.134509       3.338552       0.535085       0.569168       2.508737       2.943373      12.069431       3.168908       3.268574       3.292861       1.795004     128.037204       4.787965     303.696651
          783.5      94.928946     701.867785     100.531843     135.483187       4.840093       0.620734      14.013534       0.101432       3.097455       0.480843       0.577094       2.773542       1.770160      12.516856       3.109220       3.210348       3.234913       1.887759     129.158810       5.263534     309.181622
          784.0      94.960244     673.035921     114.030219     136.172064       4.971948       0.574342      13.851373       0.062190       3.043102       0.406036       0.568931       2.194237       2.068841      12.362598       3.183427       3.290500       3.316565       2.015679     128.003802       5.101373     301.540819
          784.5      94.982206     697.487538     127.684398     137.387453       4.837370       0.521571      12.775339       0.036481       3.111544       0.305202       0.531943       2.165827       1.887313      11.561766       3.101471       3.209314       3.235728       2.188105     122.769964       4.025339     309.065652
          785.0      94.930629     689.167363     133.480579     138.700141       5.004059       0.457857      11.757597       0.028570       3.178870       0.209007       0.474847       2.381960       3.229982      11.101545       3.231496       3.347446       3.376152       2.352599     114.690822       3.007597     296.285577
          785.5      94.861793     692.979592     128.474320     139.426963       5.404822       0.394158      11.378529       0.022384       3.161695       0.161943       0.418403       2.483166       3.339547      10.935499       3.536795       3.667342       3.700135       2.433077     106.703974       2.628529     270.863951
          786.0      94.860905     695.533180     115.000728     138.121650       6.242731       0.339422      11.139532       0.014625       3.084745       0.161802       0.372301       3.165941       4.121069      10.847927       4.168346       4.325771       4.366037       2.433318     100.180657       2.389532     229.498227
          786.5      94.947334     710.327204      98.037930     135.128640       7.163564       0.288874      10.963052       0.020298       2.987643       0.174316       0.332892       4.789404       6.713733      10.777678       4.887439       5.074905       5.123782       2.411919      94.604288       2.213052     195.635523
          787.0      95.028842     715.113563      82.904324     131.791640       8.344447       0.239920      10.895114       0.030407       2.865243       0.181164       0.296052       6.242164       8.813874      10.695943       5.831012       6.056027       6.115866       2.400210      89.391360       2.145114     163.905237
          787.5      94.869297     696.937584      72.450067     129.678629      10.661735       0.198092      10.882372       0.033493       2.766478       0.170068       0.263276      10.830303      16.425396      10.610735       7.611559       7.903479       7.982614       2.419183      84.753521       2.132372     125.426567
          788.0      94.984433     741.159565      68.846810     129.521284      11.435007       0.166932      10.902924       0.025327       2.684763       0.149395       0.240749      11.205065      19.749471      10.550805       8.385681       8.701056       8.788064       2.454534      81.566049       2.152924     113.833983
          788.5      94.898082     689.069096      68.122881     131.039383      12.094484       0.149109      10.953834       0.013795       2.640788       0.132342       0.233393      11.356106      17.674662      10.520536       9.043417       9.371425       9.463116       2.483695      80.525069       2.203834     105.690323
          789.0      94.950379     687.597562      68.230011     133.105568      11.550574       0.144686      11.019631       0.009369       2.668070       0.122762       0.243509       8.784632      16.696642      10.499773       8.758733       9.059748       9.144589       2.500078      81.956467       2.269631     109.358353
          789.5      94.913823     672.867285      73.912804     135.289775      10.727827       0.153827      11.086038       0.011784       2.735677       0.122620       0.270305       8.674046      11.776530      10.490053       8.200992       8.462885       8.536926       2.500319      85.748213       2.336038     117.247455
          790.0      94.947801     688.656601      84.430953     136.910107       8.980518       0.172927      11.122210       0.017147       2.853227       0.128068       0.302785       6.118944       6.782039      10.491410       6.898630       7.099091       7.155675       2.491004      90.344037       2.372210     139.915479
          790.5      94.947812     700.530544      92.376869     138.046713       8.202411       0.198822      11.097540       0.021762       3.109764       0.135792       0.324324       4.639902       5.468216      10.467115       6.268697       6.430654       6.476089       2.477796      93.391823       2.347540     154.424285
          791.0      94.913500     741.951769      93.985592     138.379661       8.652288       0.223625      10.980893       0.024835       3.605766       0.135181       0.328765       4.845298       5.915771      10.403597       6.548497       6.695477       6.736381       2.478840      94.020286       2.230893     148.449747
          791.5      94.900797     704.254408      93.308346     137.915843      10.208586       0.237912      10.779613       0.022860       4.016242       0.135653       0.318611       6.796059       9.583371      10.356972       7.644683       7.789516       7.829551       2.478033      92.583395       2.029613     127.997240
          792.0      94.913972     642.043149      94.185940     137.130118      10.259988       0.238766      10.638554       0.027085       4.047319       0.142610       0.301102       8.387799      12.525586      10.361921       7.638941       7.758229       7.791086       2.466136      90.105937       1.888554     128.525316
          792.5      95.029302     718.403594      90.477102     135.189025       8.979561       0.223871      10.577447       0.035862       3.611445       0.150668       0.272098       4.488115       5.151690      10.361956       6.652329       6.734388       6.757109       2.452358      86.001862       1.827447     148.079436
          793.0      94.974555     699.406053      78.139823     132.386987      12.629750       0.198150      10.433184       0.034817       3.080155       0.154710       0.232562       8.338035      10.825650      10.282358       9.244419       9.330040       9.354425       2.445447      80.407562       1.683184     108.296328
          793.5      94.932739     706.480517      63.440996     128.563196      21.270128       0.164911      10.281219       0.029217       2.807015       0.141912       0.195144      45.737821      54.932108      10.166144      15.152667      15.251410      15.282162       2.467331      75.112854       1.531219      66.245895
          794.0      94.939150     707.295777      54.334064     124.791183      20.175072       0.132323      10.240421       0.020451       2.662949       0.133165       0.174420      17.048391      21.045013      10.011604      14.378818      14.439596      14.466525       2.482288      72.180428       1.490421      69.417089
          794.5      94.958959     703.125000      51.855182     121.815799      18.200871       0.110042      10.243130       0.016521       2.569701       0.138888       0.175769       7.289388       4.855250       9.858363      12.909888      12.938025      12.959684       2.472502      72.371260       1.493130      77.251454
