~Version Information
VERS .            2.00                          : CWLS Log ASCII Standard - Version 2.00
WRAP .            NO                            : One line per depth step
#
~Well Information
#MNEM.UNIT        DATA                          : DESCRIPTION
#----.----        ----                          : -----------
STRT .F            420.0                        : Start
STOP .F           5890.0                        : Stop
STEP .F              0.5                        : Step increment
NULL .            -999.250                      : Null value
COMP .            NEWARK E&P OPERATING, LLC     : Company
WELL .            RICHARDS RANCH #N35           : Well
FLD  .            KRS (MARBLE FALLS)            : Field
PROV .            JACK                          : Province
CTRY .            United States                 : State / Country
LOC  .            560' FWL & 485' FSL OF        : Location
LOC2 .            N ATKINSON SURVEY, A-17       : Location 2
SRVC .            Weatherford                   : Service company
API  .		  42237401620000		: API Number
UWI  .            42237401620000                : Unique Well ID
LATI .            33.087108                     : Latitude
LONG .            -98.140917                    : Longitude
DATE .            16-Sep-2014                   : Logging Date
#
~Curve Information
#MNEM.UNIT        API CODES                     : CURVE DESCRIPTION
#----.----        ---------                     : -----------------
DEPT .F           00 001 00 00                  : Logged depth
CGXT .DEGF        30 660 01 00                  : MCG External Temperature
SMTU .LB          30 635 00 00                  : DST Uphole Tension
GRGC .GAPI        30 310 01 00                  : Gamma Ray
SPCG .MV          30 010 00 00                  : Spontaneous Potential
FEFE .OHMM        10 220 06 00                  : Shallow FE
NPRL .V/V         42 890 01 00                  : Limestone Neutron Por.
CLDC .IN          45 280 01 00                  : Density Caliper
DCOR .G/C3        42 356 01 00                  : Density Correction
PDPE .B/E         45 358 01 00                  : PE
DPRL .V/V         45 890 10 00                  : Limestone Density Por.
SPRL .V/V         61 890 20 00                  : Wyllie Lime. Sonic Por.
MNRL .OHMM        15 252 00 00                  : MMR MicroLog Normal
MINV .OHMM        15 250 00 00                  : MMR MicroLog Inverse
MBTC .IN          15 280 01 00                  : MMR Caliper
R40O .OHMM        07 120 44 00                  : Array Ind. One Res 40
R60O .OHMM        07 120 44 00                  : Array Ind. One Res 60
RTAO .OHMM        07 120 44 00                  : Array Ind. One Res Rt
DEN  .G/C3        42 350 01 00                  : Compensated Density
DT35 .----        60 520 32 00                  : 3-5' Compensated Sonic
DFCL .IN          00 000 00 00                  : Differential Caliper
CTAO .----        07 120 44 00                  : Array Ind. One Cond Ct
#
~Parameter Information
#MNEM.UNIT        VALUE                         : DESCRIPTION
#----.----        -----                         : -----------
RNID .            5 INCH MAIN PASS              : Run ID
SON  .            7055-98027334                 : Job Number
DREF .            KB                            : Depth reference
EREF .F              1140.000                   : Elevation of depth reference
GL   .F              1128.000                   : Ground elevation
RUN  .            ONE                           : Run number
TDD  .F              5900.000                   : TD (driller)
TDL  .F              5892.000                   : TD (logger)
BS   .IN                8.750                   : Bit size
TIMC .                                          : Time circulation ended
TIML .                                          : Time logger at bottom
UNIT .              13039                       : Equipment ID
BASE .            OKC                           : Equipment base location
ENG  .            JUSTIN HICKS                  : Recording engineer
WIT  .            BEAU BEREND                   : Witnessed by
CSGT .            SURFACE                       : Casing type
CSGS .IN                9.625                   : Casing size
CSGW .LB/FT            35.997                   : Casing weight
CSGD .F               423.000                   : Casing bottom (driller)
CSGL .F               422.000                   : Casing bottom (logger)
CSUP .F           -999999.000                   : Casing Stick Up GL
MUD  .            WBM                           : Mud type
MUDS .            MUD PIT                       : Mud sample source
MUDD .LB/G              9.600                   : Mud density
MUDV .SEC/QT           45.000                   : Mud viscosity
PH   .                  9.800                   : Mud pH
FL   .ML/30MIN         10.800                   : Mud fluid loss rate
RM   .OHMM              1.800                   : Mud resistivity
RMT  .DEGF             92.000                   : Mud sample temperature
RMF  .OHMM              1.440                   : Mud filtrate resistivity
RMFT .DEGF             92.000                   : Mud filtrate sample temperature
RMC  .OHMM              2.160                   : Mud cake resistivity
RMCT .DEGF             92.000                   : Mud cake sample temperature
TMAX .DEGF            146.000                   : Max recorded temperature
#
~Other Information
----------------------------------------------------------------------------------------------------------
TOOLS RAN: CBH, SHA, MCG, MMR, MDN, MPD, MFE, MIM, MIE, MSS, MAI RAN IN COMBINATION.
HARDWARE USED:     
MSS: THREE 0.5 INCH STANDOFFS.  
                
                                
2.71 G/CC DENSITY MATRIX USED TO CALCULATE POROSITY.
ALL INTERVALS LOGGED AND SCALED PER CUSTOMER'S REQUEST.
TOTAL HOLE VOLUME FROM TD TO SURFACE CASING = 2840 CU.FT.
ANNULAR HOLE VOLUME WITH 5.5 INCH PRODUCTION CASING FROM TD TO SURFACE CASING = 1942 CU.FT. 
FIELD TICKET NUMBER: 7055-98027334
RIG:  DOUBLE K, RIG #6
OPERATOR(S):  C. SANFORD
MUD PROPERTIES:     
CHLORIDES: 1200 MG/L
LCM: NONE
*HOLE WASHOUTS AND RUGOSITY WILL AFFECT LOG QUALITY AND REPEATABILITY.*                                   
----------------------------------------------------------------------------------------------------------
#
#          DEPT           CGXT           SMTU           GRGC           SPCG           FEFE           NPRL           CLDC           DCOR           PDPE           DPRL           SPRL           MNRL           MINV           MBTC           R40O           R60O           RTAO           DEN            DT35           DFCL           CTAO
#
~ASCII Log Data
# ...
         5482.5     141.869337    1630.301615      76.730822     216.168371      32.262437       0.170718       8.765977       0.007979       3.752555       0.077324       0.177554      15.159277      25.110547       8.731086      22.063381      22.164942      22.186478       2.577776      72.623835       0.015977      45.072823
         5483.0     141.889259    1643.126565      72.144136     216.160371      33.743952       0.173947       8.766087       0.007218       3.877838       0.074224       0.177099      16.519023      27.738593       8.731100      22.627785      22.719903      22.739209       2.583077      72.559564       0.016087      43.993576
         5483.5     141.976033    1620.280057      72.679148     216.246570      36.958621       0.174222       8.766069       0.008285       3.956843       0.068800       0.175502      18.452568      30.526118       8.731109      24.254726      24.346704      24.365822       2.592352      72.333573       0.016069      41.043097
         5484.0     141.919516    1618.802929      75.545638     216.372430      38.801041       0.174616       8.766123       0.012281       3.955738       0.062935       0.178224      20.470851      33.343344       8.731190      25.046035      25.140141      25.159606       2.602382      72.718649       0.016123      39.749020
         5484.5     141.953347    1629.328244      78.291376     216.459827      35.175320       0.179221       8.766057       0.015904       3.863628       0.064508       0.186830      14.902028      25.929345       8.731255      22.744046      22.832209      22.850403       2.599692      73.936405       0.016057      43.778197
         5485.0     141.908278    1623.119216      80.404416     216.417718      31.433341       0.187907       8.765878       0.013236       3.734466       0.081735       0.199526      13.220069      23.304125       8.731227      20.362176      20.445836      20.463095       2.570232      75.732993       0.015878      48.938799
         5485.5     141.887711    1624.243501      81.240906     216.324721      27.243501       0.196217       8.765912       0.007478       3.685364       0.102890       0.210245       9.873614      17.553169       8.731162      17.793411      17.871462      17.887587       2.534058      77.249702       0.015912      55.929787
         5486.0     141.923937    1613.558411      82.026678     216.218761      26.490802       0.201828       8.765974       0.003457       3.733131       0.114550       0.213896      11.722029      21.917057       8.731164      17.288580      17.368904      17.385529       2.514119      77.766227       0.015974      57.540620
         5486.5     141.909499    1609.076665      82.963154     216.132114      29.790628       0.202409       8.765881       0.003413       3.808160       0.112803       0.210278      13.460870      23.376972       8.731158      19.288694      19.381795      19.401108       2.517107      77.254311       0.015881      51.561941
         5487.0     141.967088    1634.862180      80.877213     215.998340      32.582491       0.200753       8.765803       0.005491       3.859149       0.103811       0.202248      15.234750      26.077102       8.731136      20.977119      21.079202      21.100400       2.532484      76.118092       0.015803      47.429636
         5487.5     141.973894    1613.543963      77.318139     215.819604      36.443079       0.199582       8.765942       0.005328       3.870928       0.098350       0.193566      18.665887      32.634314       8.731408      23.258259      23.367851      23.390588       2.541821      74.889599       0.015942      42.802735
         5488.0     141.997711    1658.854050      73.403717     215.773345      40.759875       0.196393       8.766087       0.006173       3.856637       0.093579       0.186307      20.144303      34.915465       8.731934      25.730195      25.841198      25.864142       2.549979      73.862431       0.016087      38.681700
         5488.5     141.969660    1594.539780      70.076543     215.844342      41.939967       0.191816       8.766016       0.005954       3.812364       0.092259       0.181671      21.026593      35.680105       8.732231      26.443076      26.538964      26.558643       2.552236      73.206483       0.016016      37.652703
         5489.0     141.958399    1644.863367      68.327669     215.805099      42.051893       0.188056       8.765960       0.006225       3.752418       0.091506       0.180530      20.841473      34.731551       8.732381      26.505893      26.575193      26.589249       2.553525      73.044968       0.015960      37.609236
         5489.5     141.974057    1650.471484      67.094111     215.723065      39.750066       0.187266       8.766029       0.008658       3.712579       0.090927       0.183933      19.262990      31.845538       8.732524      25.261736      25.293328      25.299639       2.554515      73.526523       0.016029      39.545966
         5490.0     141.921719    1621.093750      67.239169     215.531763      36.681098       0.190671       8.766185       0.010931       3.681902       0.094256       0.190666      16.505174      28.130381       8.732606      23.503675      23.492306      23.479212       2.548822      74.479216       0.016185      42.603956
         5490.5     142.057347    1653.685511      68.533238     215.323197      35.020979       0.194420       8.766202       0.011674       3.644097       0.102011       0.197238      14.380608      25.677104       8.732847      22.548362      22.489458      22.429911       2.535561      75.409120       0.016202      44.583525
         5491.0     141.954652    1643.789247      69.396683     215.032578      36.721881       0.193417       8.765938       0.009222       3.625652       0.111221       0.199433      15.482040      28.253218       8.733573      23.509298      23.389895      23.269795       2.519811      75.719720       0.015938      42.979238
         5491.5     142.019579    1619.265286      69.918812     214.473805      41.583126       0.187294       8.765849       0.006943       3.718647       0.110269       0.194033      19.072980      36.055007       8.734128      26.281148      26.072122      25.863322       2.521440      74.955690       0.015849      38.747713
         5492.0     142.014602    1622.527825      69.543702     213.861724      48.801447       0.179127       8.765971       0.005743       3.861976       0.100984       0.183561      25.126993      44.975912       8.734165      30.285362      29.951112      29.619877       2.537317      73.473845       0.015971      33.771436
         5492.5     142.019357    1625.488857      66.978202     213.155209      51.627332       0.172386       8.766022       0.004009       3.975026       0.091645       0.172543      27.385157      46.225613       8.734297      31.862889      31.402519      30.951480       2.553288      71.914823       0.016022      32.308687
         5493.0     141.966860    1625.595867      64.534727     212.517575      49.122280       0.170019       8.766184       0.003181       4.012822       0.085595       0.165320      23.347785      38.916954       8.734442      30.646908      30.093689      29.558889       2.563633      70.892846       0.016184      33.831789
         5493.5     142.066873    1605.496855      64.440417     211.747828      45.201702       0.171109       8.766359       0.005374       3.974370       0.081615       0.163967      22.285992      37.705201       8.734530      28.586087      27.963233      27.371856       2.570438      70.701387       0.016359      36.544552
         5494.0     142.087087    1595.270478      66.222109     210.772903      44.225551       0.172683       8.766173       0.007026       3.940557       0.080405       0.165924      21.208508      39.109432       8.734860      27.910266      27.196155      26.533239       2.572507      70.978257       0.016173      37.689419
         5494.5     142.066790    1607.573772      65.832424     209.469290      44.216701       0.175952       8.765857       0.005253       3.900701       0.083585       0.169847      21.318555      37.314049       8.735174      27.303409      26.504056      25.784709       2.567070      71.533301       0.015857      38.785320
